Time, Accel X [mg],Accel Y [mg],Accel Z [mg],dRoll [rad/s],dPitch [rad/s],dHeading [rad/s],Roll [rad],Pitch [rad],Yaw [rad],Frequency Reader Frequency [Hz],Calibrated Velocity [m/s],Pressure Sensor Depth [m],State Estimator X [m],State Estimator Y [m],State Estimator Z [m],State Estimator Roll [rad],State Estimator Pitch [rad],State Estimator Yaw [rad],Motor A,Motor B,Motor C,Motor D,Motor E,Servo Angle [rad],Waypoint X [m],Waypoint Y [m],Waypoint Z [m],Waiting [bool]
154332,-2.613,0.755,0.470,1.720,0.282,1.597,0.017,0.003,0.016,0.000,0.000,0.942,0.000,0.000,0.942,0.000,0.000,0.000,0,0,85,0,85,1.275,0.000,0.000,1.000,1.000
154343,-2.621,0.758,0.497,5.158,1.461,5.093,0.069,0.017,0.067,0.000,0.000,0.942,-0.000,0.000,0.942,0.017,0.003,0.016,0,0,85,0,85,1.286,0.000,0.000,1.000,1.000
154354,-2.538,0.891,0.377,0.440,-0.042,0.239,0.073,0.017,0.069,0.000,0.000,0.942,-0.000,0.000,0.942,0.069,0.017,0.067,0,0,85,0,85,1.322,0.000,0.000,1.000,1.000
154365,-2.481,0.667,0.622,0.011,-0.065,-0.017,0.073,0.016,0.069,0.000,0.000,0.942,-0.000,0.000,0.958,0.073,0.017,0.069,0,0,70,0,70,1.324,0.000,0.000,1.000,1.000
154376,-2.773,0.868,0.413,0.023,-0.029,0.026,0.074,0.016,0.069,0.000,0.000,0.942,-0.000,0.000,0.942,0.073,0.016,0.069,0,0,85,0,85,1.324,0.000,0.000,1.000,1.000
154387,-2.577,0.787,0.390,0.027,-0.010,0.037,0.074,0.016,0.070,0.000,0.000,0.942,-0.000,0.000,0.958,0.074,0.016,0.069,0,0,70,0,70,1.324,0.000,0.000,1.000,1.000
154398,-2.344,0.739,0.580,0.029,-0.012,0.045,0.074,0.016,0.070,0.000,0.000,0.958,-0.000,0.000,0.942,0.074,0.016,0.070,0,0,85,0,85,1.324,0.000,0.000,1.000,1.000
154409,-2.700,0.714,0.464,0.035,0.007,0.050,0.074,0.016,0.071,0.000,0.000,0.942,-0.000,0.000,0.958,0.074,0.016,0.070,0,0,70,0,70,1.325,0.000,0.000,1.000,1.000
154420,-2.511,0.753,0.533,0.036,0.006,0.049,0.075,0.016,0.071,0.000,0.000,0.958,-0.000,0.000,0.942,0.074,0.016,0.071,0,0,85,0,85,1.325,0.000,0.000,1.000,1.000
154431,-2.618,0.771,0.438,0.043,0.007,0.049,0.075,0.016,0.072,0.000,0.000,0.958,-0.000,0.000,0.942,0.075,0.016,0.071,0,0,85,0,85,1.325,0.000,0.000,1.000,1.000
154442,-2.633,0.758,0.558,0.041,0.013,0.050,0.076,0.016,0.072,0.000,0.000,0.942,-0.000,0.000,0.942,0.075,0.016,0.072,0,0,85,0,85,1.326,0.000,0.000,1.000,1.000
154453,-2.647,0.802,0.450,0.040,0.021,0.049,0.076,0.016,0.073,0.000,0.000,0.958,-0.000,0.000,0.942,0.076,0.016,0.072,0,0,85,0,85,1.326,0.000,0.000,1.000,1.000
154464,-2.574,0.684,0.521,0.041,0.024,0.048,0.076,0.017,0.073,0.000,0.000,0.942,-0.000,0.000,0.958,0.076,0.016,0.073,0,0,70,0,70,1.326,0.000,0.000,1.000,1.000
154475,-2.648,0.776,0.479,0.046,0.023,0.048,0.077,0.017,0.074,0.000,0.000,0.958,-0.000,0.000,0.942,0.076,0.017,0.073,0,0,85,0,85,1.327,0.000,0.000,1.000,1.000
154486,-2.626,0.703,0.434,0.045,0.035,0.051,0.077,0.017,0.074,0.000,0.000,0.926,-0.000,0.000,0.942,0.077,0.017,0.074,0,0,85,0,85,1.327,0.000,0.000,1.000,1.000
154497,-2.764,0.820,0.458,0.043,0.040,0.042,0.078,0.018,0.075,0.000,0.000,0.942,-0.000,0.000,0.958,0.077,0.017,0.074,0,0,70,0,70,1.327,0.000,0.000,1.000,1.000
154508,-2.526,0.600,0.499,0.047,0.045,0.043,0.078,0.018,0.075,0.000,0.000,0.926,-0.000,0.000,0.942,0.078,0.018,0.075,0,0,85,0,85,1.328,0.000,0.000,1.000,1.000
154519,-2.575,0.710,0.517,0.051,0.044,0.040,0.079,0.018,0.075,0.000,0.000,0.942,-0.000,0.000,0.942,0.078,0.018,0.075,0,0,85,0,85,1.328,0.000,0.000,1.000,1.000
154530,-2.690,0.837,0.509,0.045,0.046,0.038,0.079,0.019,0.076,0.000,0.000,0.942,-0.000,0.000,0.958,0.079,0.018,0.075,0,0,70,0,70,1.328,0.000,0.000,1.000,1.000
154541,-2.586,0.682,0.561,0.041,0.048,0.032,0.080,0.019,0.076,0.000,0.000,0.942,-0.000,0.000,0.942,0.079,0.019,0.076,0,0,85,0,85,1.329,0.000,0.000,1.000,1.000
154552,-2.541,0.637,0.454,0.044,0.056,0.035,0.080,0.020,0.076,0.000,0.000,0.942,-0.000,0.000,0.958,0.080,0.019,0.076,0,0,70,0,70,1.329,0.000,0.000,1.000,1.000
154563,-2.600,0.772,0.491,0.043,0.051,0.034,0.080,0.020,0.077,0.000,0.000,0.942,-0.000,0.000,0.958,0.080,0.020,0.076,0,0,70,0,70,1.329,0.000,0.000,1.000,1.000
154574,-2.688,0.726,0.521,0.035,0.056,0.028,0.081,0.021,0.077,0.000,0.000,0.958,-0.000,0.000,0.942,0.080,0.020,0.077,0,0,85,0,85,1.329,0.000,0.000,1.000,1.000
154585,-2.629,0.688,0.439,0.032,0.061,0.021,0.081,0.022,0.077,0.000,0.000,0.942,-0.000,0.000,0.974,0.081,0.021,0.077,0,0,56,0,56,1.329,0.000,0.000,1.000,1.000
154596,-2.608,0.710,0.458,0.036,0.060,0.018,0.082,0.022,0.077,0.000,0.000,0.958,-0.000,0.000,0.958,0.081,0.022,0.077,0,0,70,0,70,1.330,0.000,0.000,1.000,1.000
154607,-2.563,0.688,0.553,0.028,0.061,0.018,0.082,0.023,0.078,0.000,0.000,0.942,-0.000,0.000,0.958,0.082,0.022,0.077,0,0,70,0,70,1.330,0.000,0.000,1.000,1.000
154618,-2.533,0.647,0.482,0.029,0.064,0.012,0.082,0.023,0.078,0.000,0.000,0.974,-0.000,0.000,0.942,0.082,0.023,0.078,0,0,85,0,85,1.330,0.000,0.000,1.000,1.000
154629,-2.608,0.685,0.440,0.028,0.062,0.013,0.082,0.024,0.078,0.000,0.000,0.958,-0.000,0.000,0.958,0.082,0.023,0.078,0,0,70,0,70,1.330,0.000,0.000,1.000,1.000
154640,-2.582,0.692,0.510,0.021,0.056,0.012,0.083,0.025,0.078,0.000,0.000,0.958,-0.000,0.000,0.942,0.082,0.024,0.078,0,0,85,0,85,1.330,0.000,0.000,1.000,1.000
154651,-2.528,0.589,0.519,0.017,0.064,0.012,0.083,0.025,0.078,0.000,0.000,0.942,-0.000,0.000,0.958,0.083,0.025,0.078,0,0,70,0,70,1.330,0.000,0.000,1.000,1.000
154662,-2.550,0.667,0.487,0.014,0.061,0.011,0.083,0.026,0.078,0.000,0.000,0.942,-0.000,0.000,0.958,0.083,0.025,0.078,0,0,70,0,70,1.330,0.000,0.000,1.000,1.000
154673,-2.519,0.637,0.501,0.010,0.062,0.009,0.083,0.027,0.078,0.000,0.000,0.958,-0.000,0.000,0.958,0.083,0.026,0.078,0,0,70,0,70,1.330,0.000,0.000,1.000,1.000
154684,-2.547,0.659,0.481,0.007,0.061,0.010,0.083,0.027,0.078,0.000,0.000,0.942,-0.000,0.000,0.958,0.083,0.027,0.078,0,0,70,0,70,1.330,0.000,0.000,1.000,1.000
154695,-2.545,0.635,0.466,0.006,0.059,0.006,0.083,0.028,0.078,0.000,0.000,0.958,-0.000,0.000,0.958,0.083,0.027,0.078,0,0,70,0,70,1.330,0.000,0.000,1.000,1.000
154706,-2.528,0.631,0.482,0.005,0.055,0.007,0.083,0.028,0.078,0.000,0.000,0.958,-0.000,0.000,0.942,0.083,0.028,0.078,0,0,85,0,85,1.330,0.000,0.000,1.000,1.000
154717,-2.513,0.619,0.510,0.001,0.046,0.010,0.083,0.029,0.078,0.000,0.000,0.942,-0.000,0.000,0.942,0.083,0.028,0.078,0,0,85,0,85,1.330,0.000,0.000,1.000,1.000
154728,-2.511,0.619,0.471,-0.000,0.043,0.013,0.083,0.029,0.078,0.000,0.000,0.974,-0.000,0.000,0.958,0.083,0.029,0.078,0,0,70,0,70,1.330,0.000,0.000,1.000,1.000
154739,-2.446,0.659,0.538,-0.008,0.033,0.022,0.083,0.029,0.079,0.000,0.000,0.942,-0.000,0.000,0.942,0.083,0.029,0.078,0,0,85,0,85,1.330,0.000,0.000,1.000,1.000
154750,-2.375,0.633,0.586,-0.016,0.029,0.029,0.083,0.030,0.079,0.000,0.000,0.958,-0.000,0.000,0.958,0.083,0.029,0.079,0,0,70,0,70,1.331,0.000,0.000,1.000,1.000
154761,-2.426,0.692,0.564,-0.027,0.016,0.046,0.082,0.030,0.079,0.000,0.000,0.942,-0.000,0.000,0.958,0.083,0.030,0.079,0,0,70,0,70,1.331,0.000,0.000,1.000,1.000
154772,-2.386,0.691,0.586,-0.028,0.007,0.053,0.082,0.030,0.080,0.000,0.000,0.942,-0.000,0.000,0.974,0.082,0.030,0.079,0,0,56,0,56,1.331,0.000,0.000,1.000,1.000
154783,-2.404,0.703,0.604,-0.030,-0.001,0.056,0.082,0.030,0.080,0.000,0.000,0.942,-0.000,0.000,0.958,0.082,0.030,0.080,0,0,70,0,70,1.331,0.000,0.000,1.000,1.000
154794,-2.429,0.704,0.565,-0.032,-0.006,0.059,0.082,0.030,0.081,0.000,0.000,0.958,-0.000,0.000,0.974,0.082,0.030,0.080,0,0,56,0,56,1.332,0.000,0.000,1.000,1.000
154805,-2.432,0.708,0.576,-0.032,-0.013,0.062,0.081,0.030,0.082,0.000,0.000,0.958,-0.000,0.000,0.958,0.082,0.030,0.081,0,0,70,0,70,1.332,0.000,0.000,1.000,1.000
154816,-2.449,0.694,0.573,-0.033,-0.022,0.065,0.081,0.030,0.082,0.000,0.000,0.974,-0.000,0.000,0.974,0.081,0.030,0.082,0,0,56,0,56,1.333,0.000,0.000,1.000,1.000
154827,-2.538,0.679,0.523,-0.033,-0.023,0.066,0.081,0.029,0.083,0.000,0.000,0.942,-0.000,0.000,0.958,0.081,0.030,0.082,0,0,70,0,70,1.333,0.000,0.000,1.000,1.000
154838,-2.617,0.656,0.492,-0.034,-0.022,0.066,0.080,0.029,0.084,0.000,0.000,0.974,-0.000,0.000,0.958,0.081,0.029,0.083,0,0,70,0,70,1.334,0.000,0.000,1.000,1.000
154849,-2.776,0.630,0.402,-0.033,-0.009,0.059,0.080,0.029,0.084,0.000,0.000,0.958,-0.000,0.000,0.974,0.080,0.029,0.084,0,0,56,0,56,1.334,0.000,0.000,1.000,1.000
154860,-2.797,0.602,0.375,-0.031,0.002,0.049,0.080,0.029,0.085,0.000,0.000,0.958,-0.000,0.000,0.942,0.080,0.029,0.084,0,0,85,0,85,1.335,0.000,0.000,1.000,1.000
154871,-2.812,0.617,0.335,-0.025,0.006,0.039,0.079,0.029,0.085,0.000,0.000,0.990,-0.000,0.000,0.958,0.080,0.029,0.085,0,0,70,0,70,1.335,0.000,0.000,1.000,1.000
154882,-2.795,0.600,0.347,-0.020,0.007,0.029,0.079,0.029,0.085,0.000,0.000,0.942,-0.000,0.000,0.958,0.079,0.029,0.085,0,0,70,0,70,1.335,0.000,0.000,1.000,1.000
154893,-2.754,0.615,0.369,-0.015,0.007,0.018,0.079,0.029,0.086,0.000,0.000,0.942,-0.000,0.000,0.958,0.079,0.029,0.085,0,0,70,0,70,1.335,0.000,0.000,1.000,1.000
154904,-2.784,0.642,0.385,-0.012,0.011,0.009,0.079,0.029,0.086,0.000,0.000,0.942,-0.000,0.000,0.942,0.079,0.029,0.086,0,0,85,0,85,1.335,0.000,0.000,1.000,1.000
154915,-2.721,0.623,0.416,-0.008,0.015,-0.001,0.079,0.029,0.086,0.000,0.000,0.958,-0.000,0.000,0.958,0.079,0.029,0.086,0,0,70,0,70,1.335,0.000,0.000,1.000,1.000
154926,-2.711,0.665,0.444,-0.009,0.022,-0.007,0.079,0.030,0.086,0.000,0.000,0.958,-0.000,0.000,0.942,0.079,0.029,0.086,0,0,85,0,85,1.335,0.000,0.000,1.000,1.000
154937,-2.590,0.705,0.510,-0.322,0.033,-0.017,0.076,0.030,0.085,0.000,0.000,0.926,-0.000,0.000,0.958,0.079,0.030,0.086,0,0,70,0,70,1.335,0.000,0.000,1.000,1.000
154948,-2.523,0.715,0.556,-0.016,0.038,-0.021,0.075,0.030,0.085,0.000,0.000,0.958,-0.000,0.000,0.958,0.076,0.030,0.085,0,0,70,0,70,1.335,0.000,0.000,1.000,1.000
154959,-2.545,0.717,0.529,-0.022,0.049,-0.021,0.075,0.031,0.085,0.000,0.000,0.942,-0.000,0.000,0.958,0.075,0.030,0.085,0,0,70,0,70,1.335,0.000,0.000,1.000,1.000
154970,-2.503,0.729,0.541,-0.025,0.050,-0.020,0.075,0.031,0.085,0.000,0.000,0.958,-0.000,0.000,0.958,0.075,0.031,0.085,0,0,70,0,70,1.335,0.000,0.000,1.000,1.000
154981,-2.491,0.730,0.564,-0.031,0.060,-0.017,0.075,0.032,0.085,0.000,0.000,0.974,-0.000,0.000,0.958,0.075,0.031,0.085,0,0,70,0,70,1.335,0.000,0.000,1.000,1.000
154992,-2.452,0.751,0.586,-0.034,0.066,-0.017,0.074,0.033,0.084,0.000,0.000,0.958,-0.000,0.000,0.958,0.075,0.032,0.085,0,0,70,0,70,1.335,0.000,0.000,1.000,1.000
155003,-2.463,0.761,0.547,-0.042,0.081,-0.015,0.074,0.033,0.084,0.000,0.000,0.958,-0.000,0.000,0.958,0.074,0.033,0.084,0,0,70,0,70,1.335,0.000,0.000,1.000,1.000
155014,-2.429,0.766,0.562,-0.043,0.084,-0.015,0.074,0.034,0.084,0.000,0.000,0.974,-0.000,0.000,0.958,0.074,0.033,0.084,0,0,70,0,70,1.335,0.000,0.000,1.000,1.000
155025,-2.401,0.787,0.559,-0.048,0.089,-0.011,0.073,0.035,0.084,0.000,0.000,0.813,-0.000,0.000,0.958,0.074,0.034,0.084,0,0,70,0,70,1.334,0.000,0.000,1.000,1.000
155036,-2.423,0.815,0.489,-0.049,0.089,-0.006,0.073,0.036,0.084,0.000,0.000,0.974,-0.000,0.000,0.958,0.073,0.035,0.084,0,0,70,0,70,1.334,0.000,0.000,1.000,1.000
155047,-2.425,0.788,0.559,-0.050,0.082,-0.006,0.072,0.037,0.084,0.000,0.000,0.958,-0.000,0.000,0.958,0.073,0.036,0.084,0,0,70,0,70,1.334,0.000,0.000,1.000,1.000
155058,-2.399,0.793,0.507,-0.053,0.083,0.000,0.072,0.038,0.084,0.000,0.000,0.942,-0.000,0.000,0.974,0.072,0.037,0.084,0,0,56,0,56,1.334,0.000,0.000,1.000,1.000
155069,-2.396,0.808,0.533,-0.060,0.081,0.002,0.071,0.038,0.084,0.000,0.000,0.974,-0.000,0.000,0.974,0.072,0.038,0.084,0,0,56,0,56,1.334,0.000,0.000,1.000,1.000
155080,-2.422,0.806,0.455,-0.060,0.088,0.005,0.070,0.039,0.084,0.000,0.000,0.942,-0.000,0.000,0.958,0.071,0.038,0.084,0,0,70,0,70,1.334,0.000,0.000,1.000,1.000
155091,-2.428,0.821,0.482,-0.065,0.088,0.007,0.070,0.040,0.084,0.000,0.000,0.958,-0.000,0.000,0.974,0.070,0.039,0.084,0,0,56,0,56,1.334,0.000,0.000,1.000,1.000
155102,-2.412,0.830,0.469,-0.067,0.092,0.007,0.069,0.041,0.084,0.000,0.000,0.974,-0.000,0.000,0.990,0.070,0.040,0.084,0,0,42,0,42,1.334,0.000,0.000,1.000,1.000
155113,-2.400,0.816,0.444,-0.070,0.094,0.009,0.068,0.042,0.084,0.000,0.000,0.958,-0.000,0.000,0.958,0.069,0.041,0.084,0,0,70,0,70,1.334,0.000,0.000,1.000,1.000
155124,-2.381,0.839,0.450,-0.072,0.105,0.009,0.068,0.043,0.084,0.000,0.000,0.990,-0.000,0.000,0.958,0.068,0.042,0.084,0,0,70,0,70,1.334,0.000,0.000,1.000,1.000
155135,-2.374,0.868,0.421,-0.075,0.103,0.010,0.067,0.044,0.084,0.000,0.000,0.974,-0.000,0.000,0.974,0.068,0.043,0.084,0,0,56,0,56,1.334,0.000,0.000,1.000,1.000
155146,-2.339,0.849,0.439,-0.076,0.106,0.011,0.066,0.045,0.084,0.000,0.000,0.974,-0.000,0.000,0.942,0.067,0.044,0.084,0,0,85,0,85,1.334,0.000,0.000,1.000,1.000
155157,-2.347,0.866,0.428,-0.077,0.108,0.015,0.065,0.046,0.084,0.000,0.000,0.974,-0.000,0.000,0.974,0.066,0.045,0.084,0,0,56,0,56,1.334,0.000,0.000,1.000,1.000
155168,-2.343,0.874,0.433,-0.080,0.109,0.016,0.065,0.047,0.084,0.000,0.000,0.974,-0.000,0.000,0.958,0.065,0.046,0.084,0,0,70,0,70,1.335,0.000,0.000,1.000,1.000
155179,-2.313,0.874,0.409,-0.082,0.110,0.018,0.064,0.048,0.085,0.000,0.000,0.958,-0.000,0.000,0.958,0.065,0.047,0.084,0,0,70,0,70,1.335,0.000,0.000,1.000,1.000
155190,-2.315,0.889,0.416,-0.085,0.111,0.021,0.063,0.050,0.085,0.000,0.000,0.974,-0.000,0.000,0.990,0.064,0.048,0.085,0,0,42,0,42,1.335,0.000,0.000,1.000,1.000
155201,-2.329,0.921,0.361,-0.086,0.112,0.022,0.062,0.051,0.085,0.000,0.000,0.974,-0.000,0.000,0.974,0.063,0.050,0.085,0,0,56,0,56,1.335,0.000,0.000,1.000,1.000
155212,-2.272,0.911,0.391,-0.091,0.117,0.023,0.061,0.052,0.085,0.000,0.000,0.958,-0.000,0.000,1.006,0.062,0.051,0.085,--0,0,40,0,40,1.335,0.000,0.000,1.000,1.000
155223,-2.320,0.937,0.363,-0.093,0.120,0.024,0.060,0.053,0.086,0.000,0.000,0.958,-0.000,0.000,0.990,0.061,0.052,0.085,0,0,42,0,42,1.335,0.000,0.000,1.000,1.000
155234,-2.277,0.936,0.335,-0.096,0.122,0.023,0.059,0.054,0.086,0.000,0.000,0.974,-0.000,0.000,0.990,0.060,0.053,0.086,0,0,42,0,42,1.335,0.000,0.000,1.000,1.000
155245,-2.271,0.940,0.342,-0.097,0.126,0.026,0.058,0.056,0.086,0.000,0.000,0.974,-0.000,0.000,0.974,0.059,0.054,0.086,0,0,56,0,56,1.336,0.000,0.000,1.000,1.000
155256,-2.255,0.961,0.345,-0.099,0.125,0.027,0.057,0.057,0.086,0.000,0.000,0.974,-0.000,0.000,0.958,0.058,0.056,0.086,0,0,70,0,70,1.336,0.000,0.000,1.000,1.000
155267,-2.233,0.955,0.337,-0.099,0.130,0.026,0.056,0.058,0.087,0.000,0.000,0.990,-0.000,0.000,0.974,0.057,0.057,0.086,0,0,56,0,56,1.336,0.000,0.000,1.000,1.000
155278,-2.217,0.984,0.329,-0.099,0.130,0.028,0.055,0.059,0.087,0.000,0.000,0.958,-0.000,0.000,0.974,0.056,0.058,0.087,0,0,56,0,56,1.336,0.000,0.000,1.000,1.000
155289,-2.218,0.982,0.323,-0.098,0.131,0.027,0.054,0.061,0.087,0.000,0.000,0.974,-0.000,0.000,0.958,0.055,0.059,0.087,0,0,70,0,70,1.336,0.000,0.000,1.000,1.000
155300,-2.185,1.007,0.304,-0.098,0.134,0.027,0.053,0.062,0.087,0.000,0.000,0.974,-0.000,0.000,0.990,0.054,0.061,0.087,0,0,42,0,42,1.337,0.000,0.000,1.000,1.000
155311,-2.170,1.014,0.299,-0.098,0.137,0.028,0.052,0.063,0.088,0.000,0.000,0.990,-0.000,0.000,0.990,0.053,0.062,0.087,0,0,42,0,42,1.337,0.000,0.000,1.000,1.000
155322,-2.158,1.026,0.309,-0.099,0.138,0.029,0.051,0.065,0.088,0.000,0.000,0.974,-0.000,0.000,0.990,0.052,0.063,0.088,0,0,42,0,42,1.337,0.000,0.000,1.000,1.000
155333,-2.127,1.044,0.304,-0.099,0.142,0.029,0.050,0.066,0.088,0.000,0.000,0.990,-0.000,0.000,0.974,0.051,0.065,0.088,120,120,57,120,56,1.337,1.000,0.000,1.000,0.000
155344,-2.149,1.202,0.293,-0.097,0.143,0.032,0.049,0.068,0.089,0.000,0.000,0.974,-0.000,0.000,0.974,0.050,0.066,0.088,120,120,57,120,56,1.337,1.000,0.000,1.000,0.000
155355,-2.069,1.309,0.343,-0.094,0.143,0.033,0.048,0.069,0.089,0.000,0.000,0.974,-0.000,0.000,0.958,0.049,0.068,0.089,120,120,71,120,70,1.338,1.000,0.000,1.000,0.000
155366,-2.082,1.404,0.329,-0.088,0.147,0.031,0.048,0.071,0.089,0.000,0.000,1.006,-0.000,0.000,0.974,0.048,0.069,0.089,120,120,57,120,56,1.338,1.000,0.000,1.000,0.000
155377,-2.108,1.379,0.358,-0.081,0.147,0.028,0.047,0.072,0.089,0.000,0.000,0.990,-0.000,0.000,0.974,0.048,0.071,0.089,120,120,57,120,56,1.338,1.000,0.000,1.000,0.000
155410,-2.032,1.492,0.346,-0.070,0.144,0.023,0.045,0.076,0.090,0.000,0.000,0.974,-0.000,0.000,0.990,0.045,0.075,0.090,120,120,43,120,42,1.339,1.000,0.000,1.000,0.000
155421,-2.089,1.402,0.342,-0.070,0.144,0.009,0.044,0.078,0.090,0.000,0.000,0.974,-0.000,0.000,1.006,0.045,0.076,0.090,--120,120,40,120,40,1.339,1.000,0.000,1.000,0.000
155432,-1.888,1.467,0.419,-0.059,0.138,0.005,0.043,0.079,0.090,0.000,0.000,0.974,-0.000,0.000,0.974,0.044,0.078,0.090,120,120,57,120,56,1.339,1.000,0.000,1.000,0.000
155443,-2.035,1.461,0.214,-0.053,0.149,0.010,0.043,0.081,0.090,0.000,0.000,0.958,-0.000,0.000,0.974,0.043,0.079,0.090,120,120,57,120,56,1.339,1.000,0.000,1.000,0.000
155454,-1.943,1.393,0.408,-0.049,0.138,0.000,0.042,0.082,0.090,0.000,0.000,0.974,-0.000,0.000,0.974,0.043,0.081,0.090,120,120,57,120,56,1.339,1.000,0.000,1.000,0.000
155465,-2.004,1.518,0.395,-0.041,0.128,-0.007,0.042,0.083,0.090,0.000,0.000,0.990,-0.000,0.000,0.974,0.042,0.082,0.090,120,120,57,120,56,1.339,1.000,0.000,1.000,0.000
155476,-1.866,1.405,0.394,-0.022,0.134,-0.006,0.042,0.085,0.090,0.000,0.000,0.974,-0.000,0.000,0.990,0.042,0.083,0.090,120,120,43,120,42,1.339,1.000,0.000,1.000,0.000
155487,-2.004,1.567,0.326,-0.015,0.130,-0.007,0.041,0.086,0.090,0.000,0.000,1.023,-0.000,0.000,0.958,0.042,0.085,0.090,120,120,71,120,70,1.339,1.000,0.000,1.000,0.000
155498,-1.773,1.378,0.262,-0.000,0.147,0.002,0.041,0.087,0.090,0.000,0.000,0.990,-0.000,0.000,0.990,0.041,0.086,0.090,120,120,43,120,42,1.339,1.000,0.000,1.000,0.000
155509,-1.783,1.404,0.384,0.008,0.139,-0.001,0.041,0.089,0.090,0.000,0.000,0.942,-0.000,0.000,0.990,0.041,0.087,0.090,120,120,43,120,42,1.339,1.000,0.000,1.000,0.000
155520,-1.985,1.579,0.274,0.022,0.132,-0.005,0.042,0.090,0.090,0.000,0.000,0.990,-0.000,0.000,1.006,0.041,0.089,0.090,--120,120,40,120,40,1.339,1.000,0.000,1.000,0.000
155531,-1.743,1.373,0.259,0.034,0.149,0.004,0.042,0.092,0.090,0.000,0.000,0.974,-0.000,0.000,0.990,0.042,0.090,0.090,120,120,43,120,42,1.339,1.000,0.000,1.000,0.000
155542,-1.703,1.435,0.352,0.043,0.140,-0.001,0.042,0.093,0.090,0.000,0.000,0.990,-0.000,0.000,0.958,0.042,0.092,0.090,120,120,71,120,70,1.339,1.000,0.000,1.000,0.000
155553,-1.929,1.497,0.220,0.055,0.137,0.002,0.043,0.094,0.090,0.000,0.000,0.974,-0.000,0.000,1.006,0.042,0.093,0.090,--120,120,40,120,40,1.339,1.000,0.000,1.000,0.000
155564,-1.703,1.411,0.274,0.071,0.138,0.001,0.044,0.096,0.090,0.000,0.000,0.990,-0.000,0.000,0.990,0.043,0.094,0.090,120,120,43,120,42,1.339,1.000,0.000,1.000,0.000
155575,-1.857,1.422,0.297,0.080,0.136,0.005,0.044,0.097,0.090,0.000,0.000,0.990,-0.000,0.000,0.990,0.044,0.096,0.090,120,120,43,120,42,1.339,1.000,0.000,1.000,0.000
155586,-1.759,1.405,0.268,0.084,0.134,0.001,0.045,0.099,0.090,0.000,0.000,0.990,-0.000,0.000,0.990,0.044,0.097,0.090,120,120,43,120,42,1.339,1.000,0.000,1.000,0.000
155597,-1.637,1.343,0.349,0.091,0.136,0.000,0.046,0.100,0.090,0.000,0.000,0.974,-0.000,0.000,1.006,0.045,0.099,0.090,--120,120,39,120,40,1.339,1.000,0.000,1.000,0.000
155608,-1.841,1.470,0.267,0.095,0.125,-0.001,0.047,0.101,0.090,0.000,0.000,1.023,-0.000,0.000,1.023,0.046,0.100,0.090,--120,120,54,120,54,1.339,1.000,0.000,1.000,0.000
155619,-1.719,1.305,0.229,0.104,0.130,-0.002,0.048,0.102,0.090,0.000,0.000,0.990,-0.000,0.000,0.974,0.047,0.101,0.090,120,120,57,120,56,1.339,1.000,0.000,1.000,0.000
155630,-1.572,1.356,0.401,0.107,0.120,-0.004,0.049,0.104,0.090,0.000,0.000,0.974,-0.000,0.000,0.990,0.048,0.102,0.090,120,120,43,120,42,1.339,1.000,0.000,1.000,0.000
155641,-1.844,1.437,0.208,0.115,0.119,-0.009,0.050,0.105,0.090,0.000,0.000,1.006,-0.000,0.000,0.990,0.049,0.104,0.090,120,120,43,120,42,1.339,1.000,0.000,1.000,0.000
155652,-1.657,1.378,0.269,0.127,0.109,-0.010,0.052,0.106,0.090,0.000,0.000,1.006,-0.000,0.000,0.990,0.050,0.105,0.090,120,120,43,120,42,1.339,1.000,0.000,1.000,0.000
155663,-1.774,1.315,0.261,0.137,0.116,-0.012,0.053,0.107,0.090,0.000,0.000,1.023,-0.000,0.000,1.006,0.052,0.106,0.090,--120,120,39,120,40,1.339,1.000,0.000,1.000,0.000
155674,-1.572,1.223,0.370,0.140,0.110,-0.013,0.054,0.108,0.090,0.000,0.000,0.990,-0.000,0.000,1.006,0.053,0.107,0.090,--120,120,39,120,40,1.339,1.000,0.000,1.000,0.000
155685,-1.704,1.263,0.236,0.145,0.109,-0.015,0.056,0.109,0.090,0.000,0.000,1.006,-0.000,0.000,1.006,0.054,0.108,0.090,--120,120,39,120,40,1.339,1.000,0.000,1.000,0.000
155696,-1.706,1.177,0.288,0.150,0.108,-0.016,0.057,0.110,0.090,0.000,0.000,0.990,-0.000,0.000,0.990,0.056,0.109,0.090,120,120,43,120,42,1.338,1.000,0.000,1.000,0.000
155707,-1.576,1.196,0.339,0.152,0.099,-0.012,0.059,0.111,0.089,0.000,0.000,0.990,-0.000,0.000,1.006,0.057,0.110,0.090,--120,120,39,120,41,1.338,1.000,0.000,1.000,0.000
155718,-1.671,1.126,0.272,0.152,0.100,-0.009,0.060,0.112,0.089,0.000,0.000,0.990,-0.000,0.000,1.023,0.059,0.111,0.089,--120,120,53,120,54,1.338,1.000,0.000,1.000,0.000
155729,-1.592,1.087,0.329,0.152,0.090,-0.012,0.062,0.113,0.089,0.000,0.000,0.990,-0.000,0.000,1.006,0.060,0.112,0.089,--120,120,39,120,41,1.338,1.000,0.000,1.000,0.000
155740,-1.602,1.020,0.279,0.152,0.092,-0.002,0.064,0.114,0.089,0.000,0.000,1.006,-0.000,0.000,0.990,0.062,0.113,0.089,120,120,43,120,42,1.338,1.000,0.000,1.000,0.000
155751,-1.539,1.064,0.351,0.149,0.083,-0.002,0.065,0.115,0.089,0.000,0.000,0.942,-0.000,0.000,1.023,0.064,0.114,0.089,--120,120,53,120,54,1.338,1.000,0.000,1.000,0.000
155762,-1.591,1.039,0.144,0.149,0.088,0.005,0.067,0.116,0.089,0.000,0.000,1.006,-0.000,0.000,0.990,0.065,0.115,0.089,120,120,43,120,42,1.338,1.000,0.000,1.000,0.000
155773,-1.546,0.925,0.292,0.149,0.095,0.006,0.068,0.117,0.089,0.000,0.000,1.006,-0.000,0.000,0.990,0.067,0.116,0.089,120,120,43,120,42,1.338,1.000,0.000,1.000,0.000
155784,-1.600,1.051,0.256,0.146,0.073,0.006,0.069,0.118,0.089,0.000,0.000,0.990,-0.000,0.000,0.990,0.068,0.117,0.089,120,120,43,120,41,1.338,1.000,0.000,1.000,0.000
155795,-1.582,0.949,0.129,0.144,0.082,0.013,0.071,0.118,0.089,0.000,0.000,1.006,-0.000,0.000,1.006,0.069,0.118,0.089,--120,120,39,120,41,1.338,1.000,0.000,1.000,0.000
155806,-1.485,0.867,0.327,0.141,0.078,0.012,0.072,0.119,0.090,0.000,0.000,1.023,-0.000,0.000,1.006,0.071,0.118,0.089,--120,120,39,120,41,1.338,1.000,0.000,1.000,0.000
155817,-1.595,1.010,0.184,0.140,0.070,0.017,0.074,0.120,0.090,0.000,0.000,1.006,-0.000,0.000,1.006,0.072,0.119,0.090,--120,120,39,120,41,1.338,1.000,0.000,1.000,0.000
155828,-1.448,0.887,0.320,0.135,0.061,0.018,0.075,0.120,0.090,0.000,0.000,0.974,-0.000,0.000,1.006,0.074,0.120,0.090,--120,120,39,120,41,1.338,1.000,0.000,1.000,0.000
155839,-1.619,0.983,0.133,0.134,0.056,0.023,0.076,0.121,0.090,0.000,0.000,0.990,-0.000,0.000,1.023,0.075,0.120,0.090,--120,120,53,120,54,1.339,1.000,0.000,1.000,0.000
155850,-1.505,0.799,0.218,0.134,0.064,0.023,0.078,0.122,0.090,0.000,0.000,0.990,-0.000,0.000,1.006,0.076,0.121,0.090,--120,120,39,120,41,1.339,1.000,0.000,1.000,0.000
155861,-1.500,0.883,0.244,0.130,0.053,0.024,0.079,0.122,0.091,0.000,0.000,1.006,-0.000,0.000,0.974,0.078,0.122,0.090,120,120,57,120,56,1.339,1.000,0.000,1.000,0.000
155872,-1.618,0.891,0.153,0.132,0.054,0.028,0.080,0.123,0.091,0.000,0.000,1.039,-0.000,0.000,1.023,0.079,0.122,0.091,--120,120,53,120,54,1.339,1.000,0.000,1.000,0.000
155883,-1.463,0.771,0.260,0.129,0.051,0.026,0.082,0.123,0.091,0.000,0.000,0.974,-0.000,0.000,1.006,0.080,0.123,0.091,--120,120,39,120,41,1.339,1.000,0.000,1.000,0.000
155894,-1.539,0.855,0.157,0.127,0.046,0.029,0.083,0.124,0.091,0.000,0.000,0.990,-0.000,0.000,0.990,0.082,0.123,0.091,120,120,43,120,41,1.339,1.000,0.000,1.000,0.000
155905,-1.553,0.779,0.226,0.128,0.050,0.027,0.084,0.124,0.092,0.000,0.000,0.990,-0.000,0.000,0.990,0.083,0.124,0.091,120,120,43,120,41,1.340,1.000,0.000,1.000,0.000
155916,-1.543,0.791,0.129,0.124,0.038,0.032,0.085,0.125,0.092,0.000,0.000,1.006,-0.000,0.000,1.039,0.084,0.124,0.092,--120,120,67,120,68,1.340,1.000,0.000,1.000,0.000
155927,-1.464,0.738,0.260,0.124,0.035,0.029,0.087,0.125,0.092,0.000,0.000,1.006,-0.000,0.000,1.023,0.085,0.125,0.092,--120,120,53,120,54,1.340,1.000,0.000,1.000,0.000
155938,-1.496,0.760,0.162,0.123,0.033,0.037,0.088,0.125,0.093,0.000,0.000,1.006,-0.000,0.000,1.006,0.087,0.125,0.092,--120,120,39,120,41,1.340,1.000,0.000,1.000,0.000
155949,-1.498,0.721,0.165,0.123,0.034,0.038,0.089,0.126,0.093,0.000,0.000,0.990,-0.000,0.000,1.006,0.088,0.125,0.093,--120,120,39,120,41,1.341,1.000,0.000,1.000,0.000
155960,-1.433,0.743,0.265,0.122,0.024,0.039,0.090,0.126,0.093,0.000,0.000,1.006,-0.000,0.000,1.006,0.089,0.126,0.093,--120,120,39,120,41,1.341,1.000,0.000,1.000,0.000
155971,-1.487,0.733,0.136,0.121,0.029,0.046,0.092,0.126,0.094,0.000,0.000,1.006,-0.000,0.000,1.006,0.090,0.126,0.093,--120,120,39,120,41,1.341,1.000,0.000,1.000,0.000
155982,-1.470,0.661,0.207,0.122,0.028,0.044,0.093,0.126,0.094,0.000,0.000,0.990,-0.000,0.000,0.974,0.092,0.126,0.094,120,120,57,120,55,1.341,1.000,0.000,1.000,0.000
155993,-1.473,0.723,0.208,0.120,0.016,0.049,0.094,0.127,0.095,0.000,0.000,0.990,-0.000,0.000,1.023,0.093,0.126,0.094,--120,120,53,120,54,1.342,1.000,0.000,1.000,0.000
156004,-1.430,0.648,0.242,0.121,0.013,0.048,0.095,0.127,0.095,0.000,0.000,1.039,-0.000,0.000,1.006,0.094,0.127,0.095,--120,120,39,120,41,1.342,1.000,0.000,1.000,0.000
156015,-1.517,0.671,0.147,0.117,0.017,0.055,0.096,0.127,0.096,0.000,0.000,1.006,-0.000,0.000,1.006,0.095,0.127,0.095,--120,120,39,120,41,1.342,1.000,0.000,1.000,0.000
156026,-1.490,0.569,0.215,0.113,0.018,0.051,0.098,0.127,0.096,0.000,0.000,0.974,-0.000,0.000,1.006,0.096,0.127,0.096,--120,120,39,120,41,1.343,1.000,0.000,1.000,0.000
156037,-1.384,0.623,0.266,0.111,0.009,0.055,0.099,0.127,0.097,0.000,0.000,1.006,-0.000,0.000,1.006,0.098,0.127,0.096,--120,120,39,120,41,1.343,1.000,0.000,1.000,0.000
156048,-1.524,0.600,0.140,0.109,0.012,0.061,0.100,0.127,0.098,0.000,0.000,1.006,-0.000,0.000,0.990,0.099,0.127,0.097,120,120,43,120,41,1.344,1.000,0.000,1.000,0.000
156059,-1.437,0.554,0.230,0.107,0.012,0.057,0.101,0.127,0.098,0.000,0.000,1.006,-0.000,0.000,0.990,0.100,0.127,0.098,120,120,43,120,41,1.344,1.000,0.000,1.000,0.000
156070,-1.425,0.594,0.206,0.101,0.005,0.066,0.102,0.127,0.099,0.000,0.000,1.006,-0.000,0.000,0.990,0.101,0.127,0.098,120,120,43,120,41,1.344,1.000,0.000,1.000,0.000
156081,-1.502,0.505,0.160,0.099,0.007,0.066,0.103,0.127,0.099,0.000,0.000,1.006,-0.000,0.000,0.990,0.102,0.127,0.099,120,120,43,120,41,1.345,1.000,0.000,1.000,0.000
156092,-1.486,0.633,0.109,0.095,0.005,0.068,0.104,0.127,0.100,0.000,0.000,1.023,-0.000,0.000,1.006,0.103,0.127,0.099,--120,120,39,120,41,1.345,1.000,0.000,1.000,0.000
156103,-1.460,0.473,0.163,0.095,0.004,0.075,0.105,0.127,0.101,0.000,0.000,1.006,-0.000,0.000,1.006,0.104,0.127,0.100,--120,120,39,120,41,1.346,1.000,0.000,1.000,0.000
156114,-1.376,0.499,0.239,0.091,-0.004,0.082,0.106,0.127,0.102,0.000,0.000,1.006,-0.000,0.000,1.023,0.105,0.127,0.101,--120,120,53,120,54,1.346,1.000,0.000,1.000,0.000
156125,-1.506,0.565,0.133,0.090,-0.004,0.083,0.107,0.127,0.103,0.000,0.000,1.039,-0.000,0.000,1.006,0.106,0.127,0.102,--120,120,39,120,41,1.347,1.000,0.000,1.000,0.000
156136,-1.406,0.481,0.206,0.090,-0.005,0.087,0.107,0.127,0.103,0.000,0.000,1.006,-0.000,0.000,1.023,0.107,0.127,0.103,--120,120,53,120,54,1.347,1.000,0.000,1.000,0.000
156147,-1.450,0.510,0.152,0.087,-0.007,0.092,0.108,0.127,0.104,0.000,0.000,0.990,-0.000,0.000,1.023,0.107,0.127,0.103,--120,120,53,120,54,1.348,1.000,0.000,1.000,0.000
156158,-1.480,0.511,0.165,0.088,-0.007,0.089,0.109,0.127,0.105,0.000,0.000,1.023,-0.000,0.000,0.990,0.108,0.127,0.104,120,120,43,120,41,1.349,1.000,0.000,1.000,0.000
156169,-1.390,0.470,0.189,0.084,-0.009,0.097,0.110,0.127,0.106,0.000,0.000,1.023,-0.000,0.000,1.023,0.109,0.127,0.105,--120,120,53,120,54,1.349,1.000,0.000,1.000,0.000
156180,-1.457,0.450,0.219,0.080,-0.009,0.099,0.111,0.127,0.107,0.000,0.000,1.023,-0.000,0.000,0.974,0.110,0.127,0.106,120,120,57,120,55,1.350,1.000,0.000,1.000,0.000
156191,-1.458,0.493,0.111,0.077,-0.011,0.105,0.112,0.127,0.108,0.000,0.000,1.006,-0.000,0.000,1.006,0.111,0.127,0.107,--120,120,39,120,41,1.351,1.000,0.000,1.000,0.000
156202,-1.445,0.405,0.160,0.073,-0.012,0.103,0.112,0.127,0.109,0.000,0.000,1.023,-0.000,0.000,1.023,0.112,0.127,0.108,--120,120,53,120,54,1.351,1.000,0.000,1.000,0.000
156213,-1.419,0.516,0.230,0.071,-0.017,0.105,0.113,0.127,0.110,0.000,0.000,1.006,-0.000,0.000,1.023,0.112,0.127,0.109,--120,120,53,120,54,1.352,1.000,0.000,1.000,0.000
156224,-1.474,0.467,0.077,0.071,-0.007,0.111,0.114,0.127,0.111,0.000,0.000,1.006,-0.000,0.000,0.990,0.113,0.127,0.110,120,120,43,120,41,1.353,1.000,0.000,1.000,0.000
156235,-1.439,0.424,0.195,0.067,-0.012,0.110,0.114,0.127,0.113,0.000,0.000,1.023,-0.000,0.000,1.023,0.114,0.127,0.111,--120,120,53,120,54,1.354,1.000,0.000,1.000,0.000
156246,-1.476,0.481,0.156,0.065,-0.013,0.115,0.115,0.127,0.114,0.000,0.000,1.006,-0.000,0.000,1.006,0.114,0.127,0.113,--120,120,39,120,41,1.355,1.000,0.000,1.000,0.000
156257,-1.447,0.383,0.120,0.062,-0.006,0.117,0.116,0.127,0.115,0.000,0.000,1.023,-0.000,0.000,1.039,0.115,0.127,0.114,--120,120,67,120,68,1.355,1.000,0.000,1.000,0.000
156268,-1.415,0.429,0.248,0.056,-0.015,0.119,0.116,0.126,0.116,0.000,0.000,0.990,-0.000,0.000,1.006,0.116,0.127,0.115,--120,120,39,120,41,1.356,1.000,0.000,1.000,0.000
156279,-1.438,0.373,0.169,0.050,-0.009,0.121,0.117,0.126,0.117,0.000,0.000,1.006,-0.000,0.000,1.023,0.116,0.126,0.116,--120,120,53,120,54,1.357,1.000,0.000,1.000,0.000
156290,-1.455,0.452,0.213,0.039,-0.017,0.120,0.117,0.126,0.118,0.000,0.000,1.039,-0.000,0.000,1.006,0.117,0.126,0.117,--120,120,39,120,41,1.358,1.000,0.000,1.000,0.000
156301,-1.537,0.453,0.059,0.041,-0.011,0.119,0.118,0.126,0.120,0.000,0.000,1.023,-0.000,0.000,1.023,0.117,0.126,0.118,--120,120,53,120,54,1.359,1.000,0.000,1.000,0.000
156312,-1.375,0.379,0.242,0.035,-0.010,0.122,0.118,0.126,0.121,0.000,0.000,1.039,-0.000,0.000,1.006,0.118,0.126,0.120,--120,120,39,120,41,1.360,1.000,0.000,1.000,0.000
156323,-1.502,0.499,0.177,0.032,-0.018,0.119,0.118,0.126,0.122,0.000,0.000,1.039,-0.000,0.000,1.023,0.118,0.126,0.121,--120,120,53,120,54,1.360,1.000,0.000,1.000,0.000
156334,-1.553,0.398,0.104,0.028,-0.015,0.119,0.118,0.126,0.123,0.000,0.000,1.039,-0.000,0.000,1.006,0.118,0.126,0.122,--120,120,39,120,41,1.361,1.000,0.000,1.000,0.000
156345,-1.342,0.455,0.169,0.027,-0.020,0.121,0.119,0.126,0.124,0.000,0.000,0.990,-0.000,0.000,1.039,0.118,0.126,0.123,--120,120,67,120,68,1.362,1.000,0.000,1.000,0.000
156356,-1.494,0.400,0.136,0.024,-0.018,0.122,0.119,0.125,0.126,0.000,0.000,1.023,-0.000,0.000,1.023,0.119,0.126,0.124,--120,120,53,120,54,1.363,1.000,0.000,1.000,0.000
156367,-1.354,0.388,0.113,0.025,-0.011,0.134,0.119,0.125,0.127,0.000,0.000,0.990,-0.000,0.000,1.006,0.119,0.125,0.126,--120,120,39,120,41,1.364,1.000,0.000,1.000,0.000
156378,-1.496,0.454,0.156,0.025,-0.016,0.130,0.119,0.125,0.128,0.000,0.000,1.023,-0.000,0.000,1.023,0.119,0.125,0.127,--120,120,53,120,54,1.365,1.000,0.000,1.000,0.000
156389,-1.561,0.481,0.096,0.025,-0.007,0.134,0.120,0.125,0.130,0.000,0.000,0.990,-0.000,0.000,1.023,0.119,0.125,0.128,--120,120,53,120,54,1.366,1.000,0.000,1.000,0.000
156400,-1.346,0.353,0.176,0.025,-0.006,0.137,0.120,0.125,0.131,0.000,0.000,1.039,-0.000,0.000,1.039,0.120,0.125,0.130,--120,120,67,120,68,1.367,1.000,0.000,1.000,0.000
156411,-1.569,0.467,0.198,0.024,-0.016,0.130,0.120,0.125,0.132,0.000,0.000,1.055,-0.000,0.000,0.990,0.120,0.125,0.131,120,120,43,120,41,1.368,1.000,0.000,1.000,0.000
156422,-1.539,0.521,0.083,0.024,-0.005,0.134,0.120,0.125,0.134,0.000,0.000,1.023,-0.000,0.000,1.039,0.120,0.125,0.132,--120,120,67,120,68,1.368,1.000,0.000,1.000,0.000
156433,-1.321,0.284,0.241,0.021,-0.009,0.137,0.121,0.125,0.135,0.000,0.000,1.039,-0.000,0.000,1.055,0.120,0.125,0.134,--120,120,80,120,83,1.369,1.000,0.000,1.000,0.000
156444,-1.622,0.557,0.127,0.017,-0.016,0.130,0.121,0.125,0.136,0.000,0.000,1.023,-0.000,0.000,1.006,0.121,0.125,0.135,--120,120,39,120,41,1.370,1.000,0.000,1.000,0.000
156455,-1.460,0.432,0.146,0.010,-0.020,0.126,0.121,0.125,0.138,0.000,0.000,1.055,-0.000,0.000,1.006,0.121,0.125,0.136,--120,120,39,120,41,1.371,1.000,0.000,1.000,0.000
156466,-1.480,0.420,0.169,0.010,-0.011,0.132,0.121,0.125,0.139,0.000,0.000,0.990,-0.000,0.000,1.039,0.121,0.125,0.138,--120,120,67,120,68,1.372,1.000,0.000,1.000,0.000
156477,-1.430,0.435,0.172,0.007,-0.007,0.134,0.121,0.125,0.140,0.000,0.000,1.039,-0.000,0.000,1.023,0.121,0.125,0.139,--120,120,53,120,54,1.373,1.000,0.000,1.000,0.000
156488,-1.554,0.441,0.087,0.001,-0.010,0.131,0.121,0.125,0.142,0.000,0.000,1.023,-0.000,0.000,1.023,0.121,0.125,0.140,--120,120,53,120,54,1.374,1.000,0.000,1.000,0.000
156499,-1.441,0.437,0.151,0.003,-0.007,0.133,0.121,0.125,0.143,0.000,0.000,1.023,-0.000,0.000,1.023,0.121,0.125,0.142,--120,120,53,120,54,1.375,1.000,0.000,1.000,0.000
156510,-1.406,0.404,0.225,0.001,-0.009,0.138,0.121,0.125,0.144,0.000,0.000,1.023,-0.000,0.000,1.023,0.121,0.125,0.143,--120,120,53,120,54,1.376,1.000,0.000,1.000,0.000
156521,-1.609,0.517,0.064,-0.003,-0.005,0.132,0.121,0.125,0.146,0.000,0.000,1.039,-0.000,0.000,1.055,0.121,0.125,0.144,--119,119,80,119,83,1.377,1.000,0.000,1.000,0.000
156532,-1.421,0.319,0.214,-0.001,-0.001,0.137,0.121,0.125,0.147,0.000,0.000,0.926,-0.000,0.000,1.039,0.121,0.125,0.146,--119,119,67,119,68,1.378,1.000,0.000,1.000,0.000
156543,-1.521,0.400,0.165,-0.009,0.001,0.127,0.121,0.125,0.148,0.000,0.000,1.006,-0.000,0.000,1.055,0.121,0.125,0.147,--119,119,80,119,83,1.379,1.000,0.000,1.000,0.000
156554,-1.444,0.450,0.209,-0.014,-0.010,0.126,0.121,0.125,0.149,0.000,0.000,1.039,-0.000,0.000,1.039,0.121,0.125,0.148,--119,119,67,119,68,1.380,1.000,0.000,1.000,0.000
156565,-1.539,0.471,0.091,-0.019,-0.004,0.125,0.121,0.125,0.151,0.000,0.000,1.023,-0.000,0.000,1.023,0.121,0.125,0.149,--119,119,53,119,54,1.381,1.000,0.000,1.000,0.000
156576,-1.488,0.414,0.206,-0.019,-0.005,0.119,0.120,0.125,0.152,0.000,0.000,1.023,-0.000,0.000,1.055,0.121,0.125,0.151,--119,119,80,119,83,1.381,1.000,0.000,1.000,0.000
156587,-1.453,0.495,0.151,-0.021,-0.010,0.125,0.120,0.125,0.153,0.000,0.000,1.039,-0.000,0.000,1.006,0.120,0.125,0.152,--119,119,39,119,41,1.382,1.000,0.000,1.000,0.000
156598,-1.506,0.454,0.109,-0.022,0.000,0.121,0.120,0.125,0.154,0.000,0.000,1.039,-0.000,0.000,1.023,0.120,0.125,0.153,--119,119,53,119,54,1.383,1.000,0.000,1.000,0.000
156609,-1.449,0.460,0.241,-0.023,-0.007,0.119,0.120,0.125,0.156,0.000,0.000,1.023,-0.000,0.000,1.039,0.120,0.125,0.154,--119,119,67,119,68,1.384,1.000,0.000,1.000,0.000
156620,-1.500,0.552,0.069,-0.025,-0.002,0.125,0.119,0.125,0.157,0.000,0.000,1.039,-0.000,0.000,1.039,0.120,0.125,0.156,--119,119,67,119,68,1.385,1.000,0.000,1.000,0.000
156631,-1.541,0.560,0.141,-0.026,-0.004,0.125,0.119,0.125,0.158,0.000,0.000,1.055,-0.000,0.000,1.055,0.119,0.125,0.157,--119,119,80,119,83,1.386,1.000,0.000,1.000,0.000
156642,-1.492,0.493,0.127,-0.025,0.012,0.132,0.119,0.125,0.159,0.000,0.000,1.071,-0.000,0.000,1.039,0.119,0.125,0.158,--119,119,67,119,68,1.387,1.000,0.000,1.000,0.000
156653,-1.393,0.454,0.209,-0.026,0.002,0.128,0.119,0.125,0.161,0.000,0.000,1.055,-0.000,0.000,1.071,0.119,0.125,0.159,--119,119,94,119,97,1.388,1.000,0.000,1.000,0.000
156664,-1.582,0.522,0.129,-0.026,0.006,0.131,0.118,0.125,0.162,0.000,0.000,1.023,-0.000,0.000,1.039,0.119,0.125,0.161,--119,119,67,119,68,1.389,1.000,0.000,1.000,0.000
156675,-1.444,0.511,0.164,-0.026,0.017,0.128,0.118,0.125,0.163,0.000,0.000,1.039,-0.000,0.000,1.055,0.118,0.125,0.162,--119,119,80,119,83,1.389,1.000,0.000,1.000,0.000
156686,-1.439,0.419,0.200,-0.027,0.010,0.131,0.118,0.125,0.165,0.000,0.000,1.055,-0.000,0.000,0.877,0.118,0.125,0.163,0,0,140,0,140,1.390,1.000,0.000,1.000,0.000
156697,-1.602,0.553,0.146,-0.028,0.012,0.125,0.118,0.125,0.166,0.000,0.000,1.023,-0.000,0.000,1.006,0.118,0.125,0.165,--119,119,39,119,41,1.391,1.000,0.000,1.000,0.000
156708,-1.370,0.338,0.221,-0.028,0.013,0.126,0.117,0.125,0.167,0.000,0.000,1.055,-0.000,0.000,1.055,0.118,0.125,0.166,--119,119,80,119,83,1.392,1.000,0.000,1.000,0.000
156719,-1.546,0.552,0.110,-0.034,0.011,0.128,0.117,0.125,0.168,0.000,0.000,1.006,-0.000,0.000,1.071,0.117,0.125,0.167,--119,119,94,119,97,1.393,1.000,0.000,1.000,0.000
156730,-1.381,0.504,0.201,-0.033,0.015,0.127,0.117,0.125,0.170,0.000,0.000,1.071,-0.000,0.000,1.039,0.117,0.125,0.168,--119,119,67,119,68,1.394,1.000,0.000,1.000,0.000
156741,-1.468,0.508,0.147,-0.037,0.011,0.132,0.116,0.125,0.171,0.000,0.000,1.055,-0.000,0.000,1.055,0.117,0.125,0.170,--119,119,80,119,83,1.395,1.000,0.000,1.000,0.000
156752,-1.468,0.493,0.163,-0.036,0.016,0.131,0.116,0.126,0.172,0.000,0.000,1.055,-0.000,0.000,1.055,0.116,0.125,0.171,--119,119,80,119,83,1.396,1.000,0.000,1.000,0.000
156763,-1.400,0.609,0.169,-0.036,0.017,0.136,0.116,0.126,0.174,0.000,0.000,1.055,-0.000,0.000,1.055,0.116,0.126,0.172,--119,119,80,119,82,1.397,1.000,0.000,1.000,0.000
156774,-1.496,0.478,0.113,-0.036,0.020,0.139,0.115,0.126,0.175,0.000,0.000,1.055,-0.000,0.000,1.039,0.116,0.126,0.174,--119,119,67,119,68,1.398,1.000,0.000,1.000,0.000
156785,-1.485,0.566,0.211,-0.036,0.018,0.134,0.115,0.126,0.176,0.000,0.000,1.039,-0.000,0.000,1.055,0.115,0.126,0.175,--119,119,80,119,82,1.399,1.000,0.000,1.000,0.000
156796,-1.429,0.558,0.154,-0.034,0.023,0.142,0.114,0.126,0.178,0.000,0.000,1.055,-0.000,0.000,1.087,0.115,0.126,0.176,--119,119,108,119,111,1.400,1.000,0.000,1.000,0.000
156807,-1.461,0.552,0.151,-0.034,0.023,0.137,0.114,0.127,0.179,0.000,0.000,1.039,-0.000,0.000,1.071,0.114,0.126,0.178,--119,119,94,119,97,1.401,1.000,0.000,1.000,0.000
156818,-1.456,0.548,0.117,-0.036,0.033,0.138,0.114,0.127,0.180,0.000,0.000,1.055,-0.000,0.000,1.087,0.114,0.127,0.179,--119,119,108,119,111,1.402,1.000,0.000,1.000,0.000
156829,-1.391,0.513,0.262,-0.036,0.026,0.134,0.113,0.127,0.182,0.000,0.000,1.071,-0.000,0.000,1.055,0.114,0.127,0.180,--119,119,80,119,82,1.403,1.000,0.000,1.000,0.000
156840,-1.485,0.637,0.071,-0.037,0.031,0.140,0.113,0.128,0.183,0.000,0.000,1.087,-0.000,0.000,1.055,0.113,0.127,0.182,--119,119,80,119,82,1.403,1.000,0.000,1.000,0.000
156851,-1.418,0.508,0.104,-0.034,0.035,0.143,0.113,0.128,0.185,0.000,0.000,1.087,-0.000,0.000,1.087,0.113,0.128,0.183,--119,119,108,119,111,1.404,1.000,0.000,1.000,0.000
156862,-1.386,0.627,0.263,-0.036,0.031,0.140,0.112,0.128,0.186,0.000,0.000,1.039,-0.000,0.000,1.087,0.113,0.128,0.185,--119,119,108,119,111,1.405,1.000,0.000,1.000,0.000
156873,-1.414,0.594,0.084,-0.034,0.037,0.149,0.112,0.129,0.188,0.000,0.000,1.071,-0.000,0.000,1.055,0.112,0.128,0.186,--119,119,80,119,82,1.406,1.000,0.000,1.000,0.000
156884,-1.445,0.564,0.127,-0.031,0.038,0.143,0.112,0.129,0.189,0.000,0.000,1.071,-0.000,0.000,1.039,0.112,0.129,0.188,--119,119,67,119,68,1.408,1.000,0.000,1.000,0.000
156895,-1.426,0.641,0.133,-0.032,0.039,0.148,0.111,0.129,0.190,0.000,0.000,1.071,-0.000,0.000,1.071,0.112,0.129,0.189,--119,119,94,119,97,1.409,1.000,0.000,1.000,0.000
156906,-1.369,0.511,0.174,-0.033,0.039,0.147,0.111,0.130,0.192,0.000,0.000,1.055,-0.000,0.000,1.087,0.111,0.129,0.190,--119,119,108,119,111,1.410,1.000,0.000,1.000,0.000
156917,-1.498,0.623,0.119,-0.033,0.040,0.149,0.111,0.130,0.193,0.000,0.000,1.071,-0.000,0.000,1.055,0.111,0.130,0.192,--119,119,80,119,82,1.411,1.000,0.000,1.000,0.000
156928,-1.443,0.663,0.092,-0.030,0.043,0.147,0.110,0.131,0.195,0.000,0.000,1.055,-0.000,0.000,1.071,0.111,0.130,0.193,--119,119,94,119,97,1.412,1.000,0.000,1.000,0.000
156961,-1.395,0.621,0.105,-0.031,0.050,0.155,0.109,0.132,0.199,0.000,0.000,1.119,-0.000,0.000,1.071,0.110,0.131,0.198,--119,119,94,119,97,1.415,1.000,0.000,1.000,0.000
156972,-1.330,0.624,0.144,-0.030,0.042,0.155,0.109,0.132,0.201,0.000,0.000,1.071,-0.000,0.000,1.071,0.109,0.132,0.199,--119,119,94,119,97,1.416,1.000,0.000,1.000,0.000
156983,-1.374,0.673,0.103,-0.028,0.053,0.155,0.109,0.133,0.203,0.000,0.000,1.071,-0.000,0.000,1.071,0.109,0.132,0.201,--119,119,94,119,97,1.417,1.000,0.000,1.000,0.000
156994,-1.376,0.575,0.105,-0.027,0.055,0.156,0.109,0.133,0.204,0.000,0.000,1.055,-0.000,0.000,1.071,0.109,0.133,0.203,--119,119,94,119,97,1.418,1.000,0.000,1.000,0.000
157005,-1.412,0.693,0.131,-0.025,0.054,0.153,0.108,0.134,0.206,0.000,0.000,1.087,-0.000,0.000,1.087,0.109,0.133,0.204,--119,119,109,119,111,1.419,1.000,0.000,1.000,0.000
157016,-1.328,0.612,0.117,-0.026,0.060,0.156,0.108,0.135,0.207,0.000,0.000,1.071,-0.000,0.000,1.039,0.108,0.134,0.206,--119,119,67,119,68,1.420,1.000,0.000,1.000,0.000
157027,-1.358,0.671,0.138,-0.026,0.054,0.153,0.108,0.135,0.209,0.000,0.000,1.087,-0.000,0.000,1.039,0.108,0.135,0.207,--119,119,67,119,68,1.421,1.000,0.000,1.000,0.000
157038,-1.328,0.674,0.145,-0.026,0.059,0.156,0.108,0.136,0.210,0.000,0.000,1.071,-0.000,0.000,1.071,0.108,0.135,0.209,--119,119,94,119,97,1.422,1.000,0.000,1.000,0.000
157049,-1.289,0.580,0.109,-0.025,0.056,0.158,0.107,0.136,0.212,0.000,0.000,1.087,-0.000,0.000,1.087,0.108,0.136,0.210,--119,119,109,119,111,1.424,1.000,0.000,1.000,0.000
157060,-1.412,0.732,0.140,-0.028,0.054,0.151,0.107,0.137,0.213,0.000,0.000,1.087,-0.000,0.000,1.071,0.107,0.136,0.212,--119,119,94,119,97,1.425,1.000,0.000,1.000,0.000
157071,-1.323,0.605,0.064,-0.027,0.060,0.155,0.107,0.137,0.215,0.000,0.000,1.087,-0.000,0.000,1.103,0.107,0.137,0.213,--119,119,123,119,125,1.426,1.000,0.000,1.000,0.000
157082,-1.358,0.723,0.144,-0.028,0.060,0.154,0.107,0.138,0.216,0.000,0.000,1.087,-0.000,0.000,1.103,0.107,0.137,0.215,--119,119,123,119,125,1.427,1.000,0.000,1.000,0.000
157093,-1.228,0.686,0.067,-0.026,0.065,0.158,0.106,0.139,0.218,0.000,0.000,1.103,-0.000,0.000,1.071,0.107,0.138,0.216,--119,119,94,119,97,1.428,1.000,0.000,1.000,0.000
157104,-1.295,0.647,0.066,-0.025,0.061,0.154,0.106,0.139,0.220,0.000,0.000,1.087,-0.000,0.000,1.071,0.106,0.139,0.218,--119,119,94,119,97,1.429,1.000,0.000,1.000,0.000
157115,-1.370,0.736,0.154,-0.028,0.062,0.154,0.106,0.140,0.221,0.000,0.000,1.087,-0.000,0.000,1.103,0.106,0.139,0.220,--119,119,123,119,125,1.430,1.000,0.000,1.000,0.000
157126,-1.228,0.675,0.109,-0.027,0.064,0.154,0.105,0.140,0.223,0.000,0.000,1.071,-0.000,0.000,1.055,0.106,0.140,0.221,--119,119,80,119,82,1.431,1.000,0.000,1.000,0.000
157137,-1.291,0.653,0.056,-0.026,0.061,0.151,0.105,0.141,0.224,0.000,0.000,1.071,-0.000,0.000,1.087,0.105,0.140,0.223,--119,119,109,119,111,1.432,1.000,0.000,1.000,0.000
157148,-1.332,0.680,0.144,-0.025,0.062,0.148,0.105,0.142,0.226,0.000,0.000,1.087,-0.000,0.000,1.087,0.105,0.141,0.224,--119,119,109,119,111,1.433,1.000,0.000,1.000,0.000
157159,-1.231,0.653,0.107,-0.027,0.055,0.143,0.105,0.142,0.227,0.000,0.000,1.103,-0.000,0.000,1.087,0.105,0.142,0.226,--119,119,109,119,111,1.434,1.000,0.000,1.000,0.000
157170,-1.260,0.700,0.102,-0.025,0.061,0.136,0.104,0.143,0.228,0.000,0.000,1.071,-0.000,0.000,1.071,0.105,0.142,0.227,--119,119,94,119,97,1.435,1.000,0.000,1.000,0.000
157181,-1.263,0.743,0.013,-0.025,0.059,0.138,0.104,0.143,0.230,0.000,0.000,1.087,-0.000,0.000,1.087,0.104,0.143,0.228,--119,119,109,119,111,1.436,1.000,0.000,1.000,0.000
157192,-1.177,0.650,0.158,-0.025,0.061,0.134,0.104,0.144,0.231,0.000,0.000,1.087,-0.000,0.000,1.135,0.104,0.143,0.230,--119,119,151,119,152,1.437,1.000,0.000,1.000,0.000
157203,-1.231,0.785,0.067,-0.023,0.060,0.133,0.104,0.145,0.232,0.000,0.000,1.071,-0.000,0.000,1.087,0.104,0.144,0.231,--119,119,109,119,111,1.438,1.000,0.000,1.000,0.000
157214,-1.211,0.690,0.042,-0.023,0.065,0.138,0.103,0.145,0.234,0.000,0.000,1.103,-0.000,0.000,1.087,0.104,0.145,0.232,--119,119,109,119,111,1.439,1.000,0.000,1.000,0.000
157225,-1.222,0.685,0.120,-0.022,0.060,0.132,0.103,0.146,0.235,0.000,0.000,1.087,-0.000,0.000,1.071,0.103,0.145,0.234,--119,119,94,119,97,1.440,1.000,0.000,1.000,0.000
157236,-1.234,0.783,0.077,-0.021,0.061,0.134,0.103,0.147,0.237,0.000,0.000,1.087,-0.000,0.000,1.087,0.103,0.146,0.235,--119,119,109,119,111,1.441,1.000,0.000,1.000,0.000
157247,-1.137,0.688,0.093,-0.022,0.064,0.133,0.103,0.147,0.238,0.000,0.000,1.119,-0.000,0.000,1.071,0.103,0.147,0.237,--119,119,94,119,96,1.442,1.000,0.000,1.000,0.000
157258,-1.225,0.822,-0.006,-0.023,0.064,0.132,0.103,0.148,0.239,0.000,0.000,1.087,-0.000,0.000,1.087,0.103,0.147,0.238,--119,119,109,119,111,1.443,1.000,0.000,1.000,0.000
157269,-1.060,0.595,0.156,-0.022,0.061,0.127,0.102,0.148,0.240,0.000,0.000,1.087,-0.000,0.000,1.087,0.103,0.148,0.239,--119,119,109,119,111,1.444,1.000,0.000,1.000,0.000
157280,-1.293,0.875,0.061,-0.026,0.056,0.122,0.102,0.149,0.242,0.000,0.000,1.087,-0.000,0.000,1.103,0.102,0.148,0.240,--119,119,123,119,125,1.445,1.000,0.000,1.000,0.000
157291,-1.112,0.711,0.096,-0.026,0.065,0.130,0.102,0.150,0.243,0.000,0.000,1.087,-0.000,0.000,1.087,0.102,0.149,0.242,--119,119,109,119,111,1.446,1.000,0.000,1.000,0.000
157302,-1.041,0.746,0.121,-0.026,0.059,0.122,0.102,0.150,0.244,0.000,0.000,1.071,-0.000,0.000,1.119,0.102,0.150,0.243,--119,119,137,119,138,1.447,1.000,0.000,1.000,0.000
157335,-1.058,0.783,0.120,-0.025,0.056,0.128,0.101,0.152,0.248,0.000,0.000,1.103,-0.000,0.000,1.103,0.101,0.151,0.247,--118,118,123,118,125,1.449,1.000,0.000,1.000,0.000
157346,-1.021,0.793,0.133,-0.017,0.056,0.126,0.101,0.153,0.249,0.000,0.000,1.103,-0.000,0.000,1.087,0.101,0.152,0.248,--118,118,109,118,111,1.450,1.000,0.000,1.000,0.000
157357,-1.092,0.861,0.113,-0.020,0.050,0.127,0.100,0.153,0.251,0.000,0.000,1.119,-0.000,0.000,1.103,0.101,0.153,0.249,--118,118,123,118,125,1.451,1.000,0.000,1.000,0.000
157368,-1.091,0.751,0.110,-0.019,0.050,0.123,0.100,0.154,0.252,0.000,0.000,1.103,-0.000,0.000,1.087,0.100,0.153,0.251,--118,118,109,118,111,1.452,1.000,0.000,1.000,0.000
157379,-1.021,0.805,0.125,-0.021,0.050,0.126,0.100,0.154,0.253,0.000,0.000,1.119,-0.000,0.000,1.103,0.100,0.154,0.252,--118,118,123,118,125,1.453,1.000,0.000,1.000,0.000
157390,-1.106,0.813,0.116,-0.021,0.049,0.125,0.100,0.155,0.254,0.000,0.000,1.103,-0.000,0.000,1.087,0.100,0.154,0.253,--118,118,109,118,111,1.454,1.000,0.000,1.000,0.000
157401,-1.033,0.809,0.135,-0.021,0.049,0.123,0.100,0.155,0.256,0.000,0.000,1.103,-0.000,0.000,1.103,0.100,0.155,0.254,--118,118,123,118,125,1.455,1.000,0.000,1.000,0.000
157412,-1.005,0.813,0.119,-0.023,0.046,0.128,0.099,0.155,0.257,0.000,0.000,1.087,-0.000,0.000,1.103,0.100,0.155,0.256,--118,118,123,118,125,1.456,1.000,0.000,1.000,0.000
157423,-1.107,0.772,0.174,-0.025,0.043,0.120,0.099,0.156,0.258,0.000,0.000,1.103,-0.000,0.000,1.055,0.099,0.155,0.257,--118,118,80,118,82,1.456,1.000,0.000,1.000,0.000
157434,-0.937,0.854,0.081,-0.025,0.042,0.122,0.099,0.156,0.259,0.000,0.000,1.103,-0.000,0.000,1.103,0.099,0.156,0.258,--118,118,123,118,125,1.457,1.000,0.000,1.000,0.000
157445,-0.951,0.751,0.276,-0.023,0.032,0.117,0.099,0.157,0.260,0.000,0.000,1.087,-0.000,0.000,1.119,0.099,0.156,0.259,--118,118,137,118,138,1.458,1.000,0.000,1.000,0.000
157456,-1.109,0.907,0.059,-0.026,0.034,0.120,0.098,0.157,0.262,0.000,0.000,1.119,-0.000,0.000,1.103,0.099,0.157,0.260,--118,118,123,118,125,1.459,1.000,0.000,1.000,0.000
157467,-0.987,0.749,0.096,-0.025,0.038,0.121,0.098,0.157,0.263,0.000,0.000,1.087,-0.000,0.000,1.103,0.098,0.157,0.262,--118,118,123,118,125,1.460,1.000,0.000,1.000,0.000
157478,-1.031,0.849,0.162,-0.027,0.023,0.111,0.098,0.158,0.264,0.000,0.000,1.119,-0.000,0.000,1.103,0.098,0.157,0.263,--118,118,123,118,125,1.461,1.000,0.000,1.000,0.000
157489,-1.076,0.928,0.071,-0.026,0.032,0.120,0.098,0.158,0.265,0.000,0.000,1.103,-0.000,0.000,1.087,0.098,0.158,0.264,--118,118,109,118,111,1.461,1.000,0.000,1.000,0.000
157500,-0.893,0.757,0.159,-0.025,0.028,0.119,0.097,0.158,0.266,0.000,0.000,1.103,-0.000,0.000,1.103,0.098,0.158,0.265,--118,118,123,118,125,1.462,1.000,0.000,1.000,0.000
157511,-1.090,0.850,0.198,-0.028,0.024,0.114,0.097,0.158,0.267,0.000,0.000,1.103,-0.000,0.000,1.135,0.097,0.158,0.266,--118,118,151,118,152,1.463,1.000,0.000,1.000,0.000
157522,-0.917,0.770,0.196,-0.023,0.026,0.111,0.097,0.159,0.269,0.000,0.000,1.119,-0.000,0.000,1.103,0.097,0.158,0.267,--118,118,123,118,125,1.464,1.000,0.000,1.000,0.000
157533,-1.019,0.973,0.113,-0.023,0.018,0.108,0.097,0.159,0.270,0.000,0.000,1.087,-0.000,0.000,1.055,0.097,0.159,0.269,--118,118,80,118,82,1.465,1.000,0.000,1.000,0.000
157544,-1.071,0.830,0.078,-0.021,0.026,0.109,0.096,0.159,0.271,0.000,0.000,1.103,-0.000,0.000,1.087,0.097,0.159,0.270,--118,118,109,118,111,1.466,1.000,0.000,1.000,0.000
157555,-0.864,0.832,0.224,-0.021,0.024,0.109,0.096,0.159,0.272,0.000,0.000,1.087,-0.000,0.000,1.103,0.096,0.159,0.271,--118,118,123,118,125,1.466,1.000,0.000,1.000,0.000
157566,-1.037,0.863,0.103,-0.021,0.024,0.110,0.096,0.160,0.273,0.000,0.000,1.087,-0.000,0.000,1.103,0.096,0.159,0.272,--118,118,123,118,125,1.467,1.000,0.000,1.000,0.000
157577,-1.045,0.944,0.043,-0.019,0.028,0.105,0.096,0.160,0.274,0.000,0.000,1.135,-0.000,0.000,1.103,0.096,0.160,0.273,--118,118,123,118,125,1.468,1.000,0.000,1.000,0.000
157588,-0.871,0.819,0.213,-0.022,0.026,0.110,0.096,0.160,0.275,0.000,0.000,1.087,-0.000,0.000,1.119,0.096,0.160,0.274,--118,118,137,118,138,1.469,1.000,0.000,1.000,0.000
157599,-1.019,0.858,0.078,-0.021,0.024,0.105,0.095,0.160,0.276,0.000,0.000,1.087,-0.000,0.000,1.103,0.096,0.160,0.275,--118,118,123,118,125,1.469,1.000,0.000,1.000,0.000
157610,-0.923,0.889,0.169,-0.020,0.022,0.103,0.095,0.161,0.277,0.000,0.000,1.152,-0.000,0.000,1.087,0.095,0.160,0.276,--118,118,109,118,111,1.470,1.000,0.000,1.000,0.000
157621,-1.064,0.831,0.102,-0.019,0.023,0.098,0.095,0.161,0.278,0.000,0.000,1.103,-0.000,0.000,1.119,0.095,0.161,0.277,--118,118,137,118,138,1.471,1.000,0.000,1.000,0.000
157632,-0.932,0.950,0.147,-0.020,0.026,0.098,0.095,0.161,0.279,0.000,0.000,1.119,-0.000,0.000,1.103,0.095,0.161,0.278,--118,118,123,118,125,1.472,1.000,0.000,1.000,0.000
157643,-0.948,0.797,0.125,-0.021,0.022,0.098,0.095,0.161,0.280,0.000,0.000,1.103,-0.000,0.000,1.103,0.095,0.161,0.279,--118,118,123,118,125,1.472,1.000,0.000,1.000,0.000
157654,-1.058,0.950,0.157,-0.021,0.023,0.090,0.094,0.162,0.281,0.000,0.000,1.103,-0.000,0.000,1.119,0.095,0.161,0.280,--118,118,137,118,138,1.473,1.000,0.000,1.000,0.000
157665,-0.870,0.883,0.141,-0.020,0.026,0.100,0.094,0.162,0.282,0.000,0.000,1.103,-0.000,0.000,1.087,0.094,0.162,0.281,--118,118,109,118,111,1.474,1.000,0.000,1.000,0.000
157676,-0.975,0.838,0.132,-0.021,0.023,0.094,0.094,0.162,0.283,0.000,0.000,1.119,-0.000,0.000,1.103,0.094,0.162,0.282,--118,118,123,118,125,1.474,1.000,0.000,1.000,0.000
157687,-1.110,0.998,0.062,-0.021,0.028,0.094,0.094,0.162,0.284,0.000,0.000,1.119,-0.000,0.000,1.103,0.094,0.162,0.283,--118,118,123,118,125,1.475,1.000,0.000,1.000,0.000
157698,-0.991,0.936,0.141,-0.020,0.026,0.092,0.094,0.163,0.285,0.000,0.000,1.103,-0.000,0.000,1.135,0.094,0.162,0.284,--118,118,151,118,152,1.476,1.000,0.000,1.000,0.000
157709,-1.040,0.880,0.117,-0.019,0.033,0.093,0.093,0.163,0.286,0.000,0.000,1.119,-0.000,0.000,1.119,0.094,0.163,0.285,--117,117,137,117,138,1.476,1.000,0.000,1.000,0.000
157720,-0.921,0.889,0.150,-0.020,0.033,0.089,0.093,0.163,0.287,0.000,0.000,1.119,-0.000,0.000,1.087,0.093,0.163,0.286,--117,117,109,117,111,1.477,1.000,0.000,1.000,0.000
157731,-1.000,0.883,0.107,-0.019,0.024,0.088,0.093,0.163,0.287,0.000,0.000,1.103,-0.000,0.000,1.103,0.093,0.163,0.287,--117,117,123,117,125,1.478,1.000,0.000,1.000,0.000
157742,-1.004,0.867,0.104,-0.017,0.032,0.086,0.093,0.164,0.288,0.003,-0.044,1.119,-0.000,0.000,1.103,0.093,0.163,0.287,--117,117,123,117,125,1.478,1.000,0.000,1.000,0.000
157753,-0.882,0.954,0.139,-0.017,0.024,0.086,0.093,0.164,0.289,0.003,-0.044,1.152,-0.001,-0.000,1.087,0.093,0.164,0.288,--118,118,109,118,111,1.479,1.000,0.000,1.000,0.000
157764,-1.033,0.883,0.012,-0.017,0.032,0.087,0.093,0.164,0.290,0.003,-0.044,1.119,-0.002,-0.000,1.135,0.093,0.164,0.289,--118,118,151,118,152,1.479,1.000,0.000,1.000,0.000
157775,-0.858,0.905,0.231,-0.014,0.032,0.084,0.092,0.165,0.291,0.003,-0.044,1.135,-0.003,-0.001,1.119,0.093,0.164,0.290,--118,118,137,118,138,1.480,1.000,0.000,1.000,0.000
157786,-0.995,0.869,0.129,-0.011,0.037,0.087,0.092,0.165,0.292,0.003,-0.044,1.087,-0.004,-0.001,1.119,0.092,0.165,0.291,--118,118,137,118,138,1.481,1.000,0.000,1.000,0.000
157797,-0.884,0.947,0.163,-0.010,0.029,0.088,0.092,0.165,0.293,0.003,-0.044,1.135,-0.005,-0.001,1.119,0.092,0.165,0.292,--118,118,137,118,138,1.481,1.000,0.000,1.000,0.000
157808,-1.023,0.936,0.036,-0.011,0.033,0.090,0.092,0.166,0.294,0.003,-0.044,1.087,-0.006,-0.002,1.119,0.092,0.165,0.293,--118,118,137,118,138,1.482,1.000,0.000,1.000,0.000
157819,-0.932,0.854,0.198,-0.011,0.032,0.081,0.092,0.166,0.294,0.003,-0.044,1.119,-0.007,-0.002,1.119,0.092,0.166,0.294,--118,118,137,118,138,1.482,1.000,0.000,1.000,0.000
157830,-0.936,0.930,0.089,-0.010,0.029,0.082,0.092,0.166,0.295,0.003,-0.044,1.119,-0.008,-0.002,1.103,0.092,0.166,0.294,--118,118,123,118,125,1.483,1.000,0.000,1.000,0.000
157841,-0.950,0.892,0.160,-0.009,0.034,0.081,0.092,0.167,0.296,0.003,-0.044,1.103,-0.009,-0.002,1.135,0.092,0.166,0.295,--118,118,151,118,152,1.484,1.000,0.000,1.000,0.000
157852,-0.883,0.864,0.231,-0.011,0.026,0.077,0.092,0.167,0.297,0.003,-0.044,1.135,-0.010,-0.003,1.119,0.092,0.167,0.296,--118,118,137,118,138,1.484,1.000,0.000,1.000,0.000
157863,-1.009,1.003,0.037,-0.011,0.031,0.078,0.092,0.167,0.298,0.003,-0.044,1.135,-0.010,-0.003,1.135,0.092,0.167,0.297,--118,118,151,118,152,1.485,1.000,0.000,1.000,0.000
157874,-0.991,1.010,0.067,-0.010,0.026,0.073,0.092,0.167,0.298,0.003,-0.044,1.119,-0.011,-0.003,1.135,0.092,0.167,0.298,--118,118,151,118,152,1.485,1.000,0.000,1.000,0.000
157885,-0.899,0.925,0.108,-0.009,0.033,0.078,0.092,0.168,0.299,0.003,-0.044,1.119,-0.012,-0.004,1.119,0.092,0.167,0.298,--118,118,137,118,138,1.486,1.000,0.000,1.000,0.000
157896,-0.917,0.870,0.097,-0.008,0.029,0.072,0.092,0.168,0.300,0.003,-0.044,1.152,-0.013,-0.004,1.135,0.092,0.168,0.299,--118,118,151,118,152,1.486,1.000,0.000,1.000,0.000
157907,-0.982,0.954,0.153,-0.010,0.033,0.076,0.092,0.168,0.300,0.003,-0.044,1.103,-0.014,-0.004,1.119,0.092,0.168,0.300,--119,119,137,119,138,1.487,1.000,0.000,1.000,0.000
157918,-0.828,0.876,0.139,-0.008,0.032,0.076,0.092,0.169,0.301,0.003,-0.044,1.119,-0.015,-0.004,1.135,0.092,0.168,0.300,--119,119,151,119,152,1.487,1.000,0.000,1.000,0.000
157929,-0.943,0.880,0.160,-0.010,0.029,0.072,0.092,0.169,0.302,0.003,-0.044,1.119,-0.016,-0.005,1.103,0.092,0.169,0.301,--119,119,123,119,125,1.488,1.000,0.000,1.000,0.000
157940,-0.958,0.994,0.058,-0.009,0.027,0.073,0.092,0.169,0.303,0.003,-0.044,1.119,-0.017,-0.005,1.135,0.092,0.169,0.302,--119,119,151,119,152,1.488,1.000,0.000,1.000,0.000
157951,-0.969,0.856,0.101,-0.009,0.034,0.071,0.092,0.170,0.303,0.003,-0.044,1.119,-0.018,-0.005,1.152,0.092,0.169,0.303,--119,119,164,119,166,1.489,1.000,0.000,1.000,0.000
157962,-1.035,0.839,0.020,-0.014,0.033,0.072,0.092,0.170,0.304,0.003,-0.044,1.119,-0.019,-0.005,1.103,0.092,0.170,0.303,--119,119,123,119,125,1.489,1.000,0.000,1.000,0.000
157973,-0.786,1.052,0.247,-0.014,0.024,0.066,0.092,0.170,0.305,0.003,-0.044,1.119,-0.020,-0.006,1.135,0.092,0.170,0.304,--119,119,151,119,152,1.490,1.000,0.000,1.000,0.000
157984,-0.902,0.864,0.023,-0.016,0.024,0.073,0.091,0.170,0.306,0.003,-0.044,1.119,-0.021,-0.006,1.168,0.092,0.170,0.305,--119,119,178,119,180,1.490,1.000,0.000,1.000,0.000
157995,-0.887,0.919,0.183,-0.016,0.021,0.067,0.091,0.171,0.306,0.003,-0.044,1.152,-0.022,-0.006,1.135,0.091,0.170,0.306,--119,119,151,119,152,1.491,1.000,0.000,1.000,0.000
158006,-0.882,0.956,0.081,-0.017,0.018,0.072,0.091,0.171,0.307,0.003,-0.044,1.135,-0.023,-0.007,1.119,0.091,0.171,0.306,--119,119,137,119,138,1.491,1.000,0.000,1.000,0.000
158017,-0.894,0.964,0.096,-0.020,0.021,0.075,0.091,0.171,0.308,0.003,-0.044,1.119,-0.023,-0.007,1.135,0.091,0.171,0.307,--119,119,151,119,152,1.492,1.000,0.000,1.000,0.000
158028,-0.842,0.838,0.180,-0.020,0.013,0.070,0.091,0.171,0.308,0.003,-0.044,1.119,-0.024,-0.007,1.119,0.091,0.171,0.308,--119,119,137,119,138,1.492,1.000,0.000,1.000,0.000
158039,-0.970,1.028,0.067,-0.023,0.017,0.070,0.090,0.171,0.309,0.003,-0.044,1.119,-0.025,-0.008,1.135,0.091,0.171,0.308,--119,119,151,119,152,1.493,1.000,0.000,1.000,0.000
158050,-0.902,0.953,0.154,-0.031,0.011,0.066,0.090,0.171,0.310,0.003,-0.044,1.135,-0.026,-0.008,1.119,0.090,0.171,0.309,--119,119,137,119,138,1.493,1.000,0.000,1.000,0.000
158061,-0.814,0.983,0.109,-0.033,0.007,0.071,0.090,0.171,0.310,0.003,-0.044,1.071,-0.027,-0.008,1.119,0.090,0.171,0.310,--119,119,137,119,138,1.494,1.000,0.000,1.000,0.000
158072,-1.004,0.952,-0.039,-0.034,0.010,0.065,0.089,0.171,0.311,0.003,-0.044,1.135,-0.028,-0.008,1.135,0.090,0.171,0.310,--119,119,151,119,152,1.494,1.000,0.000,1.000,0.000
158083,-0.817,0.995,0.279,-0.037,0.001,0.068,0.089,0.171,0.312,0.003,-0.044,1.119,-0.029,-0.009,1.119,0.089,0.171,0.311,--119,119,137,119,138,1.495,1.000,0.000,1.000,0.000
158094,-0.884,0.955,-0.024,-0.037,0.006,0.072,0.089,0.171,0.312,0.003,-0.044,1.135,-0.030,-0.009,1.168,0.089,0.171,0.312,--119,119,178,119,180,1.495,1.000,0.000,1.000,0.000
158105,-0.777,0.973,0.169,-0.042,0.006,0.072,0.088,0.171,0.313,0.003,-0.044,1.119,-0.031,-0.009,1.152,0.089,0.171,0.312,--119,119,164,119,166,1.496,1.000,0.000,1.000,0.000
158116,-0.931,1.021,0.019,-0.039,-0.004,0.073,0.088,0.171,0.314,0.003,-0.044,1.135,-0.032,-0.010,1.135,0.088,0.171,0.313,--119,119,151,119,152,1.496,1.000,0.000,1.000,0.000
158127,-0.899,0.966,0.146,-0.038,0.004,0.071,0.088,0.171,0.315,0.003,-0.044,1.119,-0.033,-0.010,1.103,0.088,0.171,0.314,--119,119,123,119,125,1.497,1.000,0.000,1.000,0.000
158138,-0.896,1.049,0.040,-0.039,-0.006,0.072,0.087,0.171,0.315,0.003,-0.044,1.135,-0.034,-0.010,1.119,0.088,0.171,0.315,--119,119,137,119,138,1.497,1.000,0.000,1.000,0.000
158149,-0.955,1.040,-0.009,-0.039,-0.013,0.070,0.087,0.171,0.316,0.003,-0.044,1.168,-0.034,-0.010,1.119,0.087,0.171,0.315,--119,119,137,119,138,1.498,1.000,0.000,1.000,0.000
158160,-0.799,0.949,0.169,-0.042,-0.015,0.071,0.086,0.171,0.317,0.003,-0.044,1.119,-0.035,-0.011,1.135,0.087,0.171,0.316,--119,119,151,119,152,1.498,1.000,0.000,1.000,0.000
158171,-0.839,1.040,0.078,-0.042,-0.021,0.071,0.086,0.171,0.317,0.003,-0.044,1.135,-0.036,-0.011,1.119,0.086,0.171,0.317,--119,119,137,119,138,1.499,1.000,0.000,1.000,0.000
158182,-0.890,0.990,-0.029,-0.042,-0.018,0.071,0.085,0.171,0.318,0.003,-0.044,1.135,-0.037,-0.011,1.135,0.086,0.171,0.317,--119,119,151,119,152,1.499,1.000,0.000,1.000,0.000
158193,-0.907,1.001,0.153,-0.043,-0.026,0.068,0.085,0.171,0.319,0.003,-0.044,1.135,-0.038,-0.012,1.119,0.085,0.171,0.318,--119,119,137,119,138,1.500,1.000,0.000,1.000,0.000
158204,-0.861,1.009,0.064,-0.044,-0.027,0.071,0.085,0.170,0.320,0.003,-0.044,1.103,-0.038,-0.012,1.119,0.085,0.171,0.319,--119,119,137,119,138,1.500,1.000,0.000,1.000,0.000
158215,-0.780,1.037,0.065,-0.047,-0.023,0.070,0.084,0.170,0.320,0.003,-0.044,1.135,-0.039,-0.012,1.135,0.085,0.170,0.320,--120,120,151,120,152,1.501,1.000,0.000,1.000,0.000
158226,-0.931,1.148,0.060,-0.044,-0.035,0.064,0.084,0.170,0.321,0.003,-0.044,1.135,-0.040,-0.012,1.119,0.084,0.170,0.320,--120,120,137,120,138,1.501,1.000,0.000,1.000,0.000
158237,-0.633,0.898,0.151,-0.047,-0.038,0.075,0.083,0.169,0.322,0.003,-0.044,1.135,-0.041,-0.013,1.135,0.084,0.170,0.321,--120,120,151,120,152,1.502,1.000,0.000,1.000,0.000
158248,-1.057,1.177,-0.014,-0.044,-0.039,0.061,0.083,0.169,0.322,0.003,-0.044,1.152,-0.042,-0.013,1.119,0.083,0.169,0.322,--120,120,137,120,138,1.502,1.000,0.000,1.000,0.000
158259,-0.878,1.062,0.048,-0.043,-0.038,0.075,0.082,0.169,0.323,0.003,-0.044,1.152,-0.043,-0.013,1.152,0.083,0.169,0.322,--120,120,164,120,166,1.503,1.000,0.000,1.000,0.000
158270,-0.755,1.016,0.138,-0.043,-0.048,0.071,0.082,0.168,0.324,0.003,-0.044,1.135,-0.044,-0.014,1.119,0.082,0.169,0.323,--120,120,137,120,138,1.503,1.000,0.000,1.000,0.000
158281,-0.939,1.088,0.008,-0.039,-0.057,0.068,0.082,0.167,0.324,0.003,-0.044,1.152,-0.045,-0.014,1.135,0.082,0.168,0.324,--120,120,151,120,152,1.504,1.000,0.000,1.000,0.000
158292,-0.925,1.122,-0.011,-0.038,-0.042,0.068,0.081,0.167,0.325,0.003,-0.044,1.152,-0.046,-0.014,1.135,0.082,0.167,0.324,--120,120,151,120,152,1.504,1.000,0.000,1.000,0.000
158303,-0.713,1.071,0.186,-0.037,-0.065,0.071,0.081,0.166,0.326,0.003,-0.044,1.119,-0.047,-0.015,1.135,0.081,0.167,0.325,--120,120,151,120,152,1.505,1.000,0.000,1.000,0.000
158314,-1.049,1.077,-0.057,-0.037,-0.053,0.066,0.080,0.166,0.326,0.003,-0.044,1.119,-0.048,-0.015,1.152,0.081,0.166,0.326,--120,120,164,120,166,1.505,1.000,0.000,1.000,0.000
