Time, Accel X [mg],Accel Y [mg],Accel Z [mg],dRoll [rad/s],dPitch [rad/s],dHeading [rad/s],Roll [rad],Pitch [rad],Yaw [rad],Frequency Reader Frequency [Hz],Calibrated Velocity [m/s],Pressure Sensor Depth [m],State Estimator X [m],State Estimator Y [m],State Estimator Z [m],State Estimator Roll [rad],State Estimator Pitch [rad],State Estimator Yaw [rad],Motor A,Motor B,Motor C,Motor D,Motor E,Servo Angle [rad],Waypoint X [m],Waypoint Y [m],Waypoint Z [m],Waiting [bool]
64587,2.663,-0.295,0.504,-0.004,-0.108,-0.002,0.000,-0.001,0.000,0.008,0.044,0.377,0.001,0.000,0.377,0.000,0.000,0.000,0,0,242,0,242,0.725,0.000,0.000,1.000,1.000
64598,2.663,-0.349,0.568,-0.009,-0.070,-0.005,0.000,-0.002,0.000,0.008,0.044,0.361,0.002,0.000,0.361,0.000,-0.001,0.000,0,0,242,0,242,0.725,0.000,0.000,1.000,1.000
64609,2.579,-0.407,0.882,-0.006,-0.057,-0.007,0.000,-0.002,0.000,0.008,0.044,0.361,0.003,0.000,0.361,0.000,-0.002,0.000,0,0,242,0,242,0.725,0.000,0.000,1.000,1.000
64620,2.536,-0.216,1.067,-0.011,-0.038,-0.005,-0.000,-0.003,0.000,0.008,0.044,0.361,0.004,0.000,0.361,0.000,-0.002,0.000,0,0,242,0,242,0.725,0.000,0.000,1.000,1.000
64631,2.608,-0.227,1.088,-0.015,-0.035,-0.007,-0.000,-0.003,0.000,0.008,0.044,0.361,0.005,0.000,0.361,-0.000,-0.003,0.000,0,0,242,0,242,0.725,0.000,0.000,1.000,1.000
64642,2.677,-0.261,1.041,-0.015,-0.031,-0.006,-0.000,-0.003,0.000,0.008,0.044,0.361,0.006,0.000,0.361,-0.000,-0.003,0.000,0,0,242,0,242,0.725,0.000,0.000,1.000,1.000
64653,2.673,-0.352,0.896,-0.001,-0.028,-0.005,-0.000,-0.004,0.000,0.008,0.044,0.377,0.007,0.000,0.361,-0.000,-0.003,0.000,0,0,242,0,242,0.725,0.000,0.000,1.000,1.000
64664,2.759,-0.308,0.803,0.007,-0.017,0.002,-0.000,-0.004,0.000,0.008,0.044,0.377,0.008,0.000,0.361,-0.000,-0.004,0.000,0,0,242,0,242,0.725,0.000,0.000,1.000,1.000
64675,2.683,-0.218,0.852,0.002,-0.020,0.020,-0.000,-0.004,0.000,0.008,0.044,0.361,0.009,0.000,0.361,-0.000,-0.004,0.000,0,0,242,0,242,0.725,0.000,0.000,1.000,1.000
64686,2.685,-0.215,0.785,0.019,-0.024,0.042,-0.000,-0.004,0.001,0.008,0.044,0.377,0.010,0.000,0.377,-0.000,-0.004,0.000,0,0,242,0,242,1.892,0.000,0.000,1.000,1.000
64697,2.590,-0.264,0.804,0.032,-0.038,0.049,0.000,-0.005,0.001,0.008,0.044,0.361,0.011,0.000,0.377,-0.000,-0.004,0.001,0,0,242,0,242,1.892,0.000,0.000,1.000,1.000
64708,2.719,-0.356,0.643,0.050,-0.046,0.048,0.001,-0.005,0.002,0.008,0.044,0.345,0.012,0.000,0.377,0.000,-0.005,0.001,0,0,242,0,242,1.892,0.000,0.000,1.000,1.000
64719,2.512,-0.342,0.720,0.063,-0.072,0.053,0.001,-0.006,0.002,0.008,0.044,0.361,0.013,0.000,0.361,0.001,-0.005,0.002,0,0,242,0,242,1.892,0.000,0.000,1.000,1.000
64730,2.569,-0.508,0.716,0.078,-0.094,0.043,0.002,-0.007,0.003,0.008,0.044,0.361,0.014,0.000,0.361,0.001,-0.006,0.002,0,0,242,0,242,1.892,0.000,0.000,1.000,1.000
64741,2.450,-0.401,0.738,0.088,-0.133,0.031,0.003,-0.008,0.003,0.008,0.044,0.361,0.015,0.000,0.361,0.002,-0.007,0.003,0,0,242,0,242,1.892,0.000,0.000,1.000,1.000
64752,2.382,-0.486,0.866,0.089,-0.159,0.018,0.004,-0.010,0.003,0.008,0.044,0.377,0.016,0.000,0.345,0.003,-0.008,0.003,0,0,242,0,242,1.892,0.000,0.000,1.000,1.000
64763,2.346,-0.395,0.881,0.091,-0.195,0.002,0.005,-0.012,0.003,0.008,0.044,0.361,0.017,0.000,0.361,0.004,-0.010,0.003,0,0,242,0,242,1.892,0.000,0.000,1.000,1.000
64774,2.329,-0.567,0.711,0.127,-0.252,-0.023,0.006,-0.014,0.003,0.008,0.044,0.377,0.018,0.000,0.345,0.005,-0.012,0.003,0,0,242,0,242,1.892,0.000,0.000,1.000,1.000
64785,2.177,-0.528,0.720,0.143,-0.280,-0.034,0.007,-0.017,0.002,0.008,0.044,0.361,0.019,0.000,0.345,0.006,-0.014,0.003,0,0,242,0,242,1.892,0.000,0.000,1.000,1.000
64796,2.255,-0.649,0.603,0.151,-0.291,-0.046,0.009,-0.020,0.002,0.008,0.044,0.361,0.020,0.000,0.377,0.007,-0.017,0.002,0,0,242,0,242,1.892,0.000,0.000,1.000,1.000
64807,2.144,-0.403,0.698,0.132,-0.302,-0.050,0.010,-0.023,0.001,0.008,0.044,0.361,0.021,0.000,0.361,0.009,-0.020,0.002,0,0,242,0,242,1.892,0.000,0.000,1.000,1.000
64818,2.243,-0.591,0.707,0.121,-0.301,-0.059,0.011,-0.026,0.001,0.008,0.044,0.377,0.022,0.000,0.361,0.010,-0.023,0.001,0,0,242,0,242,1.892,0.000,0.000,1.000,1.000
64829,2.378,-0.553,0.726,0.111,-0.301,-0.067,0.013,-0.029,0.000,0.008,0.044,0.377,0.023,0.000,0.361,0.011,-0.026,0.001,0,0,242,0,242,0.725,0.000,0.000,1.000,1.000
64840,2.392,-0.598,0.811,0.106,-0.301,-0.066,0.014,-0.032,-0.000,0.008,0.044,0.377,0.024,0.000,0.361,0.013,-0.029,0.000,0,0,242,0,242,0.725,0.000,0.000,1.000,1.000
64851,2.511,-0.733,0.790,0.111,-0.286,-0.062,0.015,-0.035,-0.001,0.008,0.044,0.394,0.025,0.000,0.394,0.014,-0.032,-0.000,0,0,242,0,242,0.725,0.000,0.000,1.000,1.000
64862,2.499,-0.756,0.749,0.123,-0.263,-0.066,0.016,-0.037,-0.002,0.008,0.044,0.377,0.026,0.000,0.377,0.015,-0.035,-0.001,0,0,242,0,242,0.725,0.000,0.000,1.000,1.000
64873,2.500,-0.658,0.705,0.124,-0.247,-0.073,0.017,-0.040,-0.002,0.008,0.044,0.377,0.027,0.000,0.361,0.016,-0.037,-0.002,0,0,242,0,242,0.725,0.000,0.000,1.000,1.000
64884,2.497,-0.685,0.671,0.117,-0.235,-0.070,0.018,-0.042,-0.003,0.008,0.044,0.377,0.028,0.000,0.394,0.017,-0.040,-0.002,0,0,242,0,242,0.725,0.000,0.000,1.000,1.000
64895,2.625,-0.786,0.536,0.102,-0.217,-0.056,0.019,-0.044,-0.004,0.008,0.044,0.377,0.029,0.000,0.377,0.018,-0.042,-0.003,0,0,242,0,242,0.725,0.000,0.000,1.000,1.000
64906,2.610,-0.691,0.542,0.088,-0.205,-0.033,0.020,-0.046,-0.004,0.008,0.044,0.361,0.030,0.000,0.377,0.019,-0.044,-0.004,0,0,242,0,242,0.725,0.000,0.000,1.000,1.000
64917,2.581,-0.757,0.574,0.079,-0.184,-0.012,0.021,-0.048,-0.004,0.008,0.044,0.377,0.031,0.000,0.361,0.020,-0.046,-0.004,0,0,242,0,242,0.725,0.000,0.000,1.000,1.000
64928,2.570,-0.759,0.530,0.073,-0.169,-0.002,0.022,-0.050,-0.004,0.008,0.044,0.377,0.032,0.000,0.394,0.021,-0.048,-0.004,0,0,242,0,242,0.725,0.000,0.000,1.000,1.000
64939,2.534,-0.762,0.633,0.073,-0.149,0.005,0.023,-0.051,-0.004,0.008,0.044,0.377,0.033,0.000,0.377,0.022,-0.050,-0.004,0,0,242,0,242,0.725,0.000,0.000,1.000,1.000
64950,2.504,-0.739,0.698,0.091,-0.127,0.020,0.023,-0.053,-0.004,0.008,0.044,0.377,0.034,-0.000,0.377,0.023,-0.051,-0.004,0,0,242,0,242,0.725,0.000,0.000,1.000,1.000
64961,2.508,-0.873,0.656,0.099,-0.110,0.029,0.024,-0.054,-0.004,0.008,0.044,0.394,0.035,-0.000,0.410,0.023,-0.053,-0.004,0,0,242,0,242,0.725,0.000,0.000,1.000,1.000
64972,2.461,-0.793,0.651,0.102,-0.100,0.034,0.025,-0.055,-0.003,0.008,0.044,0.377,0.036,-0.000,0.377,0.024,-0.054,-0.004,0,0,242,0,242,0.725,0.000,0.000,1.000,1.000
64983,2.392,-0.879,0.604,0.106,-0.088,0.043,0.026,-0.056,-0.003,0.008,0.044,0.394,0.037,-0.000,0.394,0.025,-0.055,-0.003,0,0,242,0,242,0.725,0.000,0.000,1.000,1.000
64994,2.393,-0.842,0.662,0.105,-0.072,0.049,0.028,-0.056,-0.002,0.008,0.044,0.377,0.038,-0.000,0.377,0.026,-0.056,-0.003,0,0,242,0,242,0.725,0.000,0.000,1.000,1.000
65005,2.337,-0.778,0.620,0.105,-0.071,0.055,0.029,-0.057,-0.002,0.008,0.044,0.410,0.039,-0.000,0.394,0.028,-0.056,-0.002,0,0,242,0,242,0.725,0.000,0.000,1.000,1.000
65016,2.308,-0.859,0.689,0.107,-0.057,0.061,0.030,-0.058,-0.001,0.008,0.044,0.410,0.040,-0.000,0.394,0.029,-0.057,-0.002,0,0,242,0,242,0.725,0.000,0.000,1.000,1.000
65027,2.328,-0.837,0.669,0.107,-0.061,0.064,0.031,-0.058,-0.001,0.008,0.044,0.410,0.041,-0.000,0.410,0.030,-0.058,-0.001,0,0,242,0,242,0.725,0.000,0.000,1.000,1.000
65038,2.285,-0.923,0.699,0.101,-0.060,0.079,0.032,-0.059,0.000,0.008,0.044,0.410,0.042,-0.000,0.394,0.031,-0.058,-0.001,0,0,242,0,242,0.725,0.000,0.000,1.000,1.000
65049,2.244,-0.784,0.662,0.096,-0.064,0.088,0.033,-0.060,0.001,0.008,0.044,0.394,0.043,-0.000,0.394,0.032,-0.059,0.000,0,0,242,0,242,1.892,0.000,0.000,1.000,1.000
65060,2.192,-0.855,0.690,0.094,-0.062,0.093,0.034,-0.060,0.002,0.008,0.044,0.394,0.044,-0.000,0.410,0.033,-0.060,0.001,0,0,242,0,242,1.892,0.000,0.000,1.000,1.000
65071,2.334,-0.952,0.556,0.095,-0.060,0.089,0.035,-0.061,0.003,0.008,0.044,0.410,0.045,-0.000,0.410,0.034,-0.060,0.002,0,0,242,0,242,1.892,0.000,0.000,1.000,1.000
65082,2.229,-0.746,0.583,0.095,-0.061,0.103,0.036,-0.061,0.004,0.008,0.044,0.394,0.046,-0.000,0.394,0.035,-0.061,0.003,0,0,242,0,242,1.892,0.000,0.000,1.000,1.000
65093,2.188,-0.924,0.602,0.095,-0.060,0.111,0.036,-0.062,0.005,0.008,0.044,0.394,0.047,-0.000,0.394,0.036,-0.061,0.004,0,0,242,0,242,1.892,0.000,0.000,1.000,1.000
65104,2.192,-0.917,0.585,0.088,-0.061,0.108,0.037,-0.063,0.006,0.008,0.044,0.394,0.048,-0.000,0.410,0.036,-0.062,0.005,0,0,242,0,242,1.892,0.000,0.000,1.000,1.000
65115,2.094,-0.933,0.634,0.080,-0.070,0.098,0.038,-0.063,0.007,0.008,0.044,0.394,0.049,-0.000,0.394,0.037,-0.063,0.006,0,0,242,0,242,1.892,0.000,0.000,1.000,1.000
65126,2.090,-0.987,0.603,0.054,-0.093,0.071,0.039,-0.064,0.008,0.008,0.044,0.426,0.050,0.000,0.426,0.038,-0.063,0.007,0,0,242,0,242,1.892,0.000,0.000,1.000,1.000
65137,2.116,-1.097,0.600,0.036,-0.099,0.050,0.039,-0.065,0.008,0.008,0.044,0.410,0.051,0.000,0.410,0.039,-0.064,0.008,0,0,242,0,242,1.892,0.000,0.000,1.000,1.000
65148,2.097,-1.091,0.665,0.018,-0.119,0.034,0.039,-0.066,0.009,0.008,0.044,0.410,0.052,0.000,0.426,0.039,-0.065,0.008,0,0,242,0,242,1.892,0.000,0.000,1.000,1.000
65159,2.017,-1.110,0.598,0.010,-0.153,0.005,0.039,-0.068,0.009,0.008,0.044,0.410,0.053,0.000,0.426,0.039,-0.066,0.009,0,0,242,0,242,1.892,0.000,0.000,1.000,1.000
65170,2.061,-1.245,0.568,0.005,-0.164,-0.029,0.039,-0.070,0.008,0.008,0.044,0.426,0.054,0.000,0.394,0.039,-0.068,0.009,0,0,242,0,242,1.892,0.000,0.000,1.000,1.000
65181,2.025,-1.092,0.517,-0.001,-0.192,-0.060,0.039,-0.071,0.008,0.008,0.044,0.426,0.055,0.000,0.426,0.039,-0.070,0.008,0,0,242,0,242,1.892,0.000,0.000,1.000,1.000
65192,2.035,-1.168,0.416,-0.009,-0.206,-0.082,0.039,-0.074,0.007,0.008,0.044,0.426,0.056,0.000,0.426,0.039,-0.071,0.008,0,0,242,0,242,1.892,0.000,0.000,1.000,1.000
65203,2.083,-1.159,0.434,-0.025,-0.210,-0.092,0.039,-0.076,0.006,0.008,0.044,0.442,0.057,0.000,0.442,0.039,-0.074,0.007,0,0,242,0,242,1.892,0.000,0.000,1.000,1.000
65214,2.170,-1.130,0.460,-0.050,-0.214,-0.122,0.039,-0.078,0.005,0.008,0.044,0.442,0.058,0.000,0.426,0.039,-0.076,0.006,0,0,242,0,242,1.892,0.000,0.000,1.000,1.000
65225,2.211,-1.140,0.533,-0.056,-0.210,-0.130,0.038,-0.080,0.003,0.008,0.044,0.442,0.059,0.000,0.410,0.039,-0.078,0.005,0,0,242,0,242,1.892,0.000,0.000,1.000,1.000
65236,2.183,-1.087,0.548,-0.059,-0.230,-0.126,0.037,-0.082,0.002,0.008,0.044,0.458,0.060,0.000,0.442,0.038,-0.080,0.003,0,0,242,0,242,1.892,0.000,0.000,1.000,1.000
65247,2.319,-1.277,0.493,-0.055,-0.222,-0.114,0.037,-0.084,0.001,0.008,0.044,0.426,0.061,0.000,0.458,0.037,-0.082,0.002,0,0,242,0,242,1.892,0.000,0.000,1.000,1.000
65258,2.259,-1.112,0.427,-0.053,-0.232,-0.109,0.036,-0.087,-0.000,0.008,0.044,0.442,0.062,0.000,0.426,0.037,-0.084,0.001,0,0,242,0,242,0.725,0.000,0.000,1.000,1.000
65269,2.222,-1.246,0.437,-0.053,-0.221,-0.100,0.036,-0.089,-0.001,0.008,0.044,0.458,0.063,0.000,0.442,0.036,-0.087,-0.000,0,0,242,0,242,0.725,0.000,0.000,1.000,1.000
65280,2.253,-1.251,0.397,-0.056,-0.215,-0.093,0.035,-0.091,-0.002,0.008,0.044,0.442,0.064,0.000,0.458,0.036,-0.089,-0.001,0,0,242,0,242,0.725,0.000,0.000,1.000,1.000
65291,2.204,-1.136,0.462,-0.069,-0.209,-0.084,0.034,-0.093,-0.003,0.008,0.044,0.442,0.065,0.000,0.442,0.035,-0.091,-0.002,0,0,242,0,242,0.725,0.000,0.000,1.000,1.000
65302,2.293,-1.220,0.474,-0.078,-0.183,-0.064,0.034,-0.095,-0.003,0.008,0.044,0.458,0.066,0.000,0.474,0.034,-0.093,-0.003,0,0,242,0,242,0.725,0.000,0.000,1.000,1.000
65313,2.310,-1.221,0.529,-0.081,-0.172,-0.051,0.033,-0.097,-0.004,0.008,0.044,0.458,0.067,0.000,0.458,0.034,-0.095,-0.003,0,0,242,0,242,0.725,0.000,0.000,1.000,1.000
65324,2.438,-1.286,0.470,-0.081,-0.156,-0.029,0.032,-0.098,-0.004,0.008,0.044,0.458,0.068,0.000,0.458,0.033,-0.097,-0.004,0,0,242,0,242,0.725,0.000,0.000,1.000,1.000
65335,2.469,-1.173,0.492,-0.081,-0.149,-0.001,0.031,-0.100,-0.004,0.008,0.044,0.458,0.069,0.000,0.458,0.032,-0.098,-0.004,0,0,242,0,242,0.725,0.000,0.000,1.000,1.000
65346,2.478,-1.265,0.469,-0.076,-0.132,0.026,0.031,-0.101,-0.004,0.008,0.044,0.458,0.070,0.000,0.458,0.031,-0.100,-0.004,0,0,242,0,242,0.725,0.000,0.000,1.000,1.000
65357,2.493,-1.205,0.509,-0.075,-0.112,0.054,0.030,-0.102,-0.003,0.008,0.044,0.458,0.071,0.000,0.474,0.031,-0.101,-0.004,0,0,242,0,242,0.725,0.000,0.000,1.000,1.000
65368,2.459,-1.152,0.542,-0.074,-0.101,0.082,0.029,-0.103,-0.003,0.008,0.044,0.474,0.072,0.000,0.474,0.030,-0.102,-0.003,0,0,242,0,242,0.725,0.000,0.000,1.000,1.000
65379,2.508,-1.228,0.561,-0.069,-0.077,0.109,0.028,-0.104,-0.002,0.008,0.044,0.474,0.073,0.000,0.458,0.029,-0.103,-0.003,0,0,242,0,242,0.725,0.000,0.000,1.000,1.000
65390,2.460,-1.158,0.533,-0.053,-0.044,0.154,0.028,-0.104,0.000,0.008,0.044,0.474,0.074,0.000,0.474,0.028,-0.104,-0.002,0,0,242,0,242,0.725,0.000,0.000,1.000,1.000
65401,2.450,-1.227,0.586,-0.043,-0.017,0.172,0.027,-0.105,0.002,0.008,0.044,0.490,0.075,0.000,0.490,0.028,-0.104,0.000,0,0,242,0,242,0.725,0.000,0.000,1.000,1.000
65412,2.417,-1.266,0.579,-0.034,-0.013,0.183,0.027,-0.105,0.004,0.008,0.044,0.474,0.076,0.000,0.490,0.027,-0.105,0.002,0,0,242,0,242,1.892,0.000,0.000,1.000,1.000
65423,2.334,-1.320,0.675,-0.028,-0.006,0.188,0.027,-0.105,0.005,0.008,0.044,0.490,0.077,0.000,0.474,0.027,-0.105,0.004,0,0,242,0,242,1.892,0.000,0.000,1.000,1.000
65434,2.445,-1.390,0.572,-0.023,-0.005,0.187,0.027,-0.105,0.007,0.008,0.044,0.506,0.078,0.000,0.506,0.027,-0.105,0.005,0,0,242,0,242,1.892,0.000,0.000,1.000,1.000
65445,2.365,-1.272,0.643,-0.017,0.001,0.198,0.026,-0.105,0.009,0.008,0.044,0.490,0.079,0.000,0.490,0.027,-0.105,0.007,0,0,242,0,242,1.892,0.000,0.000,1.000,1.000
65456,2.364,-1.326,0.664,-0.010,0.004,0.200,0.026,-0.105,0.011,0.008,0.044,0.506,0.080,0.000,0.474,0.026,-0.105,0.009,0,0,242,0,242,1.892,0.000,0.000,1.000,1.000
65467,2.405,-1.377,0.592,-0.006,0.000,0.193,0.026,-0.105,0.013,0.008,0.044,0.490,0.081,0.000,0.490,0.026,-0.105,0.011,0,0,242,0,242,1.892,0.000,0.000,1.000,1.000
65478,2.380,-1.359,0.692,-0.006,0.002,0.173,0.026,-0.105,0.015,0.008,0.044,0.506,0.082,0.000,0.506,0.026,-0.105,0.013,0,0,242,0,242,1.892,0.000,0.000,1.000,1.000
65489,2.365,-1.397,0.622,-0.011,-0.010,0.155,0.026,-0.105,0.017,0.008,0.044,0.506,0.083,0.000,0.506,0.026,-0.105,0.015,0,0,242,0,242,1.892,0.000,0.000,1.000,1.000
65500,2.335,-1.391,0.741,-0.019,-0.009,0.140,0.026,-0.105,0.018,0.008,0.044,0.506,0.084,0.000,0.506,0.026,-0.105,0.017,0,0,242,0,242,1.892,0.000,0.000,1.000,1.000
65511,2.350,-1.440,0.771,-0.025,-0.028,0.117,0.026,-0.105,0.019,0.008,0.044,0.523,0.085,0.000,0.490,0.026,-0.105,0.018,0,0,242,0,242,1.892,0.000,0.000,1.000,1.000
65522,2.309,-1.440,0.753,-0.023,-0.049,0.084,0.026,-0.106,0.020,0.008,0.044,0.506,0.086,0.000,0.490,0.026,-0.105,0.019,0,0,242,0,242,1.892,0.000,0.000,1.000,1.000
65533,2.326,-1.525,0.739,-0.020,-0.061,0.053,0.025,-0.106,0.020,0.008,0.044,0.539,0.087,0.000,0.506,0.026,-0.106,0.020,0,0,242,0,242,1.892,0.000,0.000,1.000,1.000
65544,2.335,-1.525,0.656,-0.016,-0.087,0.020,0.025,-0.107,0.021,0.008,0.044,0.523,0.088,0.000,0.506,0.025,-0.106,0.020,0,0,242,0,242,1.892,0.000,0.000,1.000,1.000
65555,2.284,-1.603,0.669,-0.012,-0.104,-0.007,0.025,-0.108,0.021,0.008,0.044,0.523,0.089,0.000,0.506,0.025,-0.107,0.021,0,0,242,0,242,1.892,0.000,0.000,1.000,1.000
65566,2.307,-1.260,0.611,-0.019,-0.120,-0.028,0.025,-0.109,0.020,0.008,0.044,0.506,0.090,0.000,0.506,0.025,-0.108,0.021,0,0,242,0,242,1.892,0.000,0.000,1.000,1.000
65577,2.380,-1.415,0.675,-0.036,-0.126,-0.059,0.025,-0.111,0.020,0.008,0.044,0.523,0.091,0.000,0.523,0.025,-0.109,0.020,0,0,242,0,242,1.892,0.000,0.000,1.000,1.000
65588,2.468,-1.400,0.607,-0.032,-0.136,-0.071,0.024,-0.112,0.019,0.008,0.044,0.523,0.092,0.000,0.523,0.025,-0.111,0.020,0,0,242,0,242,1.262,1.000,0.000,1.000,0.000
65599,2.484,-1.385,0.640,-0.027,-0.131,-0.071,0.024,-0.113,0.018,0.008,0.044,0.555,0.093,0.000,0.523,0.024,-0.112,0.019,0,0,242,0,242,1.263,1.000,0.000,1.000,0.000
65610,2.561,-1.409,0.608,-0.017,-0.127,-0.059,0.024,-0.114,0.018,0.008,0.044,0.539,0.094,0.000,0.523,0.024,-0.113,0.018,0,0,242,0,242,1.263,1.000,0.000,1.000,0.000
65621,2.509,-1.339,0.517,-0.006,-0.130,-0.054,0.024,-0.116,0.017,0.008,0.044,0.539,0.095,0.000,0.539,0.024,-0.114,0.018,0,0,242,0,242,1.264,1.000,0.000,1.000,0.000
65632,2.475,-1.418,0.559,0.001,-0.119,-0.048,0.024,-0.117,0.017,0.008,0.044,0.539,0.096,0.000,0.523,0.024,-0.116,0.017,0,0,242,0,242,1.264,1.000,0.000,1.000,0.000
65643,2.504,-1.397,0.522,0.002,-0.111,-0.038,0.024,-0.118,0.016,0.008,0.044,0.539,0.097,0.000,0.539,0.024,-0.117,0.017,0,0,242,0,242,1.264,1.000,0.000,1.000,0.000
65654,2.488,-1.337,0.505,-0.001,-0.104,-0.023,0.024,-0.119,0.016,0.008,0.044,0.555,0.098,0.000,0.555,0.024,-0.118,0.016,0,0,242,0,242,1.264,1.000,0.000,1.000,0.000
65665,2.579,-1.366,0.487,-0.000,-0.075,0.007,0.024,-0.120,0.016,0.008,0.044,0.571,0.099,0.000,0.555,0.024,-0.119,0.016,0,0,242,0,242,1.265,1.000,0.000,1.000,0.000
65676,2.581,-1.379,0.505,0.001,-0.062,0.028,0.024,-0.120,0.016,0.008,0.044,0.571,0.100,0.000,0.555,0.024,-0.120,0.016,0,0,242,0,242,1.265,1.000,0.000,1.000,0.000
65687,2.630,-1.371,0.544,0.001,-0.040,0.054,0.024,-0.121,0.017,0.008,0.044,0.571,0.100,0.000,0.555,0.024,-0.120,0.016,0,0,242,0,242,1.264,1.000,0.000,1.000,0.000
65698,2.630,-1.292,0.510,0.002,-0.033,0.079,0.024,-0.121,0.018,0.008,0.044,0.571,0.101,0.000,0.571,0.024,-0.121,0.017,0,0,242,0,242,1.264,1.000,0.000,1.000,0.000
65709,2.643,-1.373,0.492,0.012,-0.013,0.111,0.024,-0.121,0.019,0.008,0.044,0.587,0.102,0.000,0.555,0.024,-0.121,0.018,0,0,242,0,242,1.263,1.000,0.000,1.000,0.000
65720,2.622,-1.301,0.511,0.019,0.002,0.138,0.024,-0.121,0.020,0.008,0.044,0.571,0.103,0.000,0.555,0.024,-0.121,0.019,0,0,242,0,242,1.263,1.000,0.000,1.000,0.000
65731,2.555,-1.300,0.463,0.029,0.010,0.159,0.024,-0.121,0.022,0.008,0.044,0.571,0.104,0.000,0.587,0.024,-0.121,0.020,0,0,242,0,242,1.262,1.000,0.000,1.000,0.000
65742,2.518,-1.391,0.511,0.033,0.031,0.178,0.025,-0.121,0.024,0.008,0.044,0.555,0.105,0.001,0.587,0.024,-0.121,0.022,0,0,242,0,242,1.261,1.000,0.000,1.000,0.000
65753,2.433,-1.417,0.530,0.036,0.043,0.189,0.025,-0.121,0.026,0.008,0.044,0.587,0.106,0.001,0.603,0.025,-0.121,0.024,0,0,242,0,242,1.260,1.000,0.000,1.000,0.000
65764,2.427,-1.412,0.610,0.040,0.053,0.198,0.025,-0.120,0.028,0.008,0.044,0.587,0.107,0.001,0.571,0.025,-0.121,0.026,0,0,242,0,242,1.259,1.000,0.000,1.000,0.000
65775,2.436,-1.428,0.543,0.043,0.045,0.194,0.026,-0.120,0.029,0.008,0.044,0.603,0.108,0.001,0.603,0.025,-0.120,0.028,0,0,242,0,242,1.257,1.000,0.000,1.000,0.000
65786,2.505,-1.451,0.529,0.045,0.053,0.197,0.026,-0.119,0.031,0.008,0.044,0.603,0.109,0.001,0.603,0.026,-0.120,0.029,0,0,242,0,242,1.256,1.000,0.000,1.000,0.000
65797,2.407,-1.342,0.604,0.045,0.051,0.204,0.027,-0.119,0.033,0.008,0.044,0.603,0.110,0.001,0.603,0.026,-0.119,0.031,0,0,242,0,242,1.255,1.000,0.000,1.000,0.000
65808,2.406,-1.357,0.560,0.046,0.040,0.192,0.027,-0.118,0.035,0.008,0.044,0.587,0.111,0.001,0.587,0.027,-0.119,0.033,0,0,242,0,242,1.253,1.000,0.000,1.000,0.000
65819,2.457,-1.441,0.639,0.044,0.050,0.189,0.028,-0.118,0.037,0.008,0.044,0.587,0.112,0.001,0.571,0.027,-0.118,0.035,0,0,242,0,242,1.252,1.000,0.000,1.000,0.000
65830,2.447,-1.313,0.591,0.044,0.040,0.192,0.028,-0.117,0.039,0.008,0.044,0.619,0.113,0.001,0.619,0.028,-0.118,0.037,0,0,242,0,242,1.251,1.000,0.000,1.000,0.000
65841,2.401,-1.444,0.586,0.043,0.035,0.175,0.029,-0.117,0.041,0.008,0.044,0.619,0.114,0.001,0.603,0.028,-0.117,0.039,0,0,242,0,242,1.250,1.000,0.000,1.000,0.000
65852,2.369,-1.310,0.614,0.038,0.024,0.170,0.029,-0.117,0.043,0.008,0.044,0.619,0.115,0.001,0.619,0.029,-0.117,0.041,0,0,242,0,242,1.249,1.000,0.000,1.000,0.000
65863,2.375,-1.394,0.588,0.035,0.016,0.160,0.029,-0.116,0.044,0.008,0.044,0.619,0.116,0.001,0.619,0.029,-0.117,0.043,0,0,242,0,242,1.247,1.000,0.000,1.000,0.000
65874,2.438,-1.392,0.566,0.030,0.016,0.150,0.030,-0.116,0.046,0.008,0.044,0.619,0.117,0.001,0.619,0.029,-0.116,0.044,0,0,242,0,242,1.246,1.000,0.000,1.000,0.000
65885,2.370,-1.262,0.604,0.033,0.005,0.144,0.030,-0.116,0.047,0.008,0.044,0.619,0.118,0.001,0.619,0.030,-0.116,0.046,0,0,242,0,242,1.245,1.000,0.000,1.000,0.000
65896,2.443,-1.379,0.552,0.034,0.002,0.139,0.030,-0.116,0.049,0.008,0.044,0.619,0.119,0.001,0.635,0.030,-0.116,0.047,0,0,242,0,242,1.245,1.000,0.000,1.000,0.000
65907,2.468,-1.314,0.517,0.034,0.004,0.142,0.031,-0.116,0.050,0.008,0.044,0.635,0.120,0.001,0.652,0.030,-0.116,0.049,0,0,242,0,242,1.244,1.000,0.000,1.000,0.000
65918,2.398,-1.245,0.507,0.034,-0.006,0.139,0.031,-0.116,0.051,0.008,0.044,0.635,0.121,0.001,0.635,0.031,-0.116,0.050,0,0,242,0,242,1.243,1.000,0.000,1.000,0.000
65929,2.443,-1.266,0.523,0.038,-0.005,0.139,0.031,-0.116,0.053,0.008,0.044,0.652,0.122,0.001,0.652,0.031,-0.116,0.051,0,0,242,0,242,1.242,1.000,0.000,1.000,0.000
65940,2.401,-1.281,0.538,0.039,-0.006,0.139,0.032,-0.116,0.054,0.008,0.044,0.635,0.123,0.001,0.635,0.031,-0.116,0.053,0,0,242,0,242,1.241,1.000,0.000,1.000,0.000
65951,2.427,-1.336,0.537,0.039,-0.002,0.140,0.032,-0.116,0.056,0.008,0.044,0.635,0.124,0.001,0.652,0.032,-0.116,0.054,0,0,242,0,242,1.240,1.000,0.000,1.000,0.000
65962,2.417,-1.238,0.486,0.039,-0.010,0.139,0.033,-0.116,0.057,0.008,0.044,0.668,0.125,0.001,0.619,0.032,-0.116,0.056,0,0,242,0,242,1.239,1.000,0.000,1.000,0.000
65973,2.382,-1.294,0.560,0.038,-0.006,0.140,0.033,-0.116,0.058,0.008,0.044,0.652,0.126,0.001,0.652,0.033,-0.116,0.057,0,0,242,0,242,1.238,1.000,0.000,1.000,0.000
65984,2.435,-1.289,0.524,0.036,-0.007,0.138,0.033,-0.116,0.060,0.008,0.044,0.652,0.127,0.001,0.668,0.033,-0.116,0.058,0,0,242,0,242,1.237,1.000,0.000,1.000,0.000
65995,2.392,-1.240,0.511,0.039,-0.015,0.136,0.034,-0.116,0.061,0.008,0.044,0.668,0.128,0.002,0.652,0.033,-0.116,0.060,0,0,242,0,242,1.236,1.000,0.000,1.000,0.000
66006,2.410,-1.331,0.553,0.036,-0.011,0.134,0.034,-0.117,0.062,0.008,0.044,0.668,0.129,0.002,0.652,0.034,-0.116,0.061,0,0,242,0,242,1.235,1.000,0.000,1.000,0.000
66017,2.372,-1.250,0.516,0.032,-0.022,0.131,0.034,-0.117,0.064,0.008,0.044,0.652,0.130,0.002,0.668,0.034,-0.117,0.062,0,0,242,0,242,1.234,1.000,0.000,1.000,0.000
66028,2.390,-1.319,0.547,0.029,-0.016,0.130,0.035,-0.117,0.065,0.008,0.044,0.668,0.131,0.002,0.668,0.034,-0.117,0.064,0,0,242,0,242,1.234,1.000,0.000,1.000,0.000
66039,2.418,-1.204,0.510,0.028,-0.024,0.126,0.035,-0.117,0.066,0.008,0.044,0.684,0.132,0.002,0.700,0.035,-0.117,0.065,0,0,242,0,242,1.233,1.000,0.000,1.000,0.000
66050,2.365,-1.271,0.550,0.028,-0.026,0.128,0.035,-0.117,0.068,0.008,0.044,0.684,0.133,0.002,0.684,0.035,-0.117,0.066,0,0,242,0,242,1.232,1.000,0.000,1.000,0.000
66061,2.429,-1.311,0.504,0.028,-0.022,0.126,0.035,-0.118,0.069,0.008,0.044,0.668,0.134,0.002,0.684,0.035,-0.117,0.068,0,0,242,0,242,1.231,1.000,0.000,1.000,0.000
66072,2.399,-1.173,0.491,0.028,-0.028,0.125,0.036,-0.118,0.070,0.008,0.044,0.684,0.135,0.002,0.668,0.035,-0.118,0.069,0,0,242,0,242,1.230,1.000,0.000,1.000,0.000
66083,2.374,-1.293,0.554,0.028,-0.023,0.128,0.036,-0.118,0.071,0.008,0.044,0.684,0.136,0.002,0.668,0.036,-0.118,0.070,0,0,242,0,242,1.229,1.000,0.000,1.000,0.000
66094,2.444,-1.266,0.487,0.024,-0.027,0.123,0.036,-0.118,0.073,0.008,0.044,0.716,0.137,0.002,0.700,0.036,-0.118,0.071,0,0,242,0,242,1.228,1.000,0.000,1.000,0.000
66105,2.382,-1.307,0.537,0.027,-0.026,0.126,0.037,-0.119,0.074,0.008,0.044,0.684,0.138,0.002,0.700,0.036,-0.118,0.073,0,0,242,0,242,1.228,1.000,0.000,1.000,0.000
66116,2.407,-1.197,0.469,0.025,-0.032,0.123,0.037,-0.119,0.075,0.008,0.044,0.700,0.139,0.002,0.700,0.037,-0.119,0.074,0,0,242,0,242,1.227,1.000,0.000,1.000,0.000
66127,2.377,-1.282,0.521,0.024,-0.029,0.125,0.037,-0.119,0.076,0.008,0.044,0.716,0.140,0.002,0.700,0.037,-0.119,0.075,0,0,242,0,242,1.226,1.000,0.000,1.000,0.000
66138,2.427,-1.263,0.537,0.022,-0.027,0.127,0.037,-0.120,0.078,0.008,0.044,0.716,0.141,0.002,0.716,0.037,-0.119,0.076,0,0,242,0,242,1.225,1.000,0.000,1.000,0.000
66149,2.369,-1.198,0.485,0.022,-0.037,0.123,0.037,-0.120,0.079,0.008,0.044,0.716,0.142,0.002,0.716,0.037,-0.120,0.078,0,0,242,0,242,1.224,1.000,0.000,1.000,0.000
66160,2.394,-1.296,0.529,0.022,-0.031,0.125,0.038,-0.120,0.080,0.008,0.044,0.700,0.143,0.003,0.700,0.037,-0.120,0.079,0,0,242,0,242,1.223,1.000,0.000,1.000,0.000
66171,2.404,-1.255,0.493,0.019,-0.034,0.125,0.038,-0.121,0.081,0.008,0.044,0.716,0.144,0.003,0.716,0.038,-0.120,0.080,0,0,242,0,242,1.223,1.000,0.000,1.000,0.000
66182,2.378,-1.213,0.474,0.018,-0.039,0.125,0.038,-0.121,0.083,0.008,0.044,0.732,0.145,0.003,0.684,0.038,-0.121,0.081,0,0,242,0,242,1.222,1.000,0.000,1.000,0.000
66193,2.430,-1.183,0.479,0.017,-0.040,0.123,0.038,-0.121,0.084,0.008,0.044,0.716,0.146,0.003,0.732,0.038,-0.121,0.083,0,0,242,0,242,1.221,1.000,0.000,1.000,0.000
66204,2.346,-1.271,0.542,0.017,-0.043,0.126,0.038,-0.122,0.085,0.008,0.044,0.732,0.147,0.003,0.748,0.038,-0.121,0.084,0,0,242,0,242,1.220,1.000,0.000,1.000,0.000
66215,2.439,-1.311,0.480,0.014,-0.039,0.125,0.039,-0.122,0.086,0.008,0.044,0.716,0.148,0.003,0.732,0.038,-0.122,0.085,0,0,242,0,242,1.219,1.000,0.000,1.000,0.000
66226,2.357,-1.194,0.488,0.014,-0.046,0.123,0.039,-0.123,0.088,0.008,0.044,0.716,0.149,0.003,0.732,0.039,-0.122,0.086,0,0,242,0,242,1.218,1.000,0.000,1.000,0.000
66237,2.398,-1.298,0.529,0.014,-0.042,0.125,0.039,-0.123,0.089,0.008,0.044,0.748,0.149,0.003,0.748,0.039,-0.123,0.088,0,0,242,0,242,1.218,1.000,0.000,1.000,0.000
66248,2.411,-1.256,0.516,0.014,-0.043,0.127,0.039,-0.124,0.090,0.008,0.044,0.748,0.150,0.003,0.732,0.039,-0.123,0.089,0,0,242,0,242,1.217,1.000,0.000,1.000,0.000
66259,2.370,-1.215,0.486,0.016,-0.051,0.122,0.039,-0.124,0.091,0.008,0.044,0.765,0.151,0.003,0.732,0.039,-0.124,0.090,0,0,242,0,242,1.216,1.000,0.000,1.000,0.000
66270,2.390,-1.322,0.553,0.016,-0.043,0.126,0.039,-0.124,0.093,0.008,0.044,0.748,0.152,0.003,0.748,0.039,-0.124,0.091,0,0,242,0,242,1.215,1.000,0.000,1.000,0.000
66281,2.374,-1.282,0.518,0.013,-0.051,0.126,0.039,-0.125,0.094,0.008,0.044,0.765,0.153,0.003,0.781,0.039,-0.124,0.093,0,0,224,0,224,1.214,1.000,0.000,1.000,0.000
66292,2.426,-1.296,0.504,0.012,-0.048,0.126,0.040,-0.125,0.095,0.008,0.044,0.748,0.154,0.004,0.765,0.039,-0.125,0.094,0,0,238,0,238,1.213,1.000,0.000,1.000,0.000
66303,2.362,-1.140,0.439,0.011,-0.056,0.126,0.040,-0.126,0.096,0.008,0.044,0.748,0.155,0.004,0.748,0.040,-0.125,0.095,0,0,242,0,242,1.212,1.000,0.000,1.000,0.000
66314,2.410,-1.391,0.439,0.012,-0.051,0.126,0.040,-0.127,0.098,0.008,0.044,0.797,0.156,0.004,0.781,0.040,-0.126,0.096,0,0,224,0,224,1.211,1.000,0.000,1.000,0.000
66325,2.435,-1.281,0.443,0.008,-0.049,0.127,0.040,-0.127,0.099,0.008,0.044,0.765,0.157,0.004,0.765,0.040,-0.127,0.098,0,0,238,0,238,1.211,1.000,0.000,1.000,0.000
66336,2.371,-1.223,0.457,0.008,-0.056,0.128,0.040,-0.128,0.100,0.008,0.044,0.765,0.158,0.004,0.765,0.040,-0.127,0.099,0,0,238,0,238,1.210,1.000,0.000,1.000,0.000
66347,2.460,-1.292,0.455,0.007,-0.045,0.136,0.040,-0.128,0.102,0.008,0.044,0.797,0.159,0.004,0.765,0.040,-0.128,0.100,0,0,238,0,238,1.209,1.000,0.000,1.000,0.000
66358,2.347,-1.146,0.458,0.010,-0.055,0.134,0.040,-0.129,0.103,0.008,0.044,0.781,0.160,0.004,0.765,0.040,-0.128,0.102,0,0,238,0,238,1.208,1.000,0.000,1.000,0.000
66369,2.472,-1.189,0.475,0.006,-0.034,0.144,0.040,-0.129,0.104,0.008,0.044,0.781,0.161,0.004,0.781,0.040,-0.129,0.103,0,0,224,0,224,1.207,1.000,0.000,1.000,0.000
66380,2.388,-1.216,0.436,0.008,-0.049,0.149,0.040,-0.129,0.106,0.008,0.044,0.765,0.162,0.004,0.781,0.040,-0.129,0.104,0,0,224,0,224,1.206,1.000,0.000,1.000,0.000
66391,2.451,-1.379,0.461,0.011,-0.034,0.145,0.040,-0.130,0.107,0.008,0.044,0.813,0.163,0.004,0.765,0.040,-0.129,0.106,0,0,238,0,238,1.205,1.000,0.000,1.000,0.000
66402,2.410,-1.182,0.430,0.013,-0.044,0.143,0.040,-0.130,0.109,0.008,0.044,0.813,0.164,0.005,0.797,0.040,-0.130,0.107,0,0,210,0,210,1.204,1.000,0.000,1.000,0.000
66413,2.384,-1.343,0.485,0.013,-0.039,0.149,0.040,-0.131,0.110,0.008,0.044,0.765,0.165,0.005,0.797,0.040,-0.130,0.109,0,0,210,0,210,1.203,1.000,0.000,1.000,0.000
66424,2.448,-1.286,0.396,0.007,-0.040,0.140,0.040,-0.131,0.112,0.008,0.044,0.813,0.166,0.005,0.813,0.040,-0.131,0.110,0,0,197,0,197,1.202,1.000,0.000,1.000,0.000
66435,2.407,-1.260,0.430,0.007,-0.042,0.140,0.040,-0.131,0.113,0.008,0.044,0.797,0.167,0.005,0.813,0.040,-0.131,0.112,0,0,197,0,197,1.201,1.000,0.000,1.000,0.000
66446,2.514,-1.296,0.389,0.003,-0.035,0.139,0.040,-0.132,0.114,0.008,0.044,0.797,0.168,0.005,0.813,0.040,-0.131,0.113,0,0,197,0,197,1.200,1.000,0.000,1.000,0.000
66457,2.493,-1.359,0.378,0.002,-0.044,0.133,0.040,-0.132,0.116,0.008,0.044,0.813,0.169,0.005,0.813,0.040,-0.132,0.114,0,0,197,0,197,1.199,1.000,0.000,1.000,0.000
66468,2.368,-1.221,0.432,-0.004,-0.040,0.136,0.040,-0.133,0.117,0.008,0.044,0.829,0.170,0.005,0.829,0.040,-0.132,0.116,0,0,182,0,182,1.198,1.000,0.000,1.000,0.000
66479,2.460,-1.305,0.409,-0.005,-0.039,0.131,0.040,-0.133,0.118,0.008,0.044,0.797,0.171,0.005,0.813,0.040,-0.133,0.117,0,0,197,0,197,1.197,1.000,0.000,1.000,0.000
66490,2.424,-1.289,0.396,-0.008,-0.039,0.126,0.040,-0.133,0.120,0.008,0.044,0.845,0.172,0.005,0.813,0.040,-0.133,0.118,0,0,197,0,197,1.196,1.000,0.000,1.000,0.000
66501,2.442,-1.276,0.430,-0.009,-0.039,0.126,0.040,-0.134,0.121,0.008,0.044,0.813,0.173,0.006,0.813,0.040,-0.133,0.120,0,0,197,0,197,1.195,1.000,0.000,1.000,0.000
66512,2.443,-1.299,0.363,-0.012,-0.038,0.125,0.040,-0.134,0.122,0.008,0.044,0.829,0.174,0.006,0.829,0.040,-0.134,0.121,0,0,182,0,182,1.194,1.000,0.000,1.000,0.000
66523,2.451,-1.272,0.414,-0.012,-0.039,0.123,0.040,-0.135,0.123,0.008,0.044,0.829,0.175,0.006,0.829,0.040,-0.134,0.122,0,0,182,0,182,1.194,1.000,0.000,1.000,0.000
66534,2.465,-1.289,0.360,-0.012,-0.033,0.125,0.040,-0.135,0.125,0.008,0.044,0.845,0.176,0.006,0.861,0.040,-0.135,0.123,0,0,154,0,154,1.193,1.000,0.000,1.000,0.000
66545,2.460,-1.249,0.336,-0.015,-0.037,0.125,0.040,-0.135,0.126,0.008,0.044,0.845,0.177,0.006,0.861,0.040,-0.135,0.125,0,0,154,0,154,1.192,1.000,0.000,1.000,0.000
66556,2.463,-1.250,0.378,-0.017,-0.032,0.122,0.039,-0.136,0.127,0.008,0.044,0.861,0.178,0.006,0.845,0.040,-0.135,0.126,0,0,168,0,168,1.191,1.000,0.000,1.000,0.000
66567,2.484,-1.298,0.327,-0.016,-0.023,0.125,0.039,-0.136,0.128,0.008,0.044,0.845,0.179,0.006,0.829,0.039,-0.136,0.127,0,0,182,0,182,1.190,1.000,0.000,1.000,0.000
66578,2.469,-1.237,0.406,-0.019,-0.026,0.123,0.039,-0.136,0.130,0.008,0.044,0.845,0.180,0.006,0.877,0.039,-0.136,0.128,0,0,140,0,140,1.189,1.000,0.000,1.000,0.000
66589,2.482,-1.329,0.337,-0.017,-0.021,0.125,0.039,-0.136,0.131,0.008,0.044,0.861,0.181,0.007,0.861,0.039,-0.136,0.130,0,0,154,0,154,1.188,1.000,0.000,1.000,0.000
66600,2.471,-1.203,0.418,-0.020,-0.021,0.120,0.039,-0.136,0.132,0.008,0.044,0.877,0.182,0.007,0.861,0.039,-0.136,0.131,0,0,154,0,154,1.187,1.000,0.000,1.000,0.000
66611,2.490,-1.341,0.333,-0.020,-0.020,0.122,0.038,-0.137,0.133,0.958,0.074,0.861,0.183,0.007,0.861,0.039,-0.136,0.132,0,0,154,0,154,1.186,1.000,0.000,1.000,0.000
66622,2.484,-1.215,0.403,-0.020,-0.016,0.117,0.038,-0.137,0.134,0.958,0.074,0.894,0.185,0.007,0.861,0.038,-0.137,0.133,0,0,154,0,154,1.186,1.000,0.000,1.000,0.000
66633,2.511,-1.324,0.317,-0.023,-0.015,0.120,0.038,-0.137,0.136,0.958,0.074,0.861,0.187,0.007,0.861,0.038,-0.137,0.134,0,0,154,0,154,1.185,1.000,0.000,1.000,0.000
66644,2.528,-1.296,0.315,-0.027,-0.012,0.119,0.038,-0.137,0.137,0.958,0.074,0.894,0.188,0.008,0.877,0.038,-0.137,0.136,0,0,140,0,140,1.184,1.000,0.000,1.000,0.000
66655,2.461,-1.247,0.372,-0.026,-0.006,0.116,0.038,-0.137,0.138,0.958,0.074,0.877,0.190,0.008,0.877,0.038,-0.137,0.137,0,0,140,0,140,1.183,1.000,0.000,1.000,0.000
66666,2.533,-1.235,0.326,-0.030,-0.006,0.115,0.037,-0.137,0.139,0.958,0.074,0.894,0.192,0.008,0.861,0.038,-0.137,0.138,0,0,154,0,154,1.182,1.000,0.000,1.000,0.000
66677,2.488,-1.319,0.322,-0.027,-0.001,0.117,0.037,-0.137,0.140,0.958,0.074,0.877,0.193,0.008,0.877,0.037,-0.137,0.139,0,0,140,0,140,1.181,1.000,0.000,1.000,0.000
66688,2.527,-1.189,0.352,-0.030,0.000,0.110,0.037,-0.137,0.141,0.958,0.074,0.894,0.195,0.009,0.910,0.037,-0.137,0.140,172,172,112,172,112,1.180,1.000,0.000,1.000,0.000
66699,2.512,-1.318,0.324,-0.033,0.002,0.115,0.036,-0.137,0.143,0.958,0.074,0.877,0.196,0.009,0.877,0.037,-0.137,0.141,0,0,140,0,140,1.179,1.000,0.000,1.000,0.000
66710,2.514,-1.201,0.369,-0.031,0.007,0.109,0.036,-0.137,0.144,0.958,0.074,0.910,0.198,0.009,0.894,0.036,-0.137,0.143,0,0,126,0,126,1.178,1.000,0.000,1.000,0.000
66721,2.552,-1.219,0.365,-0.037,0.007,0.108,0.036,-0.137,0.145,0.958,0.074,0.877,0.200,0.009,0.894,0.036,-0.137,0.144,0,0,126,0,126,1.177,1.000,0.000,1.000,0.000
66732,2.527,-1.201,0.396,-0.034,0.013,0.109,0.035,-0.137,0.146,0.958,0.074,0.910,0.202,0.009,0.910,0.036,-0.137,0.145,171,171,112,171,112,1.176,1.000,0.000,1.000,0.000
66743,2.589,-1.274,0.265,-0.036,0.016,0.108,0.035,-0.137,0.147,0.958,0.074,0.910,0.203,0.010,0.926,0.035,-0.137,0.146,171,171,99,171,98,1.175,1.000,0.000,1.000,0.000
66754,2.614,-1.189,0.424,-0.045,0.031,0.098,0.035,-0.137,0.148,0.958,0.074,0.910,0.205,0.010,0.910,0.035,-0.137,0.147,171,171,112,171,112,1.175,1.000,0.000,1.000,0.000
66765,2.814,-1.216,0.399,-0.038,0.039,0.078,0.034,-0.136,0.149,0.958,0.074,0.926,0.207,0.010,0.926,0.035,-0.137,0.148,170,170,99,170,98,1.174,1.000,0.000,1.000,0.000
66776,3.001,-1.213,0.476,-0.016,0.044,0.066,0.034,-0.136,0.149,0.958,0.074,0.910,0.207,0.010,0.910,0.034,-0.136,0.149,170,170,112,170,112,1.173,1.000,0.000,1.000,0.000
66787,2.959,-1.183,0.560,0.016,0.038,0.062,0.034,-0.135,0.150,0.958,0.074,0.910,0.208,0.010,0.910,0.034,-0.136,0.149,170,170,112,170,112,1.173,1.000,0.000,1.000,0.000
66798,2.987,-1.220,0.524,0.034,0.033,0.059,0.034,-0.135,0.150,0.958,0.074,0.926,0.209,0.011,0.910,0.034,-0.135,0.150,170,170,112,170,112,1.172,1.000,0.000,1.000,0.000
66809,3.078,-1.170,0.523,0.046,0.035,0.059,0.035,-0.135,0.151,0.958,0.074,0.942,0.211,0.011,0.942,0.034,-0.135,0.150,169,169,85,169,84,1.172,1.000,0.000,1.000,0.000
66820,3.102,-1.180,0.462,0.056,0.038,0.064,0.035,-0.134,0.152,0.958,0.074,0.942,0.213,0.011,0.942,0.035,-0.135,0.151,169,169,85,169,84,1.171,1.000,0.000,1.000,0.000
66831,3.185,-1.136,0.401,0.050,0.029,0.070,0.036,-0.134,0.152,0.958,0.074,0.958,0.214,0.011,0.942,0.035,-0.134,0.152,168,168,85,168,84,1.170,1.000,0.000,1.000,0.000
66842,3.279,-1.231,0.293,0.055,0.044,0.081,0.037,-0.133,0.153,0.958,0.074,0.942,0.216,0.012,0.894,0.036,-0.134,0.152,0,0,126,0,126,1.170,1.000,0.000,1.000,0.000
66853,3.300,-1.024,0.485,0.052,0.046,0.098,0.037,-0.133,0.154,0.958,0.074,0.942,0.217,0.012,0.942,0.037,-0.133,0.153,168,168,85,168,84,1.169,1.000,0.000,1.000,0.000
66864,3.391,-1.247,0.335,0.067,0.042,0.127,0.038,-0.133,0.155,0.958,0.074,0.942,0.219,0.012,0.926,0.037,-0.133,0.154,167,167,99,167,98,1.168,1.000,0.000,1.000,0.000
66875,3.131,-1.022,0.570,0.088,0.049,0.148,0.039,-0.132,0.157,0.958,0.074,0.942,0.220,0.012,0.942,0.038,-0.133,0.155,167,167,85,167,84,1.167,1.000,0.000,1.000,0.000
66886,3.181,-1.244,0.238,0.079,0.039,0.159,0.039,-0.132,0.158,0.958,0.074,0.942,0.222,0.013,0.942,0.039,-0.132,0.157,167,167,85,167,84,1.166,1.000,0.000,1.000,0.000
66897,2.899,-1.069,0.294,0.071,0.060,0.175,0.040,-0.131,0.160,0.958,0.074,0.958,0.224,0.013,0.958,0.039,-0.132,0.158,166,166,71,166,70,1.165,1.000,0.000,1.000,0.000
66908,2.892,-1.121,0.107,0.046,0.082,0.180,0.041,-0.130,0.162,0.958,0.074,0.958,0.225,0.013,0.958,0.040,-0.131,0.160,166,166,71,166,70,1.163,1.000,0.000,1.000,0.000
66919,2.774,-1.006,0.286,0.055,0.082,0.170,0.041,-0.130,0.164,0.958,0.074,0.942,0.227,0.013,0.942,0.041,-0.130,0.162,166,166,85,166,84,1.162,1.000,0.000,1.000,0.000
66930,2.844,-1.138,0.087,0.073,0.087,0.169,0.042,-0.129,0.165,0.958,0.074,0.958,0.229,0.014,0.958,0.041,-0.130,0.164,165,165,71,165,70,1.161,1.000,0.000,1.000,0.000
66941,2.852,-0.929,0.348,0.090,0.086,0.155,0.043,-0.128,0.167,0.958,0.074,0.942,0.230,0.014,0.958,0.042,-0.129,0.165,165,165,71,165,70,1.159,1.000,0.000,1.000,0.000
66952,2.997,-1.156,0.165,0.104,0.087,0.153,0.044,-0.127,0.169,0.958,0.074,0.958,0.232,0.014,0.958,0.043,-0.128,0.167,165,165,71,165,70,1.158,1.000,0.000,1.000,0.000
66963,2.917,-0.970,0.342,0.112,0.092,0.156,0.045,-0.126,0.170,0.958,0.074,0.958,0.234,0.014,0.958,0.044,-0.127,0.169,164,164,71,164,70,1.157,1.000,0.000,1.000,0.000
66974,3.010,-1.142,0.152,0.111,0.084,0.158,0.046,-0.125,0.172,0.958,0.074,0.942,0.235,0.015,0.974,0.045,-0.126,0.170,164,164,57,164,56,1.156,1.000,0.000,1.000,0.000
66985,2.931,-0.941,0.288,0.117,0.090,0.164,0.047,-0.124,0.173,0.958,0.074,0.974,0.237,0.015,0.958,0.046,-0.125,0.172,164,164,71,164,70,1.154,1.000,0.000,1.000,0.000
66996,2.971,-0.951,0.249,0.122,0.089,0.177,0.048,-0.123,0.175,0.958,0.074,0.974,0.238,0.015,0.958,0.047,-0.124,0.173,164,164,71,164,70,1.153,1.000,0.000,1.000,0.000
67007,2.902,-0.975,0.288,0.121,0.086,0.189,0.050,-0.123,0.177,0.958,0.074,0.974,0.240,0.016,0.990,0.048,-0.123,0.175,164,164,43,164,42,1.152,1.000,0.000,1.000,0.000
67018,2.829,-1.021,0.223,0.123,0.093,0.195,0.051,-0.122,0.179,0.958,0.074,0.958,0.241,0.016,0.958,0.050,-0.123,0.177,163,163,71,163,70,1.150,1.000,0.000,1.000,0.000
67029,2.764,-0.900,0.424,0.123,0.101,0.200,0.052,-0.121,0.181,0.958,0.074,0.974,0.243,0.016,0.974,0.051,-0.122,0.179,163,163,57,163,56,1.149,1.000,0.000,1.000,0.000
67040,2.742,-0.997,0.309,0.124,0.095,0.204,0.053,-0.120,0.183,0.958,0.074,0.974,0.245,0.016,0.974,0.052,-0.121,0.181,163,163,57,163,56,1.147,1.000,0.000,1.000,0.000
67051,2.664,-0.902,0.404,0.132,0.103,0.209,0.055,-0.119,0.185,0.958,0.074,0.958,0.246,0.017,0.974,0.053,-0.120,0.183,162,162,57,162,56,1.146,1.000,0.000,1.000,0.000
67062,2.662,-0.924,0.342,0.138,0.097,0.204,0.056,-0.118,0.187,0.958,0.074,0.974,0.248,0.017,1.006,0.055,-0.119,0.185,--162,162,39,162,40,1.144,1.000,0.000,1.000,0.000
67073,2.664,-0.922,0.352,0.146,0.106,0.209,0.057,-0.117,0.189,0.958,0.074,0.974,0.249,0.017,0.990,0.056,-0.118,0.187,161,161,43,161,42,1.143,1.000,0.000,1.000,0.000
67084,2.553,-0.985,0.190,0.132,0.110,0.211,0.059,-0.115,0.191,0.958,0.074,0.990,0.251,0.018,1.006,0.057,-0.117,0.189,--161,161,39,161,41,1.141,1.000,0.000,1.000,0.000
67095,2.444,-0.806,0.321,0.122,0.112,0.209,0.060,-0.114,0.193,0.958,0.074,0.974,0.253,0.018,0.990,0.059,-0.115,0.191,161,161,43,161,42,1.139,1.000,0.000,1.000,0.000
67106,2.584,-0.988,0.133,0.113,0.116,0.205,0.061,-0.113,0.195,0.958,0.074,1.039,0.254,0.018,0.990,0.060,-0.114,0.193,160,160,43,160,42,1.138,1.000,0.000,1.000,0.000
67117,2.427,-0.777,0.365,0.115,0.127,0.205,0.062,-0.112,0.197,0.958,0.074,1.006,0.256,0.019,0.958,0.061,-0.113,0.195,160,160,71,160,70,1.136,1.000,0.000,1.000,0.000
67128,2.565,-0.866,0.236,0.105,0.126,0.203,0.063,-0.111,0.199,0.958,0.074,0.990,0.257,0.019,1.006,0.062,-0.112,0.197,--159,159,39,159,41,1.135,1.000,0.000,1.000,0.000
67139,2.404,-0.752,0.342,0.105,0.131,0.206,0.064,-0.109,0.202,0.958,0.074,0.990,0.259,0.019,1.023,0.063,-0.111,0.199,--159,159,53,159,54,1.133,1.000,0.000,1.000,0.000
67150,2.462,-0.784,0.194,0.090,0.125,0.203,0.065,-0.108,0.204,0.958,0.074,0.990,0.261,0.020,0.990,0.064,-0.109,0.202,159,159,43,159,42,1.131,1.000,0.000,1.000,0.000
67161,2.469,-0.800,0.198,0.093,0.132,0.202,0.066,-0.107,0.206,0.958,0.074,0.974,0.262,0.020,0.990,0.065,-0.108,0.204,158,158,43,158,42,1.130,1.000,0.000,1.000,0.000
67172,2.541,-0.740,0.270,0.088,0.134,0.219,0.067,-0.105,0.208,0.958,0.074,0.990,0.264,0.020,1.006,0.066,-0.107,0.206,--158,158,39,158,41,1.128,1.000,0.000,1.000,0.000
67183,2.389,-0.654,0.320,0.087,0.130,0.221,0.068,-0.104,0.210,0.958,0.074,1.006,0.265,0.021,0.990,0.067,-0.105,0.208,158,158,43,158,42,1.126,1.000,0.000,1.000,0.000
67194,2.475,-0.746,0.225,0.076,0.139,0.225,0.069,-0.103,0.212,0.958,0.074,1.006,0.267,0.021,1.006,0.068,-0.104,0.210,--158,158,39,158,41,1.125,1.000,0.000,1.000,0.000
67205,2.341,-0.570,0.353,0.073,0.132,0.226,0.069,-0.101,0.215,0.958,0.074,0.990,0.269,0.021,1.006,0.069,-0.103,0.212,--158,158,39,158,41,1.123,1.000,0.000,1.000,0.000
67216,2.456,-0.723,0.198,0.068,0.134,0.227,0.070,-0.100,0.217,0.958,0.074,1.006,0.270,0.022,0.990,0.069,-0.101,0.215,157,157,43,157,41,1.121,1.000,0.000,1.000,0.000
67227,2.344,-0.643,0.287,0.067,0.139,0.228,0.071,-0.099,0.219,0.958,0.074,1.023,0.272,0.022,1.023,0.070,-0.100,0.217,--157,157,53,157,54,1.119,1.000,0.000,1.000,0.000
67238,2.398,-0.610,0.254,0.060,0.144,0.232,0.071,-0.097,0.221,0.958,0.074,1.006,0.273,0.022,0.974,0.071,-0.099,0.219,156,156,57,156,56,1.118,1.000,0.000,1.000,0.000
67249,2.377,-0.599,0.367,0.062,0.144,0.228,0.072,-0.096,0.224,0.958,0.074,0.990,0.275,0.023,1.023,0.071,-0.097,0.221,--156,156,53,156,54,1.116,1.000,0.000,1.000,0.000
67260,2.347,-0.539,0.379,0.052,0.139,0.228,0.073,-0.094,0.226,0.958,0.074,0.894,0.277,0.023,1.006,0.072,-0.096,0.224,--156,156,39,156,41,1.114,1.000,0.000,1.000,0.000
67271,2.389,-0.611,0.263,0.046,0.137,0.227,0.073,-0.093,0.228,0.958,0.074,1.006,0.278,0.023,1.006,0.073,-0.094,0.226,--155,155,39,155,41,1.112,1.000,0.000,1.000,0.000
67282,2.314,-0.470,0.353,0.034,0.138,0.230,0.073,-0.092,0.231,0.958,0.074,1.039,0.280,0.024,1.023,0.073,-0.093,0.228,--155,155,53,155,54,1.110,1.000,0.000,1.000,0.000
67293,2.344,-0.586,0.261,0.024,0.131,0.230,0.074,-0.090,0.233,0.958,0.074,1.023,0.281,0.024,1.006,0.073,-0.092,0.231,--154,154,39,154,41,1.109,1.000,0.000,1.000,0.000
67304,2.303,-0.417,0.373,0.021,0.137,0.232,0.074,-0.089,0.235,0.958,0.074,1.006,0.283,0.024,1.023,0.074,-0.090,0.233,--154,154,53,154,54,1.107,1.000,0.000,1.000,0.000
67315,2.338,-0.494,0.302,0.014,0.125,0.230,0.074,-0.088,0.237,2.941,0.135,1.023,0.285,0.025,1.039,0.074,-0.089,0.235,--153,153,67,153,68,1.105,1.000,0.000,1.000,0.000
67326,2.381,-0.412,0.382,0.018,0.131,0.230,0.074,-0.086,0.240,2.941,0.135,1.023,0.288,0.026,1.023,0.074,-0.088,0.237,--153,153,53,153,54,1.103,1.000,0.000,1.000,0.000
67337,2.345,-0.410,0.306,0.012,0.119,0.231,0.074,-0.085,0.242,2.941,0.135,1.039,0.289,0.026,1.039,0.074,-0.086,0.240,--152,152,67,152,68,1.101,1.000,0.000,1.000,0.000
67348,2.308,-0.323,0.322,-0.003,0.123,0.238,0.074,-0.084,0.244,2.941,0.135,1.023,0.292,0.027,1.023,0.074,-0.085,0.242,--152,152,53,152,54,1.099,1.000,0.000,1.000,0.000
67359,2.341,-0.375,0.251,-0.005,0.130,0.238,0.074,-0.083,0.247,2.941,0.135,1.039,0.295,0.027,1.039,0.074,-0.084,0.244,--151,151,67,151,68,1.097,1.000,0.000,1.000,0.000
67370,2.314,-0.235,0.385,-0.011,0.121,0.236,0.074,-0.082,0.249,2.941,0.135,1.039,0.298,0.028,1.023,0.074,-0.083,0.247,--151,151,53,151,54,1.094,1.000,0.000,1.000,0.000
67381,2.396,-0.425,0.145,-0.016,0.119,0.239,0.074,-0.080,0.252,2.941,0.135,1.055,0.300,0.029,1.023,0.074,-0.082,0.249,--151,151,53,151,54,1.092,1.000,0.000,1.000,0.000
67392,2.262,-0.210,0.404,-0.022,0.125,0.242,0.074,-0.079,0.254,2.941,0.135,1.039,0.303,0.030,1.006,0.074,-0.080,0.252,--150,150,39,150,41,1.090,1.000,0.000,1.000,0.000
67403,2.329,-0.379,0.157,-0.036,0.115,0.242,0.073,-0.078,0.256,2.941,0.135,1.039,0.306,0.030,1.023,0.074,-0.079,0.254,--149,149,53,149,54,1.087,1.000,0.000,1.000,0.000
67414,2.229,-0.196,0.384,-0.032,0.125,0.241,0.073,-0.077,0.259,2.941,0.135,1.055,0.309,0.031,1.039,0.073,-0.078,0.256,--149,149,67,149,68,1.085,1.000,0.000,1.000,0.000
67425,2.350,-0.299,0.318,-0.038,0.106,0.232,0.073,-0.076,0.261,2.941,0.135,1.055,0.312,0.032,1.039,0.073,-0.077,0.259,--148,148,67,148,68,1.083,1.000,0.000,1.000,0.000
67436,2.292,-0.212,0.353,-0.032,0.099,0.230,0.072,-0.075,0.263,2.941,0.135,1.055,0.315,0.033,1.023,0.073,-0.076,0.261,--147,147,53,147,54,1.080,1.000,0.000,1.000,0.000
67447,2.329,-0.314,0.145,-0.034,0.104,0.230,0.072,-0.074,0.266,2.941,0.135,1.023,0.317,0.033,1.023,0.072,-0.075,0.263,--147,147,53,147,54,1.078,1.000,0.000,1.000,0.000
67458,2.235,-0.094,0.364,-0.042,0.101,0.228,0.072,-0.073,0.268,2.941,0.135,1.039,0.320,0.034,1.039,0.072,-0.074,0.266,--146,146,67,146,68,1.076,1.000,0.000,1.000,0.000
67469,2.376,-0.300,0.116,-0.049,0.097,0.231,0.071,-0.072,0.270,2.941,0.135,1.055,0.324,0.035,1.023,0.072,-0.073,0.268,--145,145,53,145,54,1.074,1.000,0.000,1.000,0.000
67480,2.248,-0.076,0.320,-0.049,0.105,0.232,0.071,-0.071,0.273,2.941,0.135,1.055,0.326,0.036,1.071,0.071,-0.072,0.270,--145,145,95,145,96,1.071,1.000,0.000,1.000,0.000
67491,2.390,-0.191,0.245,-0.058,0.094,0.230,0.070,-0.070,0.275,2.941,0.135,1.055,0.329,0.036,1.055,0.071,-0.071,0.273,--145,145,81,145,82,1.069,1.000,0.000,1.000,0.000
67502,2.320,-0.124,0.230,-0.054,0.098,0.236,0.069,-0.069,0.277,2.941,0.135,1.055,0.332,0.037,1.039,0.070,-0.070,0.275,--144,144,67,144,68,1.067,1.000,0.000,1.000,0.000
67513,2.337,-0.092,0.318,-0.059,0.090,0.231,0.069,-0.068,0.280,2.941,0.135,1.055,0.335,0.038,1.039,0.069,-0.069,0.277,--143,143,67,143,68,1.064,1.000,0.000,1.000,0.000
67524,2.335,-0.177,0.272,-0.059,0.088,0.232,0.068,-0.067,0.282,2.941,0.135,1.071,0.338,0.039,1.055,0.069,-0.068,0.280,--143,143,81,143,82,1.062,1.000,0.000,1.000,0.000
67535,2.420,-0.167,0.200,-0.064,0.083,0.231,0.068,-0.066,0.284,2.941,0.135,1.071,0.341,0.040,1.071,0.068,-0.067,0.282,--142,142,95,142,96,1.059,1.000,0.000,1.000,0.000
67546,2.333,-0.033,0.270,-0.064,0.084,0.232,0.067,-0.065,0.287,2.941,0.135,1.055,0.343,0.041,1.055,0.068,-0.066,0.284,--141,141,81,141,82,1.057,1.000,0.000,1.000,0.000
67557,2.369,-0.081,0.221,-0.071,0.077,0.231,0.066,-0.064,0.289,2.941,0.135,1.071,0.346,0.041,1.055,0.067,-0.065,0.287,--141,141,81,141,82,1.054,1.000,0.000,1.000,0.000
67568,2.371,-0.052,0.195,-0.070,0.077,0.232,0.066,-0.064,0.291,2.941,0.135,1.087,0.349,0.042,1.055,0.066,-0.064,0.289,--140,140,81,140,82,1.052,1.000,0.000,1.000,0.000
67579,2.418,-0.059,0.188,-0.072,0.076,0.231,0.065,-0.063,0.293,2.941,0.135,1.071,0.352,0.043,1.055,0.066,-0.064,0.291,--139,139,81,139,82,1.050,1.000,0.000,1.000,0.000
67590,2.388,-0.003,0.265,-0.069,0.077,0.236,0.064,-0.062,0.296,4.084,0.170,1.055,0.355,0.044,1.087,0.065,-0.063,0.293,--138,138,109,138,110,1.047,1.000,0.000,1.000,0.000
67601,2.353,-0.001,0.288,-0.074,0.071,0.239,0.063,-0.061,0.298,4.084,0.170,1.071,0.359,0.045,1.055,0.064,-0.062,0.296,--138,138,81,138,82,1.044,1.000,0.000,1.000,0.000
67612,2.368,-0.016,0.207,-0.076,0.072,0.239,0.063,-0.061,0.301,4.084,0.170,1.071,0.362,0.046,1.071,0.063,-0.061,0.298,--138,138,95,138,96,1.042,1.000,0.000,1.000,0.000
67623,2.441,-0.031,0.177,-0.072,0.066,0.236,0.062,-0.060,0.303,4.084,0.170,1.039,0.366,0.047,1.071,0.063,-0.061,0.301,--137,137,95,137,96,1.039,1.000,0.000,1.000,0.000
67634,2.383,0.028,0.263,-0.066,0.071,0.236,0.061,-0.059,0.305,4.084,0.170,1.055,0.369,0.049,1.071,0.062,-0.060,0.303,--136,136,95,136,96,1.036,1.000,0.000,1.000,0.000
67645,2.395,0.038,0.249,-0.070,0.065,0.235,0.061,-0.059,0.308,4.084,0.170,1.071,0.373,0.050,1.087,0.061,-0.059,0.305,--135,135,109,135,110,1.033,1.000,0.000,1.000,0.000
67656,2.371,0.024,0.241,-0.070,0.060,0.235,0.060,-0.058,0.310,4.084,0.170,1.071,0.376,0.051,1.071,0.061,-0.059,0.308,--134,134,95,134,96,1.030,1.000,0.000,1.000,0.000
67667,2.339,0.094,0.342,-0.077,0.059,0.231,0.059,-0.057,0.312,4.084,0.170,1.071,0.380,0.052,1.087,0.060,-0.058,0.310,--133,133,109,133,110,1.027,1.000,0.000,1.000,0.000
67678,2.400,-0.019,0.214,-0.080,0.051,0.224,0.058,-0.057,0.315,4.084,0.170,1.087,0.384,0.053,1.071,0.059,-0.057,0.312,--132,132,95,132,96,1.024,1.000,0.000,1.000,0.000
67689,2.375,0.078,0.242,-0.078,0.053,0.221,0.058,-0.056,0.317,4.084,0.170,1.087,0.387,0.054,1.087,0.058,-0.057,0.315,--132,132,109,132,110,1.021,1.000,0.000,1.000,0.000
67700,2.370,0.108,0.302,-0.085,0.046,0.221,0.057,-0.056,0.319,4.084,0.170,1.103,0.391,0.055,1.087,0.058,-0.056,0.317,--132,132,109,132,110,1.018,1.000,0.000,1.000,0.000
67711,2.402,0.119,0.282,-0.083,0.040,0.211,0.056,-0.056,0.321,4.084,0.170,1.103,0.395,0.057,1.071,0.057,-0.056,0.319,--131,131,95,131,96,1.015,1.000,0.000,1.000,0.000
67722,2.429,0.073,0.208,-0.082,0.034,0.205,0.055,-0.055,0.323,4.084,0.170,1.055,0.398,0.058,1.103,0.056,-0.056,0.321,--130,130,123,130,124,1.012,1.000,0.000,1.000,0.000
67733,2.398,0.130,0.310,-0.083,0.037,0.205,0.054,-0.055,0.325,4.084,0.170,1.071,0.401,0.059,1.103,0.055,-0.055,0.323,--129,129,123,129,124,1.009,1.000,0.000,1.000,0.000
67744,2.469,0.101,0.257,-0.094,0.026,0.205,0.053,-0.055,0.327,4.084,0.170,1.087,0.405,0.060,1.087,0.054,-0.055,0.325,--128,128,109,128,110,1.006,1.000,0.000,1.000,0.000
67755,2.481,0.117,0.244,-0.088,0.027,0.204,0.052,-0.054,0.329,4.084,0.170,1.103,0.408,0.061,1.087,0.053,-0.055,0.327,--128,128,109,128,110,1.004,1.000,0.000,1.000,0.000
67766,2.478,0.199,0.376,-0.089,0.026,0.199,0.052,-0.054,0.331,4.084,0.170,1.071,0.412,0.063,1.071,0.052,-0.054,0.329,--127,127,95,127,96,1.001,1.000,0.000,1.000,0.000
67777,2.523,0.119,0.253,-0.091,0.015,0.203,0.051,-0.054,0.333,4.084,0.170,1.103,0.416,0.064,1.087,0.052,-0.054,0.331,--126,126,109,126,110,0.998,1.000,0.000,1.000,0.000
67788,2.473,0.200,0.255,-0.092,0.016,0.202,0.050,-0.054,0.335,4.084,0.170,1.103,0.419,0.065,1.087,0.051,-0.054,0.333,--125,125,109,125,110,0.995,1.000,0.000,1.000,0.000
67799,2.485,0.152,0.288,-0.093,0.012,0.199,0.049,-0.054,0.337,4.084,0.170,1.103,0.423,0.066,1.103,0.050,-0.054,0.335,--125,125,123,125,124,0.992,1.000,0.000,1.000,0.000
67810,2.488,0.243,0.376,-0.098,0.006,0.197,0.048,-0.054,0.339,4.084,0.170,1.119,0.426,0.068,1.103,0.049,-0.054,0.337,--124,124,123,124,124,0.988,1.000,0.000,1.000,0.000
67821,2.601,0.127,0.242,-0.093,-0.004,0.193,0.047,-0.054,0.341,4.084,0.170,1.087,0.430,0.069,1.055,0.048,-0.054,0.339,--124,124,81,124,82,0.986,1.000,0.000,1.000,0.000
67832,2.460,0.222,0.345,-0.087,0.001,0.192,0.046,-0.054,0.343,4.084,0.170,1.103,0.433,0.070,1.103,0.047,-0.054,0.341,--123,123,123,123,124,0.982,1.000,0.000,1.000,0.000
67843,2.494,0.188,0.310,-0.096,-0.011,0.187,0.045,-0.054,0.345,4.084,0.170,1.087,0.437,0.071,1.103,0.046,-0.054,0.343,--122,122,123,122,124,0.979,1.000,0.000,1.000,0.000
67854,2.502,0.118,0.212,-0.094,-0.009,0.183,0.044,-0.054,0.347,4.084,0.170,1.087,0.440,0.072,1.071,0.045,-0.054,0.345,--121,121,95,121,96,0.976,1.000,0.000,1.000,0.000
67865,2.460,0.229,0.365,-0.098,-0.004,0.177,0.043,-0.054,0.349,4.084,0.170,1.103,0.444,0.074,1.103,0.044,-0.054,0.347,--120,120,123,120,124,0.973,1.000,0.000,1.000,0.000
67876,2.548,0.186,0.299,-0.103,-0.017,0.172,0.042,-0.054,0.350,4.084,0.170,1.103,0.448,0.075,1.103,0.043,-0.054,0.349,--119,119,123,119,124,0.970,1.000,0.000,1.000,0.000
67887,2.500,0.237,0.382,-0.103,-0.017,0.169,0.041,-0.054,0.352,3.476,0.151,1.103,0.449,0.076,1.087,0.042,-0.054,0.350,--119,119,109,119,110,0.968,1.000,0.000,1.000,0.000
67898,2.561,0.270,0.308,-0.107,-0.029,0.166,0.040,-0.054,0.354,3.476,0.151,1.103,0.451,0.077,1.103,0.041,-0.054,0.352,--119,119,123,119,124,0.966,1.000,0.000,1.000,0.000
67909,2.577,0.188,0.363,-0.099,-0.032,0.162,0.039,-0.055,0.355,3.476,0.151,1.119,0.455,0.078,1.103,0.040,-0.054,0.354,--118,118,123,118,124,0.963,1.000,0.000,1.000,0.000
67920,2.612,0.246,0.388,-0.099,-0.031,0.160,0.038,-0.055,0.357,3.476,0.151,1.087,0.458,0.079,1.119,0.039,-0.055,0.355,--118,118,137,118,138,0.960,1.000,0.000,1.000,0.000
67931,2.594,0.289,0.351,-0.098,-0.042,0.165,0.037,-0.055,0.359,3.476,0.151,1.103,0.461,0.080,1.119,0.038,-0.055,0.357,--117,117,137,117,138,0.957,1.000,0.000,1.000,0.000
67942,2.615,0.140,0.292,-0.102,-0.043,0.164,0.036,-0.056,0.360,3.476,0.151,1.071,0.464,0.081,1.087,0.037,-0.055,0.359,--116,116,109,116,110,0.954,1.000,0.000,1.000,0.000
67953,2.596,0.258,0.384,-0.102,-0.039,0.162,0.035,-0.056,0.362,3.476,0.151,1.103,0.467,0.082,1.103,0.036,-0.056,0.360,--115,115,123,115,124,0.951,1.000,0.000,1.000,0.000
67964,2.600,0.249,0.340,-0.104,-0.048,0.164,0.034,-0.057,0.363,3.476,0.151,1.103,0.470,0.084,1.087,0.035,-0.056,0.362,--115,115,109,115,110,0.948,1.000,0.000,1.000,0.000
67975,2.616,0.252,0.402,-0.105,-0.051,0.159,0.033,-0.057,0.365,3.476,0.151,1.152,0.474,0.085,1.103,0.034,-0.057,0.363,--114,114,123,114,124,0.945,1.000,0.000,1.000,0.000
67986,2.670,0.227,0.370,-0.107,-0.054,0.155,0.032,-0.058,0.367,3.476,0.151,1.103,0.476,0.086,1.103,0.033,-0.057,0.365,--113,113,123,113,124,0.942,1.000,0.000,1.000,0.000
67997,2.639,0.176,0.326,-0.109,-0.057,0.156,0.031,-0.058,0.368,3.476,0.151,1.119,0.480,0.087,1.103,0.032,-0.058,0.367,--112,112,123,112,124,0.939,1.000,0.000,1.000,0.000
68008,2.613,0.230,0.404,-0.105,-0.061,0.151,0.030,-0.059,0.370,3.476,0.151,1.119,0.483,0.088,1.119,0.031,-0.058,0.368,--112,112,138,112,138,0.936,1.000,0.000,1.000,0.000
68019,2.666,0.206,0.376,-0.110,-0.059,0.148,0.029,-0.060,0.371,3.476,0.151,1.103,0.486,0.089,1.119,0.030,-0.059,0.370,--112,112,138,112,138,0.933,1.000,0.000,1.000,0.000
68030,2.669,0.204,0.326,-0.108,-0.065,0.144,0.028,-0.060,0.373,3.476,0.151,1.119,0.489,0.091,1.103,0.029,-0.060,0.371,--111,111,123,111,124,0.930,1.000,0.000,1.000,0.000
68041,2.679,0.194,0.391,-0.103,-0.070,0.139,0.027,-0.061,0.374,3.476,0.151,1.119,0.492,0.092,1.103,0.028,-0.060,0.373,--110,110,123,110,124,0.927,1.000,0.000,1.000,0.000
68052,2.715,0.185,0.390,-0.105,-0.067,0.138,0.025,-0.062,0.375,3.476,0.151,1.119,0.495,0.093,1.119,0.027,-0.061,0.374,--110,110,138,110,138,0.924,1.000,0.000,1.000,0.000
68063,2.718,0.212,0.430,-0.108,-0.079,0.132,0.024,-0.062,0.377,3.476,0.151,1.135,0.498,0.094,1.103,0.025,-0.062,0.375,--109,109,123,109,124,0.921,1.000,0.000,1.000,0.000
68074,2.715,0.175,0.339,-0.108,-0.082,0.134,0.023,-0.063,0.378,3.476,0.151,1.119,0.502,0.096,1.119,0.024,-0.062,0.377,--108,108,138,108,138,0.918,1.000,0.000,1.000,0.000
68085,2.721,0.187,0.388,-0.111,-0.086,0.130,0.022,-0.064,0.379,3.476,0.151,1.119,0.504,0.097,1.135,0.023,-0.063,0.378,--107,107,151,107,151,0.915,1.000,0.000,1.000,0.000
68096,2.749,0.204,0.422,-0.109,-0.087,0.127,0.021,-0.065,0.381,3.476,0.151,1.103,0.508,0.098,1.135,0.022,-0.064,0.379,--107,107,151,107,151,0.912,1.000,0.000,1.000,0.000
68107,2.773,0.089,0.320,-0.107,-0.089,0.130,0.020,-0.066,0.382,3.476,0.151,1.135,0.511,0.099,1.119,0.021,-0.065,0.381,--106,106,138,106,138,0.909,1.000,0.000,1.000,0.000
68118,2.719,0.182,0.436,-0.114,-0.088,0.128,0.019,-0.067,0.383,3.476,0.151,1.119,0.514,0.101,1.119,0.020,-0.066,0.382,--106,106,138,106,138,0.906,1.000,0.000,1.000,0.000
68129,2.748,0.181,0.367,-0.115,-0.094,0.130,0.018,-0.068,0.385,3.476,0.151,1.135,0.517,0.102,1.152,0.019,-0.067,0.383,--106,106,165,106,165,0.903,1.000,0.000,1.000,0.000
68140,2.743,0.157,0.403,-0.119,-0.093,0.127,0.017,-0.069,0.386,3.476,0.151,1.135,0.520,0.103,1.135,0.018,-0.068,0.385,--105,105,151,105,151,0.899,1.000,0.000,1.000,0.000
68151,2.786,0.083,0.326,-0.115,-0.093,0.120,0.015,-0.069,0.387,3.476,0.151,1.135,0.523,0.104,1.103,0.017,-0.069,0.386,--104,104,124,104,124,0.896,1.000,0.000,1.000,0.000
68162,2.786,0.180,0.426,-0.119,-0.092,0.116,0.014,-0.070,0.388,3.476,0.151,1.135,0.526,0.106,1.103,0.015,-0.069,0.387,--103,103,124,103,124,0.893,1.000,0.000,1.000,0.000
68173,2.819,0.097,0.391,-0.115,-0.099,0.116,0.013,-0.071,0.389,3.476,0.151,1.152,0.529,0.107,1.135,0.014,-0.070,0.388,--103,103,151,103,151,0.890,1.000,0.000,1.000,0.000
68184,2.780,0.123,0.485,-0.120,-0.097,0.117,0.012,-0.072,0.390,3.447,0.151,1.135,0.532,0.108,1.119,0.013,-0.071,0.389,--102,102,138,102,138,0.887,1.000,0.000,1.000,0.000
68195,2.820,0.166,0.387,-0.126,-0.104,0.121,0.011,-0.073,0.392,3.447,0.151,1.135,0.535,0.109,1.119,0.012,-0.072,0.390,--101,101,138,101,138,0.883,1.000,0.000,1.000,0.000
68206,2.858,0.060,0.358,-0.121,-0.101,0.123,0.009,-0.074,0.393,3.447,0.151,1.135,0.539,0.111,1.119,0.011,-0.073,0.392,--100,100,138,100,138,0.880,1.000,0.000,1.000,0.000
68217,2.755,0.161,0.443,-0.122,-0.101,0.123,0.008,-0.075,0.394,3.447,0.151,1.152,0.541,0.112,1.135,0.009,-0.074,0.393,--100,100,151,100,151,0.877,1.000,0.000,1.000,0.000
68228,2.894,-0.003,0.257,-0.120,-0.101,0.122,0.007,-0.076,0.395,3.447,0.151,1.152,0.545,0.113,1.152,0.008,-0.075,0.394,--99,99,165,99,165,0.873,1.000,0.000,1.000,0.000
68239,2.875,0.032,0.335,-0.118,-0.105,0.115,0.006,-0.077,0.397,3.447,0.151,1.119,0.548,0.115,1.119,0.007,-0.076,0.395,--99,99,138,99,138,0.869,1.000,0.000,1.000,0.000
68250,2.768,0.096,0.505,-0.115,-0.090,0.116,0.005,-0.078,0.398,3.447,0.151,1.135,0.551,0.116,1.119,0.006,-0.077,0.397,--98,98,138,98,138,0.866,1.000,0.000,1.000,0.000
68261,2.858,0.054,0.354,-0.124,-0.103,0.106,0.003,-0.079,0.399,3.447,0.151,1.152,0.554,0.117,1.135,0.005,-0.078,0.398,--98,98,151,98,151,0.863,1.000,0.000,1.000,0.000
68272,2.862,0.008,0.381,-0.121,-0.089,0.108,0.002,-0.080,0.400,3.447,0.151,1.119,0.557,0.118,1.152,0.003,-0.079,0.399,--97,97,165,97,165,0.859,1.000,0.000,1.000,0.000
68283,2.831,0.118,0.527,-0.126,-0.094,0.100,0.001,-0.081,0.401,3.447,0.151,1.119,0.560,0.120,1.168,0.002,-0.080,0.400,--96,96,179,96,179,0.856,1.000,0.000,1.000,0.000
68294,2.960,0.002,0.402,-0.125,-0.095,0.097,-0.000,-0.082,0.402,3.447,0.151,1.168,0.563,0.121,1.087,0.001,-0.081,0.401,--96,96,110,96,110,0.852,1.000,0.000,1.000,0.000
68305,2.916,0.139,0.603,-0.124,-0.097,0.090,-0.002,-0.083,0.403,3.447,0.151,1.152,0.566,0.122,1.152,-0.000,-0.082,0.402,--95,95,165,95,165,0.849,1.000,0.000,1.000,0.000
68316,3.034,0.041,0.395,-0.125,-0.106,0.090,-0.003,-0.084,0.404,3.447,0.151,1.135,0.569,0.123,1.152,-0.002,-0.083,0.403,--94,94,165,94,165,0.845,1.000,0.000,1.000,0.000
68327,3.047,-0.028,0.383,-0.121,-0.111,0.089,-0.004,-0.085,0.404,3.447,0.151,1.135,0.572,0.125,1.152,-0.003,-0.084,0.404,--93,93,165,93,165,0.842,1.000,0.000,1.000,0.000
68338,2.913,0.038,0.489,-0.118,-0.103,0.098,-0.005,-0.086,0.405,3.447,0.151,1.152,0.575,0.126,1.135,-0.004,-0.085,0.404,--93,93,151,93,151,0.838,1.000,0.000,1.000,0.000
68349,2.960,0.054,0.458,-0.127,-0.111,0.093,-0.006,-0.087,0.406,3.447,0.151,1.135,0.578,0.127,1.119,-0.005,-0.086,0.405,--93,93,138,93,138,0.835,1.000,0.000,1.000,0.000
68360,2.984,-0.029,0.424,-0.121,-0.101,0.094,-0.008,-0.088,0.407,3.447,0.151,1.152,0.581,0.129,1.152,-0.006,-0.087,0.406,--92,92,165,92,165,0.831,1.000,0.000,1.000,0.000
68371,2.937,0.099,0.565,-0.122,-0.105,0.090,-0.009,-0.090,0.408,3.447,0.151,1.168,0.585,0.130,1.135,-0.008,-0.088,0.407,--91,91,151,91,151,0.827,1.000,0.000,1.000,0.000
68382,3.059,-0.062,0.370,-0.120,-0.108,0.090,-0.010,-0.091,0.409,3.447,0.151,1.152,0.587,0.131,1.152,-0.009,-0.090,0.408,--91,91,165,91,165,0.824,1.000,0.000,1.000,0.000
68393,2.935,0.068,0.562,-0.113,-0.103,0.086,-0.011,-0.092,0.410,3.447,0.151,1.135,0.590,0.133,1.135,-0.010,-0.091,0.409,--90,90,151,90,151,0.820,1.000,0.000,1.000,0.000
68404,3.093,-0.087,0.396,-0.113,-0.105,0.081,-0.012,-0.093,0.411,3.447,0.151,1.152,0.594,0.134,1.152,-0.011,-0.092,0.410,--89,89,165,89,165,0.816,1.000,0.000,1.000,0.000
68415,3.103,-0.059,0.473,-0.111,-0.104,0.079,-0.013,-0.094,0.412,3.447,0.151,1.152,0.596,0.135,1.135,-0.012,-0.093,0.411,--89,89,151,89,151,0.812,1.000,0.000,1.000,0.000
68426,3.014,-0.021,0.567,-0.110,-0.094,0.082,-0.015,-0.095,0.412,3.447,0.151,1.152,0.600,0.137,1.152,-0.013,-0.094,0.412,--88,88,165,88,165,0.808,1.000,0.000,1.000,0.000
68437,3.103,-0.001,0.470,-0.115,-0.103,0.076,-0.016,-0.096,0.413,3.447,0.151,1.152,0.601,0.137,1.135,-0.015,-0.095,0.412,--88,88,151,88,151,0.806,1.000,0.000,1.000,0.000
68448,3.094,-0.075,0.438,-0.109,-0.095,0.082,-0.017,-0.097,0.414,3.447,0.151,1.152,0.604,0.138,1.135,-0.016,-0.096,0.413,--87,87,151,87,151,0.803,1.000,0.000,1.000,0.000
68459,3.046,-0.047,0.504,-0.111,-0.100,0.079,-0.018,-0.098,0.415,3.447,0.151,1.168,0.607,0.140,1.152,-0.017,-0.097,0.414,--86,86,165,86,165,0.799,1.000,0.000,1.000,0.000
68470,3.120,-0.108,0.424,-0.104,-0.089,0.083,-0.019,-0.099,0.416,3.447,0.151,1.135,0.610,0.141,1.152,-0.018,-0.098,0.415,--86,86,165,86,165,0.794,1.000,0.000,1.000,0.000
68481,3.032,0.058,0.598,-0.105,-0.090,0.082,-0.020,-0.099,0.416,3.447,0.151,1.152,0.613,0.142,1.135,-0.019,-0.099,0.416,--86,86,151,86,151,0.791,1.000,0.000,1.000,0.000
68492,3.149,-0.114,0.438,-0.100,-0.093,0.081,-0.021,-0.100,0.417,3.447,0.151,1.184,0.616,0.144,1.152,-0.020,-0.099,0.416,--85,85,165,85,165,0.787,1.000,0.000,1.000,0.000
68503,3.151,-0.147,0.383,-0.094,-0.088,0.081,-0.022,-0.101,0.418,3.165,0.142,1.135,0.619,0.145,1.152,-0.021,-0.100,0.417,--84,84,165,84,165,0.782,1.000,0.000,1.000,0.000
68514,3.051,-0.020,0.579,-0.094,-0.079,0.067,-0.023,-0.102,0.419,3.165,0.142,1.152,0.622,0.146,1.152,-0.022,-0.101,0.418,--84,84,165,84,165,0.779,1.000,0.000,1.000,0.000
68525,3.213,-0.120,0.460,-0.096,-0.086,0.060,-0.024,-0.103,0.419,3.165,0.142,1.135,0.625,0.148,1.168,-0.023,-0.102,0.419,--83,83,179,83,179,0.775,1.000,0.000,1.000,0.000
68536,3.084,-0.116,0.628,-0.091,-0.070,0.060,-0.025,-0.104,0.420,3.165,0.142,1.152,0.628,0.149,1.152,-0.024,-0.103,0.419,--82,82,165,82,165,0.771,1.000,0.000,1.000,0.000
