Time, Accel X [mg],Accel Y [mg],Accel Z [mg],dRoll [deg/s],dPitch [deg/s],dHeading [deg/s],Roll [deg],Pitch [deg],Yaw [deg],Frequency Reader Frequency [Hz], Calibrated Velocity [m/s],Pressure Sensor Depth [m],State Estimator X [m],State Estimator Y [m],State Estimator Z [m],State Estimator Roll [rad],State Estimator Pitch [rad],State Estimator Yaw [rad],Motor A, Motor B, Motor C, Motor D, Motor E,Servo Angle [rad],Waypoint X [m], Waypoint Y [m], Waypoint Z [m], Waiting [bool]
184564,-0.714,0.811,-9.793,-0.004,-0.002,0.006,0.000,0.000,0.000,0.003,0.044,0.313,0.001,0.000,0.297,0.000,0.000,0.000,0,0,242,0,242,0.725,0.000,0.000,1.000,0.000
184575,-0.708,0.825,-9.757,-0.003,-0.004,0.007,0.000,0.000,0.000,0.003,0.044,0.345,0.002,0.000,0.329,0.000,0.000,0.000,0,0,242,0,242,0.725,0.000,0.000,1.000,0.000
184586,-0.715,0.849,-9.456,0.001,-0.012,0.007,0.000,-0.000,0.000,0.003,0.044,0.313,0.003,0.000,0.313,0.000,0.000,0.000,0,0,242,0,242,0.725,0.000,0.000,1.000,0.000
184597,-0.613,0.861,-9.311,0.006,-0.020,0.020,0.000,-0.000,0.000,0.003,0.044,0.297,0.004,0.000,0.345,0.000,-0.000,0.000,0,0,242,0,242,0.725,0.000,0.000,1.000,0.000
184608,-0.770,0.932,-9.660,0.002,-0.026,0.031,0.000,-0.001,0.001,0.003,0.044,0.329,0.005,0.000,0.329,0.000,-0.000,0.000,0,0,242,0,242,0.725,0.000,0.000,1.000,0.000
184619,-0.511,0.785,-9.150,-0.008,-0.028,0.038,0.000,-0.001,0.001,0.003,0.044,0.345,0.006,0.000,0.313,0.000,-0.001,0.001,0,0,242,0,242,0.725,0.000,0.000,1.000,0.000
184630,-0.798,0.839,-9.335,-0.001,-0.024,0.048,0.000,-0.001,0.001,0.003,0.044,0.329,0.007,0.000,0.329,0.000,-0.001,0.001,0,0,242,0,242,1.892,0.000,0.000,1.000,0.000
184641,-0.595,1.060,-9.536,-0.020,-0.022,0.065,-0.000,-0.001,0.002,0.003,0.044,0.329,0.007,0.000,0.313,0.000,-0.001,0.001,0,0,242,0,242,1.892,0.000,0.000,1.000,0.000
184652,-0.595,0.738,-9.288,-0.025,-0.024,0.078,-0.000,-0.002,0.003,0.003,0.044,0.313,0.008,0.000,0.329,-0.000,-0.001,0.002,0,0,242,0,242,1.892,0.000,0.000,1.000,0.000
184663,-0.849,0.668,-9.365,-0.026,-0.020,0.088,-0.001,-0.002,0.004,0.003,0.044,0.313,0.009,0.000,0.313,-0.000,-0.002,0.003,0,0,242,0,242,1.892,0.000,0.000,1.000,0.000
184674,-0.743,0.804,-9.396,-0.019,-0.026,0.082,-0.001,-0.002,0.004,0.003,0.044,0.329,0.010,0.000,0.329,-0.001,-0.002,0.004,0,0,242,0,242,1.892,0.000,0.000,1.000,0.000
184685,-0.884,0.662,-9.436,-0.015,-0.057,0.064,-0.001,-0.003,0.005,0.003,0.044,0.329,0.011,0.000,0.313,-0.001,-0.002,0.004,0,0,242,0,242,1.892,0.000,0.000,1.000,0.000
184696,-0.878,0.492,-9.359,-0.001,-0.076,0.050,-0.001,-0.003,0.006,0.003,0.044,0.313,0.012,0.000,0.313,-0.001,-0.003,0.005,0,0,242,0,242,1.892,0.000,0.000,1.000,0.000
184707,-0.787,0.636,-9.555,0.017,-0.083,0.038,-0.001,-0.004,0.006,0.003,0.044,0.297,0.013,0.000,0.329,-0.001,-0.003,0.006,0,0,242,0,242,1.892,0.000,0.000,1.000,0.000
184718,-0.848,0.653,-9.427,0.022,-0.098,0.033,-0.001,-0.005,0.006,0.003,0.044,0.313,0.014,0.000,0.313,-0.001,-0.004,0.006,0,0,242,0,242,1.892,0.000,0.000,1.000,0.000
184729,-0.870,0.513,-9.345,0.030,-0.108,0.024,-0.000,-0.006,0.007,0.003,0.044,0.329,0.015,0.000,0.313,-0.001,-0.005,0.006,0,0,242,0,242,1.892,0.000,0.000,1.000,0.000
184740,-0.755,0.900,-9.584,0.025,-0.111,0.023,-0.000,-0.007,0.007,0.003,0.044,0.313,0.016,0.000,0.329,-0.000,-0.006,0.007,0,0,242,0,242,1.892,0.000,0.000,1.000,0.000
184751,-0.778,0.553,-9.342,0.014,-0.119,0.027,0.000,-0.009,0.007,0.003,0.044,0.329,0.017,0.000,0.313,-0.000,-0.007,0.007,0,0,242,0,242,1.892,0.000,0.000,1.000,0.000
184762,-0.915,0.790,-9.542,0.013,-0.115,0.028,0.000,-0.010,0.007,0.003,0.044,0.329,0.018,0.000,0.313,0.000,-0.009,0.007,0,0,242,0,242,1.892,0.000,0.000,1.000,0.000
184773,-0.821,0.764,-9.404,-0.014,-0.110,0.046,0.000,-0.011,0.008,0.003,0.044,0.345,0.019,0.000,0.329,0.000,-0.010,0.007,0,0,242,0,242,1.892,0.000,0.000,1.000,0.000
184784,-0.964,1.009,-9.734,-0.015,-0.108,0.054,-0.000,-0.012,0.008,0.003,0.044,0.329,0.020,0.000,0.329,0.000,-0.011,0.008,0,0,242,0,242,1.892,0.000,0.000,1.000,0.000
184795,-0.855,1.068,-9.507,-0.008,-0.106,0.054,-0.000,-0.013,0.009,0.003,0.044,0.313,0.021,0.000,0.329,-0.000,-0.012,0.008,0,0,242,0,242,1.892,0.000,0.000,1.000,0.000
184806,-0.803,1.249,-9.288,0.013,-0.100,0.057,0.000,-0.014,0.009,0.003,0.044,0.345,0.021,0.000,0.329,-0.000,-0.013,0.009,0,0,242,0,242,1.892,0.000,0.000,1.000,0.000
184817,-0.827,1.044,-9.581,0.046,-0.112,0.059,0.000,-0.015,0.010,0.003,0.044,0.361,0.022,0.000,0.345,0.000,-0.014,0.009,0,0,242,0,242,1.892,0.000,0.000,1.000,0.000
184828,-0.875,0.841,-9.584,0.061,-0.117,0.057,0.001,-0.016,0.011,0.003,0.044,0.345,0.023,0.000,0.329,0.000,-0.015,0.010,0,0,242,0,242,1.892,0.000,0.000,1.000,0.000
184839,-0.811,1.153,-9.720,0.079,-0.127,0.056,0.002,-0.017,0.011,0.003,0.044,0.329,0.024,0.000,0.345,0.001,-0.016,0.011,0,0,242,0,242,1.892,0.000,0.000,1.000,0.000
184850,-0.687,0.857,-9.288,0.102,-0.151,0.053,0.003,-0.019,0.012,0.003,0.044,0.345,0.025,0.000,0.329,0.002,-0.017,0.011,0,0,242,0,242,1.892,0.000,0.000,1.000,0.000
184861,-0.814,1.059,-9.599,0.135,-0.164,0.050,0.004,-0.021,0.012,0.003,0.044,0.345,0.026,0.000,0.345,0.003,-0.019,0.012,0,0,242,0,242,1.892,0.000,0.000,1.000,0.000
184872,-0.847,0.774,-9.366,0.150,-0.181,0.048,0.006,-0.022,0.013,0.003,0.044,0.329,0.027,0.000,0.345,0.004,-0.021,0.012,0,0,242,0,242,1.892,0.000,0.000,1.000,0.000
184883,-0.936,0.915,-9.373,0.162,-0.176,0.048,0.007,-0.024,0.013,0.003,0.044,0.329,0.028,0.000,0.329,0.006,-0.022,0.013,0,0,242,0,242,1.892,0.000,0.000,1.000,0.000
184894,-0.909,0.860,-9.445,0.176,-0.173,0.048,0.009,-0.026,0.014,0.003,0.044,0.345,0.029,0.000,0.345,0.007,-0.024,0.013,0,0,242,0,242,1.892,0.000,0.000,1.000,0.000
184905,-1.005,0.699,-9.394,0.179,-0.172,0.051,0.011,-0.028,0.014,0.003,0.044,0.345,0.030,0.000,0.361,0.009,-0.026,0.014,0,0,242,0,242,1.892,0.000,0.000,1.000,0.000
184916,-1.038,0.845,-9.580,0.181,-0.166,0.051,0.013,-0.029,0.015,0.003,0.044,0.313,0.031,0.000,0.329,0.011,-0.028,0.014,0,0,242,0,242,1.892,0.000,0.000,1.000,0.000
184927,-0.981,0.463,-9.323,0.176,-0.162,0.055,0.015,-0.031,0.015,0.003,0.044,0.345,0.032,0.000,0.361,0.013,-0.029,0.015,0,0,242,0,242,1.892,0.000,0.000,1.000,0.000
184938,-1.084,0.736,-9.372,0.171,-0.148,0.061,0.016,-0.032,0.016,0.003,0.044,0.345,0.033,0.000,0.394,0.015,-0.031,0.015,0,0,242,0,242,1.892,0.000,0.000,1.000,0.000
184949,-1.141,0.444,-9.387,0.167,-0.150,0.067,0.018,-0.034,0.017,0.003,0.044,0.345,0.034,0.000,0.345,0.016,-0.032,0.016,0,0,242,0,242,1.892,0.000,0.000,1.000,0.000
184960,-1.128,0.727,-9.436,0.161,-0.134,0.067,0.019,-0.035,0.017,0.003,0.044,0.345,0.035,0.000,0.329,0.018,-0.034,0.017,0,0,242,0,242,1.892,0.000,0.000,1.000,0.000
184971,-1.004,0.559,-9.473,0.162,-0.140,0.070,0.021,-0.037,0.018,0.003,0.044,0.345,0.036,0.000,0.345,0.019,-0.035,0.017,0,0,242,0,242,1.892,0.000,0.000,1.000,0.000
184982,-1.225,0.467,-9.429,0.160,-0.134,0.072,0.023,-0.038,0.019,0.003,0.044,0.345,0.037,0.000,0.345,0.021,-0.037,0.018,0,0,242,0,242,1.892,0.000,0.000,1.000,0.000
184993,-1.141,0.724,-9.582,0.156,-0.126,0.070,0.024,-0.039,0.019,0.003,0.044,0.361,0.038,0.000,0.345,0.023,-0.038,0.019,0,0,242,0,242,1.892,0.000,0.000,1.000,0.000
185004,-1.047,0.453,-9.385,0.152,-0.126,0.075,0.026,-0.041,0.020,0.003,0.044,0.361,0.039,0.000,0.361,0.024,-0.039,0.019,0,0,242,0,242,1.892,0.000,0.000,1.000,0.000
185015,-1.235,0.591,-9.509,0.150,-0.110,0.078,0.027,-0.042,0.021,0.003,0.044,0.361,0.039,0.000,0.377,0.026,-0.041,0.020,0,0,242,0,242,1.892,0.000,0.000,1.000,0.000
185026,-1.109,0.597,-9.594,0.145,-0.110,0.082,0.029,-0.043,0.022,0.003,0.044,0.345,0.040,0.000,0.361,0.027,-0.042,0.021,0,0,242,0,242,1.892,0.000,0.000,1.000,0.000
185037,-1.190,0.633,-9.506,0.139,-0.106,0.088,0.030,-0.044,0.023,0.003,0.044,0.361,0.041,0.000,0.361,0.029,-0.043,0.022,0,0,242,0,242,1.892,0.000,0.000,1.000,0.000
185048,-1.105,0.423,-9.555,0.134,-0.101,0.092,0.031,-0.045,0.023,0.003,0.044,0.361,0.042,0.000,0.345,0.030,-0.044,0.023,0,0,242,0,242,1.892,0.000,0.000,1.000,0.000
185059,-1.275,0.409,-9.420,0.127,-0.092,0.097,0.033,-0.046,0.024,0.003,0.044,0.361,0.043,0.000,0.361,0.031,-0.045,0.023,0,0,242,0,242,1.892,0.000,0.000,1.000,0.000
185070,-1.195,0.617,-9.564,0.127,-0.086,0.095,0.034,-0.047,0.025,0.003,0.044,0.377,0.044,0.000,0.361,0.033,-0.046,0.024,0,0,242,0,242,1.892,0.000,0.000,1.000,0.000
185081,-1.149,0.287,-9.499,0.127,-0.090,0.099,0.035,-0.047,0.026,0.003,0.044,0.361,0.045,0.000,0.361,0.034,-0.047,0.025,0,0,242,0,242,1.892,0.000,0.000,1.000,0.000
185092,-1.350,0.463,-9.578,0.120,-0.073,0.100,0.036,-0.048,0.027,0.003,0.044,0.361,0.046,0.001,0.345,0.035,-0.047,0.026,0,0,242,0,242,1.892,0.000,0.000,1.000,0.000
185103,-1.161,0.510,-9.645,0.117,-0.075,0.099,0.038,-0.049,0.028,0.003,0.044,0.410,0.047,0.001,0.361,0.036,-0.048,0.027,0,0,242,0,242,1.892,0.000,0.000,1.000,0.000
185114,-1.239,0.287,-9.451,0.113,-0.075,0.104,0.039,-0.050,0.029,0.003,0.044,0.377,0.048,0.001,0.377,0.038,-0.049,0.028,0,0,242,0,242,1.892,0.000,0.000,1.000,0.000
185125,-1.013,0.409,-9.628,0.107,-0.057,0.105,0.040,-0.050,0.030,0.003,0.044,0.361,0.049,0.001,0.361,0.039,-0.050,0.029,0,0,242,0,242,1.892,0.000,0.000,1.000,0.000
185136,-1.318,0.293,-9.445,0.099,-0.054,0.109,0.041,-0.051,0.032,0.003,0.044,0.394,0.050,0.001,0.377,0.040,-0.050,0.030,0,0,242,0,242,1.892,0.000,0.000,1.000,0.000
185147,-1.303,0.526,-9.625,0.095,-0.043,0.110,0.042,-0.051,0.033,0.003,0.044,0.377,0.051,0.001,0.377,0.041,-0.051,0.032,0,0,242,0,242,1.892,0.000,0.000,1.000,0.000
185158,-1.182,0.295,-9.554,0.091,-0.045,0.111,0.043,-0.052,0.034,0.003,0.044,0.394,0.052,0.001,0.377,0.042,-0.051,0.033,0,0,242,0,242,1.892,0.000,0.000,1.000,0.000
185169,-1.369,0.339,-9.519,0.085,-0.035,0.115,0.044,-0.052,0.035,0.003,0.044,0.394,0.053,0.001,0.394,0.043,-0.052,0.034,0,0,242,0,242,1.892,0.000,0.000,1.000,0.000
185180,-1.241,0.494,-9.684,0.083,-0.032,0.112,0.044,-0.052,0.036,0.003,0.044,0.377,0.054,0.001,0.377,0.044,-0.052,0.035,0,0,242,0,242,1.892,0.000,0.000,1.000,0.000
185191,-1.229,0.218,-9.501,0.079,-0.035,0.115,0.045,-0.053,0.037,0.003,0.044,0.377,0.055,0.001,0.394,0.044,-0.052,0.036,0,0,242,0,242,1.892,0.000,0.000,1.000,0.000
185202,-1.348,0.389,-9.611,0.072,-0.020,0.117,0.046,-0.053,0.038,0.003,0.044,0.394,0.056,0.001,0.410,0.045,-0.053,0.037,0,0,242,0,242,1.892,0.000,0.000,1.000,0.000
185213,-1.199,0.378,-9.781,0.069,-0.023,0.117,0.047,-0.053,0.039,0.003,0.044,0.394,0.057,0.001,0.377,0.046,-0.053,0.038,0,0,242,0,242,1.892,0.000,0.000,1.000,0.000
185224,-1.318,0.435,-9.676,0.058,-0.006,0.120,0.047,-0.053,0.041,0.003,0.044,0.410,0.057,0.001,0.377,0.047,-0.053,0.039,0,0,242,0,242,1.892,0.000,0.000,1.000,0.000
185235,-1.222,0.276,-9.719,0.056,-0.011,0.122,0.048,-0.053,0.042,0.003,0.044,0.426,0.058,0.001,0.394,0.047,-0.053,0.041,0,0,242,0,242,1.892,0.000,0.000,1.000,0.000
185246,-1.379,0.242,-9.544,0.047,-0.002,0.125,0.048,-0.053,0.043,0.003,0.044,0.394,0.059,0.001,0.410,0.048,-0.053,0.042,0,0,242,0,242,1.892,0.000,0.000,1.000,0.000
185257,-1.269,0.465,-9.704,0.043,0.005,0.126,0.049,-0.053,0.044,0.003,0.044,0.410,0.060,0.001,0.394,0.048,-0.053,0.043,0,0,242,0,242,1.892,0.000,0.000,1.000,0.000
185268,-1.214,0.219,-9.611,0.040,-0.001,0.126,0.049,-0.053,0.046,0.003,0.044,0.426,0.061,0.001,0.410,0.049,-0.053,0.044,0,0,242,0,242,1.892,0.000,0.000,1.000,0.000
185279,-1.372,0.289,-9.586,0.035,0.011,0.130,0.049,-0.053,0.047,0.003,0.044,0.426,0.062,0.001,0.394,0.049,-0.053,0.046,0,0,242,0,242,1.892,0.000,0.000,1.000,0.000
185290,-1.213,0.419,-9.771,0.033,0.013,0.128,0.050,-0.053,0.048,0.003,0.044,0.410,0.063,0.001,0.394,0.049,-0.053,0.047,0,0,242,0,242,1.892,0.000,0.000,1.000,0.000
185301,-1.230,0.169,-9.530,0.028,0.011,0.132,0.050,-0.053,0.050,0.003,0.044,0.426,0.064,0.001,0.410,0.050,-0.053,0.048,0,0,242,0,242,1.892,0.000,0.000,1.000,0.000
185312,-1.151,0.359,-9.737,0.024,0.018,0.132,0.050,-0.053,0.051,0.003,0.044,0.426,0.065,0.001,0.410,0.050,-0.053,0.050,0,0,242,0,242,1.892,0.000,0.000,1.000,0.000
185323,-1.297,0.215,-9.523,0.022,0.018,0.134,0.050,-0.053,0.052,0.003,0.044,0.426,0.066,0.001,0.426,0.050,-0.053,0.051,0,0,242,0,242,1.892,0.000,0.000,1.000,0.000
185334,-1.295,0.423,-9.704,0.018,0.029,0.133,0.051,-0.052,0.054,0.003,0.044,0.410,0.067,0.001,0.394,0.050,-0.053,0.052,0,0,242,0,242,1.892,0.000,0.000,1.000,0.000
185345,-1.168,0.275,-9.674,0.017,0.023,0.133,0.051,-0.052,0.055,0.003,0.044,0.442,0.068,0.001,0.426,0.051,-0.052,0.054,0,0,242,0,242,1.892,0.000,0.000,1.000,0.000
185356,-1.322,0.249,-9.525,0.011,0.031,0.136,0.051,-0.052,0.056,0.003,0.044,0.394,0.069,0.001,0.426,0.051,-0.052,0.055,0,0,242,0,242,1.892,0.000,0.000,1.000,0.000
185367,-1.247,0.449,-9.783,0.008,0.037,0.136,0.051,-0.051,0.058,0.003,0.044,0.458,0.070,0.001,0.410,0.051,-0.052,0.056,0,0,242,0,242,1.892,0.000,0.000,1.000,0.000
185378,-1.180,0.196,-9.633,0.006,0.031,0.137,0.051,-0.051,0.059,0.003,0.044,0.426,0.071,0.002,0.426,0.051,-0.051,0.058,0,0,242,0,242,1.892,0.000,0.000,1.000,0.000
185389,-1.328,0.310,-9.616,-0.000,0.042,0.138,0.051,-0.051,0.060,0.003,0.044,0.442,0.072,0.002,0.442,0.051,-0.051,0.059,0,0,242,0,242,1.892,0.000,0.000,1.000,0.000
185400,-1.202,0.183,-9.584,-0.005,0.034,0.138,0.051,-0.050,0.062,0.003,0.044,0.442,0.073,0.002,0.442,0.051,-0.051,0.060,0,0,242,0,242,1.892,0.000,0.000,1.000,0.000
185411,-1.283,0.389,-9.700,-0.009,0.046,0.139,0.051,-0.050,0.063,0.003,0.044,0.426,0.074,0.002,0.442,0.051,-0.050,0.062,0,0,242,0,242,1.892,0.000,0.000,1.000,0.000
185422,-1.151,0.328,-9.813,-0.009,0.038,0.138,0.051,-0.049,0.065,0.003,0.044,0.442,0.075,0.002,0.442,0.051,-0.050,0.063,0,0,242,0,242,1.892,0.000,0.000,1.000,0.000
185433,-1.250,0.207,-9.637,-0.016,0.040,0.140,0.051,-0.049,0.066,0.003,0.044,0.442,0.075,0.002,0.442,0.051,-0.049,0.065,0,0,242,0,242,1.892,0.000,0.000,1.000,0.000
185444,-1.237,0.422,-9.862,-0.021,0.046,0.140,0.051,-0.049,0.067,0.003,0.044,0.474,0.076,0.002,0.442,0.051,-0.049,0.066,0,0,242,0,242,1.892,0.000,0.000,1.000,0.000
185455,-1.089,0.242,-9.751,-0.025,0.034,0.140,0.050,-0.048,0.069,0.003,0.044,0.458,0.077,0.002,0.458,0.051,-0.049,0.067,0,0,242,0,242,1.892,0.000,0.000,1.000,0.000
185466,-1.286,0.282,-9.685,-0.032,0.040,0.142,0.050,-0.048,0.070,0.003,0.044,0.474,0.078,0.002,0.458,0.050,-0.048,0.069,0,0,242,0,242,1.892,0.000,0.000,1.000,0.000
185477,-1.174,0.457,-9.804,-0.036,0.040,0.140,0.050,-0.047,0.072,0.003,0.044,0.474,0.079,0.002,0.458,0.050,-0.048,0.070,0,0,242,0,242,1.892,0.000,0.000,1.000,0.000
185488,-1.273,0.389,-9.753,-0.044,0.044,0.145,0.049,-0.047,0.073,0.003,0.044,0.474,0.080,0.002,0.442,0.050,-0.047,0.072,0,0,242,0,242,1.892,0.000,0.000,1.000,0.000
185499,-1.139,0.428,-9.817,-0.045,0.038,0.144,0.049,-0.047,0.074,0.003,0.044,0.458,0.081,0.002,0.490,0.049,-0.047,0.073,0,0,242,0,242,1.892,0.000,0.000,1.000,0.000
185510,-1.135,0.264,-9.497,-0.049,0.034,0.143,0.048,-0.046,0.076,0.003,0.044,0.458,0.082,0.002,0.458,0.049,-0.047,0.074,0,0,242,0,242,1.892,0.000,0.000,1.000,0.000
185521,-1.235,0.474,-9.706,-0.047,0.042,0.144,0.048,-0.046,0.077,0.003,0.044,0.474,0.083,0.002,0.474,0.048,-0.046,0.076,0,0,242,0,242,1.892,0.000,0.000,1.000,0.000
185532,-1.094,0.374,-9.722,-0.045,0.033,0.143,0.047,-0.046,0.079,0.003,0.044,0.474,0.084,0.002,0.458,0.048,-0.046,0.077,0,0,242,0,242,1.892,0.000,0.000,1.000,0.000
185543,-1.208,0.333,-9.558,-0.047,0.035,0.144,0.047,-0.045,0.080,0.003,0.044,0.474,0.085,0.003,0.474,0.047,-0.046,0.079,0,0,242,0,242,1.892,0.000,0.000,1.000,0.000
185554,-1.163,0.555,-9.698,-0.045,0.042,0.143,0.046,-0.045,0.082,0.003,0.044,0.490,0.086,0.003,0.474,0.047,-0.045,0.080,0,0,242,0,242,1.892,0.000,0.000,1.000,0.000
185565,-1.061,0.305,-9.683,-0.043,0.031,0.144,0.046,-0.044,0.083,0.003,0.044,0.506,0.087,0.003,0.490,0.046,-0.045,0.082,0,0,242,0,242,1.892,0.000,0.000,1.000,0.000
185576,-1.077,0.544,-9.704,-0.043,0.035,0.143,0.046,-0.044,0.084,0.003,0.044,0.458,0.088,0.003,0.490,0.046,-0.044,0.083,0,0,242,0,242,1.892,0.000,0.000,1.000,0.000
185587,-1.095,0.300,-9.599,-0.042,0.029,0.145,0.045,-0.044,0.086,0.003,0.044,0.474,0.089,0.003,0.506,0.046,-0.044,0.084,0,0,242,0,242,1.892,0.000,0.000,1.000,0.000
185598,-1.211,0.482,-9.759,-0.044,0.039,0.145,0.045,-0.043,0.087,0.003,0.044,0.474,0.089,0.003,0.458,0.045,-0.044,0.086,0,0,242,0,242,1.892,0.000,0.000,1.000,0.000
185609,-1.025,0.499,-9.777,-0.043,0.029,0.144,0.044,-0.043,0.089,0.003,0.044,0.490,0.090,0.003,0.490,0.045,-0.043,0.087,0,0,242,0,242,1.892,0.000,0.000,1.000,0.000
185620,-1.139,0.313,-9.641,-0.044,0.023,0.147,0.044,-0.043,0.090,0.003,0.044,0.506,0.091,0.003,0.490,0.044,-0.043,0.089,0,0,242,0,242,1.892,0.000,0.000,1.000,0.000
185631,-1.187,0.561,-9.808,-0.045,0.032,0.145,0.043,-0.043,0.092,0.003,0.044,0.490,0.092,0.003,0.490,0.044,-0.043,0.090,0,0,242,0,242,1.892,0.000,0.000,1.000,0.000
185642,-0.983,0.395,-9.787,-0.045,0.018,0.143,0.043,-0.042,0.093,0.003,0.044,0.506,0.093,0.003,0.506,0.043,-0.043,0.092,0,0,242,0,242,1.892,0.000,0.000,1.000,0.000
185653,-1.153,0.414,-9.678,-0.047,0.018,0.144,0.042,-0.042,0.095,0.003,0.044,0.523,0.094,0.003,0.506,0.043,-0.042,0.093,0,0,242,0,242,1.892,0.000,0.000,1.000,0.000
185664,-1.009,0.392,-9.720,-0.048,0.009,0.142,0.042,-0.042,0.096,0.003,0.044,0.506,0.095,0.003,0.506,0.042,-0.042,0.095,0,0,242,0,242,1.892,0.000,0.000,1.000,0.000
185675,-1.139,0.483,-9.643,-0.050,0.015,0.142,0.041,-0.042,0.097,0.003,0.044,0.506,0.095,0.003,0.539,0.042,-0.042,0.096,0,0,242,0,242,1.892,0.000,0.000,1.000,0.000
185686,-1.089,0.596,-9.756,-0.047,0.011,0.142,0.041,-0.042,0.099,0.003,0.044,0.539,0.096,0.004,0.490,0.041,-0.042,0.097,0,0,242,0,242,1.892,0.000,0.000,1.000,0.000
185697,-1.078,0.388,-9.560,-0.047,0.007,0.143,0.041,-0.042,0.100,0.003,0.044,0.523,0.097,0.004,0.506,0.041,-0.042,0.099,0,0,242,0,242,1.892,0.000,0.000,1.000,0.000
185708,-1.137,0.581,-9.635,-0.047,0.016,0.142,0.040,-0.042,0.102,0.003,0.044,0.523,0.098,0.004,0.539,0.041,-0.042,0.100,0,0,242,0,242,1.892,0.000,0.000,1.000,0.000
185719,-1.033,0.542,-9.725,-0.042,0.011,0.142,0.040,-0.042,0.103,0.003,0.044,0.555,0.099,0.004,0.539,0.040,-0.042,0.102,0,0,242,0,242,1.892,0.000,0.000,1.000,0.000
185730,-1.100,0.419,-9.566,-0.043,0.009,0.140,0.039,-0.042,0.105,0.003,0.044,0.523,0.100,0.004,0.523,0.040,-0.042,0.103,0,0,242,0,242,1.892,0.000,0.000,1.000,0.000
185741,-1.165,0.613,-9.737,-0.041,0.017,0.139,0.039,-0.042,0.106,0.003,0.044,0.539,0.101,0.004,0.523,0.039,-0.042,0.105,0,0,242,0,242,1.892,0.000,0.000,1.000,0.000
185752,-1.088,0.437,-9.588,-0.041,0.009,0.138,0.038,-0.042,0.107,0.003,0.044,0.555,0.102,0.004,0.539,0.039,-0.042,0.106,0,0,242,0,242,1.892,0.000,0.000,1.000,0.000
185763,-1.132,0.672,-9.796,-0.037,0.015,0.137,0.038,-0.041,0.109,0.003,0.044,0.539,0.103,0.004,0.539,0.038,-0.042,0.107,0,0,242,0,242,1.892,0.000,0.000,1.000,0.000
185774,-0.999,0.480,-9.662,-0.037,0.005,0.137,0.038,-0.041,0.110,0.003,0.044,0.539,0.104,0.004,0.539,0.038,-0.041,0.109,0,0,242,0,242,1.892,0.000,0.000,1.000,0.000
185785,-1.111,0.484,-9.630,-0.037,0.011,0.137,0.037,-0.041,0.111,0.003,0.044,0.555,0.105,0.004,0.555,0.038,-0.041,0.110,0,0,242,0,242,1.892,0.000,0.000,1.000,0.000
185796,-1.068,0.685,-9.810,-0.037,0.015,0.137,0.037,-0.041,0.113,0.003,0.044,0.539,0.106,0.005,0.539,0.037,-0.041,0.111,0,0,242,0,242,1.892,0.000,0.000,1.000,0.000
185807,-1.000,0.518,-9.618,-0.034,0.004,0.136,0.037,-0.041,0.114,0.003,0.044,0.555,0.107,0.005,0.539,0.037,-0.041,0.113,0,0,242,0,242,1.892,0.000,0.000,1.000,0.000
185818,-1.125,0.567,-9.677,-0.034,0.012,0.138,0.036,-0.041,0.116,0.003,0.044,0.555,0.108,0.005,0.539,0.037,-0.041,0.114,0,0,242,0,242,1.892,0.000,0.000,1.000,0.000
185829,-1.040,0.634,-9.853,-0.032,0.010,0.134,0.036,-0.041,0.117,0.003,0.044,0.539,0.109,0.005,0.555,0.036,-0.041,0.116,0,0,242,0,242,1.892,0.000,0.000,1.000,0.000
185840,-1.133,0.652,-9.767,-0.032,0.009,0.137,0.036,-0.041,0.118,0.003,0.044,0.555,0.109,0.005,0.539,0.036,-0.041,0.117,0,0,242,0,242,1.892,0.000,0.000,1.000,0.000
185851,-1.019,0.597,-9.796,-0.032,0.004,0.136,0.035,-0.041,0.120,0.003,0.044,0.571,0.110,0.005,0.571,0.036,-0.041,0.118,0,0,242,0,242,1.892,0.000,0.000,1.000,0.000
185862,-1.003,0.506,-9.662,-0.034,-0.002,0.136,0.035,-0.041,0.121,0.003,0.044,0.555,0.111,0.005,0.555,0.035,-0.041,0.120,0,0,242,0,242,1.892,0.000,0.000,1.000,0.000
185873,-1.108,0.682,-9.860,-0.033,0.004,0.137,0.035,-0.041,0.122,0.003,0.044,0.587,0.112,0.005,0.571,0.035,-0.041,0.121,0,0,242,0,242,1.892,0.000,0.000,1.000,0.000
185884,-1.024,0.577,-9.768,-0.034,-0.006,0.134,0.034,-0.041,0.124,0.003,0.044,0.587,0.113,0.005,0.571,0.035,-0.041,0.122,0,0,242,0,242,1.892,0.000,0.000,1.000,0.000
185895,-1.001,0.540,-9.627,-0.034,-0.007,0.134,0.034,-0.041,0.125,0.003,0.044,0.539,0.114,0.006,0.571,0.034,-0.041,0.124,0,0,242,0,242,1.892,0.000,0.000,1.000,0.000
185906,-1.110,0.715,-9.842,-0.032,-0.005,0.133,0.034,-0.041,0.126,0.003,0.044,0.587,0.115,0.006,0.587,0.034,-0.041,0.125,0,0,242,0,242,1.892,0.000,0.000,1.000,0.000
185917,-1.027,0.578,-9.634,-0.034,-0.011,0.134,0.033,-0.041,0.128,0.003,0.044,0.571,0.116,0.006,0.587,0.034,-0.041,0.126,0,0,242,0,242,1.892,0.000,0.000,1.000,0.000
185928,-1.109,0.685,-9.793,-0.031,-0.004,0.136,0.033,-0.041,0.129,0.003,0.044,0.587,0.117,0.006,0.587,0.033,-0.041,0.128,0,0,242,0,242,1.892,0.000,0.000,1.000,0.000
185939,-0.998,0.569,-9.651,-0.032,-0.012,0.134,0.033,-0.041,0.130,0.003,0.044,0.603,0.118,0.006,0.603,0.033,-0.041,0.129,0,0,242,0,242,1.892,0.000,0.000,1.000,0.000
185950,-1.060,0.665,-9.707,-0.030,-0.009,0.134,0.032,-0.041,0.132,0.003,0.044,0.587,0.119,0.006,0.603,0.033,-0.041,0.130,0,0,242,0,242,1.892,0.000,0.000,1.000,0.000
185961,-1.088,0.689,-9.725,-0.027,-0.007,0.134,0.032,-0.041,0.133,0.003,0.044,0.603,0.120,0.006,0.603,0.032,-0.041,0.132,0,0,242,0,242,1.892,0.000,0.000,1.000,0.000
185972,-0.980,0.573,-9.606,-0.028,-0.013,0.134,0.032,-0.041,0.134,0.003,0.044,0.587,0.121,0.006,0.603,0.032,-0.041,0.133,0,0,242,0,242,1.892,0.000,0.000,1.000,0.000
185983,-1.084,0.681,-9.769,-0.025,-0.009,0.134,0.032,-0.041,0.136,0.003,0.044,0.619,0.122,0.007,0.603,0.032,-0.041,0.134,0,0,242,0,242,1.892,0.000,0.000,1.000,0.000
185994,-1.074,0.720,-9.660,-0.026,-0.010,0.132,0.031,-0.041,0.137,0.003,0.044,0.619,0.123,0.007,0.587,0.032,-0.041,0.136,0,0,242,0,242,1.892,0.000,0.000,1.000,0.000
186005,-0.981,0.567,-9.617,-0.026,-0.016,0.133,0.031,-0.042,0.138,0.003,0.044,0.619,0.124,0.007,0.603,0.031,-0.041,0.137,0,0,242,0,242,1.892,0.000,0.000,1.000,0.000
186016,-1.048,0.670,-9.672,-0.021,-0.012,0.133,0.031,-0.042,0.140,0.003,0.044,0.619,0.124,0.007,0.603,0.031,-0.042,0.138,0,0,242,0,242,1.892,0.000,0.000,1.000,0.000
186027,-0.999,0.630,-9.655,-0.023,-0.016,0.133,0.031,-0.042,0.141,0.003,0.044,0.619,0.125,0.007,0.619,0.031,-0.042,0.140,0,0,242,0,242,1.892,0.000,0.000,1.000,0.000
186038,-1.116,0.741,-9.769,-0.021,-0.010,0.134,0.030,-0.042,0.142,0.003,0.044,0.619,0.126,0.007,0.652,0.031,-0.042,0.141,0,0,242,0,242,1.892,0.000,0.000,1.000,0.000
186049,-0.994,0.642,-9.646,-0.022,-0.015,0.133,0.030,-0.042,0.144,0.003,0.044,0.619,0.127,0.007,0.619,0.030,-0.042,0.142,0,0,242,0,242,1.892,0.000,0.000,1.000,0.000
186060,-1.028,0.641,-9.704,-0.019,-0.015,0.134,0.030,-0.042,0.145,0.003,0.044,0.619,0.128,0.007,0.619,0.030,-0.042,0.144,0,0,242,0,242,1.892,0.000,0.000,1.000,0.000
186071,-1.149,0.779,-9.727,-0.017,-0.010,0.132,0.030,-0.042,0.146,0.003,0.044,0.635,0.129,0.008,0.635,0.030,-0.042,0.145,0,0,242,0,242,1.892,0.000,0.000,1.000,0.000
186082,-0.974,0.611,-9.594,-0.019,-0.016,0.132,0.030,-0.042,0.148,0.003,0.044,0.652,0.130,0.008,0.652,0.030,-0.042,0.146,0,0,242,0,242,1.892,0.000,0.000,1.000,0.000
186093,-1.055,0.697,-9.727,-0.014,-0.013,0.132,0.029,-0.042,0.149,0.003,0.044,0.635,0.131,0.008,0.603,0.030,-0.042,0.148,0,0,242,0,242,1.892,0.000,0.000,1.000,0.000
186104,-0.980,0.640,-9.595,-0.015,-0.011,0.131,0.029,-0.042,0.150,0.003,0.044,0.635,0.132,0.008,0.652,0.029,-0.042,0.149,0,0,242,0,242,1.892,0.000,0.000,1.000,0.000
186115,-1.090,0.720,-9.712,-0.010,-0.011,0.131,0.029,-0.043,0.152,0.003,0.044,0.652,0.133,0.008,0.652,0.029,-0.042,0.150,0,0,242,0,242,1.892,0.000,0.000,1.000,0.000
186126,-1.080,0.733,-9.670,-0.012,-0.010,0.128,0.029,-0.043,0.153,0.003,0.044,0.668,0.134,0.008,0.652,0.029,-0.043,0.152,0,0,242,0,242,1.892,0.000,0.000,1.000,0.000
186137,-0.982,0.624,-9.622,-0.011,-0.017,0.127,0.029,-0.043,0.154,0.003,0.044,0.652,0.135,0.008,0.652,0.029,-0.043,0.153,0,0,242,0,242,1.892,0.000,0.000,1.000,0.000
186148,-1.149,0.776,-9.724,-0.012,-0.009,0.128,0.029,-0.043,0.156,0.003,0.044,0.668,0.136,0.009,0.652,0.029,-0.043,0.154,0,0,242,0,242,1.892,0.000,0.000,1.000,0.000
186159,-1.015,0.680,-9.640,-0.014,-0.009,0.127,0.029,-0.043,0.157,0.003,0.044,0.684,0.137,0.009,0.652,0.029,-0.043,0.156,0,0,242,0,242,1.892,0.000,0.000,1.000,0.000
186170,-1.038,0.690,-9.670,-0.011,-0.013,0.126,0.029,-0.043,0.158,0.003,0.044,0.668,0.138,0.009,0.652,0.029,-0.043,0.157,0,0,242,0,242,1.892,0.000,0.000,1.000,0.000
186181,-1.161,0.755,-9.724,-0.014,-0.007,0.130,0.029,-0.043,0.159,0.003,0.044,0.668,0.138,0.009,0.668,0.029,-0.043,0.158,0,0,242,0,242,1.892,0.000,0.000,1.000,0.000
186192,-1.001,0.739,-9.622,-0.012,-0.011,0.125,0.028,-0.043,0.161,0.003,0.044,0.668,0.139,0.009,0.652,0.029,-0.043,0.159,0,0,242,0,242,1.892,0.000,0.000,1.000,0.000
186203,-1.140,0.797,-9.732,-0.012,-0.005,0.126,0.028,-0.043,0.162,0.003,0.044,0.684,0.140,0.009,0.684,0.028,-0.043,0.161,0,0,242,0,242,1.892,0.000,0.000,1.000,0.000
186214,-0.962,0.696,-9.639,-0.012,-0.013,0.125,0.028,-0.043,0.163,0.003,0.044,0.684,0.141,0.009,0.668,0.028,-0.043,0.162,0,0,242,0,242,1.892,0.000,0.000,1.000,0.000
186225,-1.111,0.709,-9.677,-0.011,-0.012,0.126,0.028,-0.043,0.164,0.003,0.044,0.700,0.142,0.010,0.668,0.028,-0.043,0.163,0,0,242,0,242,1.892,0.000,0.000,1.000,0.000
186236,-1.077,0.817,-9.733,-0.015,-0.004,0.122,0.028,-0.043,0.166,0.003,0.044,0.700,0.143,0.010,0.668,0.028,-0.043,0.164,0,0,242,0,242,1.892,0.000,0.000,1.000,0.000
186247,-0.993,0.658,-9.661,-0.016,-0.010,0.122,0.028,-0.043,0.167,0.003,0.044,0.684,0.144,0.010,0.668,0.028,-0.043,0.166,0,0,242,0,242,1.892,0.000,0.000,1.000,0.000
186258,-1.129,0.750,-9.713,-0.014,-0.010,0.123,0.028,-0.043,0.168,0.003,0.044,0.684,0.145,0.010,0.684,0.028,-0.043,0.167,0,0,242,0,242,1.892,0.000,0.000,1.000,0.000
186269,-1.086,0.798,-9.716,-0.011,-0.011,0.122,0.028,-0.043,0.169,0.003,0.044,0.684,0.146,0.010,0.700,0.028,-0.043,0.168,0,0,242,0,242,1.892,0.000,0.000,1.000,0.000
186280,-0.983,0.638,-9.653,-0.010,-0.018,0.121,0.028,-0.044,0.170,0.003,0.044,0.684,0.147,0.010,0.716,0.028,-0.043,0.169,0,0,242,0,242,1.892,0.000,0.000,1.000,0.000
186291,-1.047,0.767,-9.709,-0.009,-0.015,0.120,0.028,-0.044,0.172,0.003,0.044,0.700,0.148,0.011,0.700,0.028,-0.044,0.170,0,0,242,0,242,1.892,0.000,0.000,1.000,0.000
186302,-1.043,0.678,-9.657,-0.009,-0.020,0.120,0.028,-0.044,0.173,0.003,0.044,0.700,0.149,0.011,0.700,0.028,-0.044,0.172,0,0,242,0,242,1.892,0.000,0.000,1.000,0.000
186313,-1.139,0.825,-9.768,-0.009,-0.011,0.120,0.028,-0.044,0.174,0.003,0.044,0.716,0.150,0.011,0.732,0.028,-0.044,0.173,0,0,242,0,242,1.892,0.000,0.000,1.000,0.000
186324,-1.007,0.745,-9.712,-0.009,-0.018,0.116,0.028,-0.044,0.175,0.003,0.044,0.732,0.151,0.011,0.716,0.028,-0.044,0.174,0,0,242,0,242,1.892,0.000,0.000,1.000,0.000
186335,-1.072,0.721,-9.654,-0.010,-0.018,0.117,0.028,-0.044,0.176,0.003,0.044,0.716,0.152,0.011,0.716,0.028,-0.044,0.175,0,0,242,0,242,1.892,0.000,0.000,1.000,0.000
186346,-1.123,0.861,-9.767,-0.006,-0.013,0.116,0.028,-0.045,0.178,0.003,0.044,0.700,0.153,0.011,0.716,0.028,-0.044,0.176,0,0,242,0,242,1.892,0.000,0.000,1.000,0.000
186357,-0.998,0.712,-9.677,-0.008,-0.021,0.117,0.028,-0.045,0.179,0.003,0.044,0.732,0.153,0.012,0.716,0.028,-0.045,0.178,0,0,242,0,242,1.892,0.000,0.000,1.000,0.000
186368,-1.092,0.761,-9.731,-0.009,-0.018,0.116,0.028,-0.045,0.180,0.003,0.044,0.716,0.154,0.012,0.732,0.028,-0.045,0.179,0,0,242,0,242,1.892,0.000,0.000,1.000,0.000
186379,-1.012,0.709,-9.676,-0.008,-0.021,0.117,0.028,-0.045,0.181,0.003,0.044,0.732,0.155,0.012,0.732,0.028,-0.045,0.180,0,0,242,0,242,1.892,0.000,0.000,1.000,0.000
186390,-1.113,0.802,-9.767,-0.008,-0.015,0.117,0.028,-0.045,0.182,0.003,0.044,0.732,0.156,0.012,0.716,0.028,-0.045,0.181,0,0,242,0,242,1.892,0.000,0.000,1.000,0.000
186401,-1.073,0.819,-9.805,-0.005,-0.016,0.117,0.028,-0.045,0.183,0.003,0.044,0.716,0.157,0.012,0.732,0.028,-0.045,0.182,0,0,242,0,242,1.892,0.000,0.000,1.000,0.000
186412,-1.033,0.707,-9.662,-0.006,-0.022,0.117,0.028,-0.046,0.185,0.003,0.044,0.748,0.158,0.012,0.732,0.028,-0.045,0.183,0,0,242,0,242,1.892,0.000,0.000,1.000,0.000
186423,-1.111,0.829,-9.779,-0.005,-0.017,0.117,0.028,-0.046,0.186,0.003,0.044,0.732,0.159,0.013,0.732,0.028,-0.046,0.185,0,0,242,0,242,1.892,0.000,0.000,1.000,0.000
186434,-1.044,0.810,-9.789,-0.004,-0.020,0.116,0.028,-0.046,0.187,0.003,0.044,0.732,0.160,0.013,0.748,0.028,-0.046,0.186,0,0,242,0,242,1.892,0.000,0.000,1.000,0.000
186445,-1.052,0.702,-9.678,-0.008,-0.026,0.116,0.028,-0.046,0.188,0.003,0.044,0.732,0.161,0.013,0.748,0.028,-0.046,0.187,0,0,242,0,242,1.892,0.000,0.000,1.000,0.000
186456,-1.109,0.875,-9.802,-0.005,-0.020,0.117,0.028,-0.046,0.189,0.003,0.044,0.765,0.162,0.013,0.765,0.028,-0.046,0.188,0,0,238,0,238,1.892,0.000,0.000,1.000,0.000
186467,-1.034,0.718,-9.704,-0.008,-0.026,0.117,0.028,-0.047,0.190,0.003,0.044,0.765,0.163,0.013,0.765,0.028,-0.046,0.189,0,0,238,0,238,1.892,0.000,0.000,1.000,0.000
186478,-1.119,0.869,-9.861,-0.006,-0.023,0.117,0.028,-0.047,0.192,0.003,0.044,0.765,0.164,0.013,0.765,0.028,-0.047,0.190,0,0,238,0,238,1.892,0.000,0.000,1.000,0.000
186489,-1.061,0.769,-9.729,-0.008,-0.029,0.116,0.028,-0.047,0.193,0.003,0.044,0.765,0.165,0.014,0.781,0.028,-0.047,0.192,0,0,224,0,224,1.892,0.000,0.000,1.000,0.000
186500,-1.060,0.724,-9.719,-0.008,-0.028,0.119,0.028,-0.048,0.194,0.003,0.044,0.765,0.165,0.014,0.765,0.028,-0.047,0.193,0,0,238,0,238,1.892,0.000,0.000,1.000,0.000
186511,-1.095,0.892,-9.796,-0.006,-0.024,0.116,0.028,-0.048,0.195,0.003,0.044,0.797,0.166,0.014,0.765,0.028,-0.048,0.194,0,0,238,0,238,1.892,0.000,0.000,1.000,0.000
186522,-1.061,0.741,-9.651,-0.009,-0.028,0.117,0.028,-0.048,0.196,0.003,0.044,0.781,0.167,0.014,0.748,0.028,-0.048,0.195,0,0,242,0,242,1.892,0.000,0.000,1.000,0.000
186533,-1.100,0.810,-9.788,-0.006,-0.026,0.115,0.028,-0.048,0.197,1.511,0.091,0.781,0.169,0.014,0.797,0.028,-0.048,0.196,0,0,210,0,210,1.892,0.000,0.000,1.000,0.000
186544,-1.091,0.814,-9.749,-0.008,-0.027,0.114,0.028,-0.049,0.199,1.511,0.091,0.748,0.171,0.015,0.781,0.028,-0.048,0.197,0,0,224,0,224,1.892,0.000,0.000,1.000,0.000
186555,-1.134,0.886,-9.896,-0.006,-0.028,0.114,0.028,-0.049,0.200,1.511,0.091,0.797,0.172,0.015,0.797,0.028,-0.049,0.199,0,0,210,0,210,1.892,0.000,0.000,1.000,0.000
186566,-1.120,0.780,-9.767,-0.010,-0.031,0.112,0.028,-0.049,0.201,1.511,0.091,0.797,0.174,0.016,0.781,0.028,-0.049,0.200,0,0,224,0,224,1.892,0.000,0.000,1.000,0.000
186577,-1.043,0.768,-9.738,-0.009,-0.033,0.114,0.028,-0.049,0.202,1.511,0.091,0.797,0.176,0.016,0.797,0.028,-0.049,0.201,0,0,210,0,210,1.892,0.000,0.000,1.000,0.000
186588,-1.109,0.901,-9.787,-0.005,-0.026,0.109,0.028,-0.050,0.203,1.511,0.091,0.797,0.178,0.016,0.797,0.028,-0.049,0.202,0,0,210,0,210,1.892,0.000,0.000,1.000,0.000
186599,-1.095,0.712,-9.831,-0.008,-0.032,0.111,0.028,-0.050,0.204,1.511,0.091,0.813,0.180,0.017,0.813,0.028,-0.050,0.203,0,0,197,0,197,1.892,0.000,0.000,1.000,0.000
186610,-1.104,0.886,-9.880,-0.008,-0.031,0.108,0.028,-0.050,0.205,1.511,0.091,0.781,0.182,0.017,0.813,0.028,-0.050,0.204,0,0,197,0,197,1.892,0.000,0.000,1.000,0.000
186621,-1.121,0.782,-9.703,-0.011,-0.029,0.108,0.027,-0.051,0.206,1.511,0.091,0.829,0.184,0.018,0.813,0.028,-0.050,0.205,0,0,197,0,197,1.892,0.000,0.000,1.000,0.000
186632,-1.043,0.875,-9.885,-0.008,-0.034,0.105,0.027,-0.051,0.207,1.511,0.091,0.829,0.186,0.018,0.813,0.027,-0.051,0.206,0,0,197,0,197,1.892,0.000,0.000,1.000,0.000
186643,-1.011,0.837,-9.859,-0.011,-0.033,0.103,0.027,-0.051,0.208,1.511,0.091,0.813,0.188,0.018,0.797,0.027,-0.051,0.207,0,0,210,0,210,1.892,0.000,0.000,1.000,0.000
186654,-1.165,0.848,-9.726,-0.011,-0.029,0.103,0.027,-0.052,0.209,1.511,0.091,0.845,0.190,0.019,0.813,0.027,-0.051,0.208,0,0,197,0,197,1.892,0.000,0.000,1.000,0.000
186665,-1.083,0.822,-9.892,-0.011,-0.031,0.103,0.027,-0.052,0.210,1.511,0.091,0.829,0.191,0.019,0.829,0.027,-0.052,0.209,0,0,0,0,0,1.892,0.000,0.000,1.000,1.000
186676,-1.147,0.817,-9.826,-0.011,-0.028,0.101,0.027,-0.052,0.211,1.511,0.091,0.829,0.193,0.020,0.813,0.027,-0.052,0.210,0,0,0,0,0,1.892,0.000,0.000,1.000,1.000
186687,-1.034,0.890,-10.288,-0.015,-0.029,0.100,0.027,-0.052,0.212,1.511,0.091,0.829,0.196,0.020,0.813,0.027,-0.052,0.211,0,0,0,0,0,1.892,0.000,0.000,1.000,1.000
186698,-1.265,0.808,-10.310,-0.017,-0.029,0.097,0.027,-0.053,0.213,1.511,0.091,0.829,0.197,0.020,0.845,0.027,-0.052,0.212,0,0,0,0,0,1.892,0.000,0.000,1.000,1.000
186709,-1.089,0.811,-10.054,-0.023,-0.021,0.089,0.026,-0.053,0.214,1.511,0.091,0.845,0.199,0.021,0.845,0.027,-0.053,0.213,0,0,0,0,0,1.892,0.000,0.000,1.000,1.000
186720,-1.029,0.876,-9.878,-0.025,-0.020,0.088,0.026,-0.053,0.215,1.511,0.091,0.845,0.201,0.021,0.829,0.026,-0.053,0.214,0,0,0,0,0,1.892,0.000,0.000,1.000,1.000
186731,-1.170,0.802,-10.175,-0.026,-0.017,0.084,0.026,-0.053,0.216,1.511,0.091,0.829,0.202,0.021,0.845,0.026,-0.053,0.215,0,0,0,0,0,1.892,0.000,0.000,1.000,1.000
186742,-1.088,0.855,-9.996,-0.030,-0.013,0.079,0.026,-0.053,0.217,1.511,0.091,0.813,0.204,0.022,0.829,0.026,-0.053,0.216,0,0,0,0,0,1.892,0.000,0.000,1.000,1.000
186753,-1.114,0.896,-9.960,-0.027,-0.015,0.078,0.025,-0.054,0.218,1.511,0.091,0.845,0.206,0.022,0.845,0.026,-0.053,0.217,0,0,0,0,0,1.892,0.000,0.000,1.000,1.000
186764,-1.117,0.849,-10.050,-0.027,-0.011,0.076,0.025,-0.054,0.218,1.511,0.091,0.845,0.207,0.023,0.845,0.025,-0.054,0.218,0,0,0,0,0,1.892,0.000,0.000,1.000,1.000
186775,-1.144,0.857,-10.064,-0.032,-0.011,0.075,0.025,-0.054,0.219,1.511,0.091,0.845,0.208,0.023,0.861,0.025,-0.054,0.218,0,0,0,0,0,1.892,0.000,0.000,1.000,1.000
186786,-1.107,0.882,-9.996,-0.034,-0.010,0.072,0.024,-0.054,0.220,1.511,0.091,0.861,0.210,0.023,0.845,0.025,-0.054,0.219,0,0,0,0,0,1.892,0.000,0.000,1.000,1.000
186797,-1.098,0.883,-9.939,-0.034,-0.007,0.071,0.024,-0.054,0.221,1.511,0.091,0.845,0.212,0.024,0.861,0.024,-0.054,0.220,0,0,0,0,0,1.892,0.000,0.000,1.000,1.000
186808,-1.114,0.891,-10.009,-0.036,-0.006,0.067,0.024,-0.054,0.221,1.511,0.091,0.861,0.214,0.024,0.845,0.024,-0.054,0.221,0,0,0,0,0,1.892,0.000,0.000,1.000,1.000
186819,-1.105,0.903,-10.000,-0.039,-0.004,0.065,0.023,-0.054,0.222,1.511,0.091,0.861,0.216,0.025,0.861,0.024,-0.054,0.221,0,0,0,0,0,1.892,0.000,0.000,1.000,1.000
186830,-1.108,0.896,-9.953,-0.041,-0.004,0.064,0.023,-0.054,0.222,1.511,0.091,0.861,0.218,0.025,0.877,0.023,-0.054,0.222,0,0,0,0,0,1.892,0.000,0.000,1.000,1.000
186841,-1.115,0.901,-9.976,-0.043,-0.004,0.061,0.022,-0.054,0.223,1.511,0.091,0.877,0.220,0.025,0.845,0.023,-0.054,0.222,0,0,0,0,0,1.892,0.000,0.000,1.000,1.000
186852,-1.126,0.904,-9.983,-0.043,-0.001,0.060,0.022,-0.054,0.224,1.511,0.091,0.877,0.222,0.026,0.877,0.022,-0.054,0.223,0,0,0,0,0,1.892,0.000,0.000,1.000,1.000
186863,-1.115,0.886,-9.954,-0.044,-0.001,0.057,0.022,-0.054,0.224,1.511,0.091,0.894,0.224,0.026,0.845,0.022,-0.054,0.224,0,0,0,0,0,1.892,0.000,0.000,1.000,1.000
186874,-1.102,0.921,-9.935,-0.044,0.000,0.056,0.021,-0.054,0.225,1.511,0.091,0.877,0.226,0.027,0.861,0.022,-0.054,0.224,0,0,0,0,0,1.892,0.000,0.000,1.000,1.000
186885,-1.104,0.914,-9.940,-0.045,0.000,0.055,0.021,-0.054,0.225,1.511,0.091,0.877,0.228,0.027,0.877,0.021,-0.054,0.225,0,0,0,0,0,1.892,0.000,0.000,1.000,1.000
186896,-1.107,0.928,-9.951,-0.047,0.000,0.055,0.020,-0.054,0.226,1.511,0.091,0.894,0.230,0.028,0.877,0.021,-0.054,0.225,0,0,0,0,0,1.892,0.000,0.000,1.000,1.000
186907,-1.086,0.938,-9.951,-0.048,-0.001,0.051,0.020,-0.054,0.226,1.511,0.091,0.877,0.231,0.028,0.877,0.020,-0.054,0.226,0,0,0,0,0,1.892,0.000,0.000,1.000,1.000
186918,-1.092,0.936,-9.946,-0.049,-0.001,0.050,0.019,-0.054,0.227,1.511,0.091,0.877,0.233,0.029,0.861,0.020,-0.054,0.226,0,0,0,0,0,1.892,0.000,0.000,1.000,1.000
186929,-1.098,0.958,-9.939,-0.049,-0.004,0.049,0.019,-0.054,0.227,1.511,0.091,0.894,0.235,0.029,0.894,0.019,-0.054,0.227,0,0,0,0,0,1.892,0.000,0.000,1.000,1.000
186940,-1.090,0.949,-9.950,-0.049,-0.005,0.046,0.018,-0.054,0.228,1.511,0.091,0.894,0.237,0.029,0.894,0.019,-0.054,0.227,0,0,0,0,0,1.892,0.000,0.000,1.000,1.000
186951,-1.089,0.964,-9.927,-0.050,-0.005,0.046,0.018,-0.054,0.228,1.511,0.091,0.894,0.239,0.030,0.910,0.018,-0.054,0.228,0,0,0,0,0,1.892,0.000,0.000,1.000,1.000
186962,-1.101,0.951,-9.908,-0.052,-0.007,0.044,0.017,-0.054,0.229,1.511,0.091,0.894,0.241,0.030,0.894,0.018,-0.054,0.228,0,0,0,0,0,1.892,0.000,0.000,1.000,1.000
186973,-1.092,0.980,-9.909,-0.052,-0.007,0.043,0.017,-0.054,0.229,1.511,0.091,0.926,0.243,0.031,0.910,0.017,-0.054,0.229,0,0,0,0,0,1.892,0.000,0.000,1.000,1.000
186984,-1.090,0.961,-9.903,-0.049,-0.010,0.042,0.016,-0.054,0.230,1.511,0.091,0.910,0.245,0.031,0.877,0.017,-0.054,0.229,0,0,0,0,0,1.892,0.000,0.000,1.000,1.000
186995,-1.095,0.969,-9.865,-0.049,-0.009,0.040,0.016,-0.054,0.230,1.511,0.091,0.894,0.247,0.032,0.910,0.016,-0.054,0.230,0,0,0,0,0,1.892,0.000,0.000,1.000,1.000
187006,-1.102,0.999,-9.846,-0.049,-0.007,0.039,0.015,-0.054,0.230,1.511,0.091,0.910,0.248,0.032,0.910,0.016,-0.054,0.230,0,0,0,0,0,1.892,0.000,0.000,1.000,1.000
187017,-1.107,0.969,-9.810,-0.048,-0.006,0.039,0.015,-0.054,0.231,1.511,0.091,0.910,0.250,0.033,0.894,0.015,-0.054,0.230,0,0,0,0,0,1.892,0.000,0.000,1.000,1.000
187028,-1.095,1.003,-9.794,-0.048,-0.005,0.037,0.014,-0.054,0.231,1.511,0.091,0.910,0.252,0.033,0.910,0.015,-0.054,0.231,0,0,0,0,0,1.892,0.000,0.000,1.000,1.000
187039,-1.100,0.985,-9.783,-0.048,-0.001,0.037,0.014,-0.054,0.232,1.511,0.091,0.910,0.254,0.033,0.926,0.014,-0.054,0.231,0,0,0,0,0,1.892,0.000,0.000,1.000,1.000
187050,-1.104,1.013,-9.798,-0.045,0.000,0.037,0.013,-0.054,0.232,1.511,0.091,0.926,0.256,0.034,0.926,0.014,-0.054,0.232,0,0,0,0,0,1.892,0.000,0.000,1.000,1.000
187061,-1.110,0.989,-9.781,-0.045,0.002,0.035,0.013,-0.054,0.232,1.511,0.091,0.910,0.258,0.034,0.926,0.013,-0.054,0.232,0,0,0,0,0,1.892,0.000,0.000,1.000,1.000
187072,-1.089,1.031,-9.781,-0.045,0.005,0.034,0.012,-0.054,0.233,1.511,0.091,0.910,0.260,0.035,0.926,0.013,-0.054,0.232,0,0,0,0,0,1.892,0.000,0.000,1.000,1.000
187083,-1.103,1.029,-9.802,-0.047,0.005,0.034,0.012,-0.054,0.233,1.511,0.091,0.926,0.262,0.035,0.926,0.012,-0.054,0.233,0,0,0,0,0,1.892,0.000,0.000,1.000,1.000
187094,-1.101,1.012,-9.775,-0.043,0.010,0.034,0.012,-0.054,0.233,1.511,0.091,0.958,0.264,0.036,0.926,0.012,-0.054,0.233,0,0,0,0,0,1.892,0.000,0.000,1.000,1.000
187105,-1.090,1.047,-9.774,-0.042,0.012,0.032,0.011,-0.054,0.234,1.511,0.091,0.926,0.266,0.036,0.926,0.012,-0.054,0.233,0,0,0,0,0,1.892,0.000,0.000,1.000,1.000
187116,-1.092,1.023,-9.756,-0.041,0.015,0.033,0.011,-0.054,0.234,1.511,0.091,0.926,0.267,0.037,0.942,0.011,-0.054,0.234,0,0,0,0,0,1.892,0.000,0.000,1.000,1.000
187127,-1.092,1.048,-9.779,-0.042,0.017,0.032,0.010,-0.053,0.234,1.511,0.091,0.942,0.269,0.037,0.942,0.011,-0.054,0.234,0,0,0,0,0,1.892,0.000,0.000,1.000,1.000
187138,-1.084,1.032,-9.767,-0.042,0.018,0.032,0.010,-0.053,0.235,1.511,0.091,0.942,0.272,0.038,0.813,0.010,-0.053,0.234,0,0,0,0,0,1.892,0.000,0.000,1.000,1.000
187149,-1.086,1.064,-9.765,-0.041,0.021,0.029,0.009,-0.053,0.235,1.511,0.091,0.942,0.273,0.038,0.926,0.010,-0.053,0.235,0,0,0,0,0,1.892,0.000,0.000,1.000,1.000
187160,-1.089,1.046,-9.757,-0.038,0.023,0.031,0.009,-0.053,0.235,1.511,0.091,0.942,0.275,0.038,0.926,0.009,-0.053,0.235,0,0,0,0,0,1.892,0.000,0.000,1.000,1.000
187171,-1.083,1.061,-9.752,-0.037,0.026,0.031,0.009,-0.053,0.235,1.511,0.091,0.942,0.277,0.039,0.910,0.009,-0.053,0.235,0,0,0,0,0,1.892,0.000,0.000,1.000,1.000
187182,-1.072,1.074,-9.764,-0.034,0.029,0.029,0.008,-0.052,0.236,1.511,0.091,0.958,0.279,0.039,0.942,0.009,-0.053,0.235,0,0,0,0,0,1.892,0.000,0.000,1.000,1.000
187193,-1.073,1.066,-9.752,-0.034,0.032,0.028,0.008,-0.052,0.236,1.511,0.091,0.942,0.281,0.040,0.942,0.008,-0.052,0.236,0,0,0,0,0,1.892,0.000,0.000,1.000,1.000
187204,-1.058,1.080,-9.755,-0.033,0.033,0.027,0.008,-0.052,0.236,1.511,0.091,0.958,0.283,0.040,0.942,0.008,-0.052,0.236,0,0,0,0,0,1.892,0.000,0.000,1.000,1.000
187215,-1.058,1.074,-9.747,-0.032,0.035,0.028,0.007,-0.051,0.237,1.511,0.091,0.942,0.285,0.041,0.958,0.008,-0.052,0.236,0,0,0,0,0,1.892,0.000,0.000,1.000,1.000
187226,-1.062,1.082,-9.759,-0.030,0.038,0.028,0.007,-0.051,0.237,1.511,0.091,0.942,0.287,0.041,0.942,0.007,-0.051,0.237,0,0,0,0,0,1.892,0.000,0.000,1.000,1.000
187237,-1.053,1.071,-9.752,-0.028,0.040,0.027,0.007,-0.050,0.237,1.511,0.091,0.958,0.289,0.042,0.958,0.007,-0.051,0.237,0,0,0,0,0,1.892,0.000,0.000,1.000,1.000
187248,-1.046,1.086,-9.764,-0.027,0.040,0.026,0.007,-0.050,0.237,1.511,0.091,0.958,0.291,0.042,0.974,0.007,-0.050,0.237,0,0,0,0,0,1.892,0.000,0.000,1.000,1.000
187259,-1.043,1.092,-9.750,-0.026,0.044,0.027,0.006,-0.050,0.238,1.511,0.091,0.974,0.292,0.043,0.974,0.007,-0.050,0.237,0,0,0,0,0,1.892,0.000,0.000,1.000,1.000
187270,-1.035,1.099,-9.744,-0.023,0.046,0.026,0.006,-0.049,0.238,1.511,0.091,0.974,0.294,0.043,0.974,0.006,-0.050,0.238,0,0,0,0,0,1.892,0.000,0.000,1.000,1.000
187281,-1.030,1.091,-9.759,-0.021,0.048,0.023,0.006,-0.049,0.238,1.511,0.091,0.990,0.296,0.043,0.958,0.006,-0.049,0.238,0,0,0,0,0,1.892,0.000,0.000,1.000,1.000
187292,-1.023,1.104,-9.756,-0.020,0.050,0.024,0.006,-0.048,0.238,1.511,0.091,0.974,0.298,0.044,0.942,0.006,-0.049,0.238,0,0,0,0,0,1.892,0.000,0.000,1.000,1.000
187303,-1.019,1.099,-9.759,-0.019,0.050,0.023,0.005,-0.048,0.239,1.511,0.091,0.974,0.300,0.044,0.958,0.006,-0.048,0.238,0,0,0,0,0,1.892,0.000,0.000,1.000,1.000
187314,-1.009,1.114,-9.750,-0.019,0.053,0.023,0.005,-0.047,0.239,1.511,0.091,0.974,0.302,0.045,0.974,0.005,-0.048,0.239,0,0,0,0,0,1.892,0.000,0.000,1.000,1.000
187325,-1.006,1.111,-9.755,-0.016,0.054,0.023,0.005,-0.047,0.239,1.511,0.091,0.974,0.304,0.045,0.942,0.005,-0.047,0.239,0,0,0,0,0,1.892,0.000,0.000,1.000,1.000
187336,-0.994,1.114,-9.746,-0.015,0.056,0.022,0.005,-0.046,0.239,1.511,0.091,0.958,0.306,0.046,0.974,0.005,-0.047,0.239,0,0,0,0,0,1.892,0.000,0.000,1.000,1.000
187347,-1.005,1.101,-9.759,-0.014,0.056,0.021,0.005,-0.045,0.240,1.511,0.091,0.974,0.308,0.046,0.974,0.005,-0.046,0.239,0,0,0,0,0,1.892,0.000,0.000,1.000,1.000
187358,-0.995,1.109,-9.750,-0.010,0.059,0.022,0.005,-0.045,0.240,1.511,0.091,0.990,0.309,0.047,0.894,0.005,-0.045,0.240,0,0,0,0,0,1.892,0.000,0.000,1.000,1.000
187369,-0.983,1.125,-9.735,-0.009,0.060,0.022,0.005,-0.044,0.240,1.511,0.091,0.974,0.311,0.047,0.974,0.005,-0.045,0.240,0,0,0,0,0,1.892,0.000,0.000,1.000,1.000
187380,-0.974,1.107,-9.746,-0.008,0.060,0.021,0.005,-0.044,0.240,1.511,0.091,1.006,0.313,0.048,0.990,0.005,-0.044,0.240,0,0,0,0,0,1.892,0.000,0.000,1.000,1.000
187391,-0.969,1.125,-9.738,-0.006,0.062,0.021,0.005,-0.043,0.240,1.511,0.091,0.974,0.315,0.048,0.990,0.005,-0.044,0.240,0,0,0,0,0,1.892,0.000,0.000,1.000,1.000
187402,-0.960,1.116,-9.753,-0.004,0.064,0.021,0.005,-0.042,0.241,1.511,0.091,0.990,0.317,0.049,0.990,0.005,-0.043,0.240,0,0,0,0,0,1.892,0.000,0.000,1.000,1.000
187413,-0.949,1.131,-9.745,-0.003,0.064,0.018,0.005,-0.042,0.241,1.511,0.091,0.974,0.319,0.049,0.990,0.005,-0.042,0.241,0,0,0,0,0,1.892,0.000,0.000,1.000,1.000
187424,-0.948,1.113,-9.743,-0.001,0.065,0.020,0.005,-0.041,0.241,1.511,0.091,0.974,0.321,0.050,0.990,0.005,-0.042,0.241,0,0,0,0,0,1.892,0.000,0.000,1.000,1.000
187435,-0.939,1.139,-9.744,-0.001,0.066,0.018,0.005,-0.041,0.241,1.511,0.091,0.990,0.323,0.050,1.006,0.005,-0.041,0.241,0,0,0,0,0,1.892,0.000,0.000,1.000,1.000
187446,-0.934,1.144,-9.747,0.002,0.066,0.018,0.005,-0.040,0.241,1.511,0.091,1.006,0.325,0.050,0.974,0.005,-0.041,0.241,0,0,0,0,0,1.892,0.000,0.000,1.000,1.000
187457,-0.915,1.105,-9.745,0.003,0.067,0.017,0.005,-0.039,0.242,1.511,0.091,0.990,0.327,0.051,0.990,0.005,-0.040,0.241,0,0,0,0,0,1.892,0.000,0.000,1.000,1.000
187468,-0.914,1.132,-9.746,0.005,0.068,0.017,0.005,-0.038,0.242,1.511,0.091,1.023,0.328,0.051,1.006,0.005,-0.039,0.242,0,0,0,0,0,1.892,0.000,0.000,1.000,1.000
187479,-0.906,1.104,-9.744,0.006,0.068,0.017,0.005,-0.038,0.242,1.511,0.091,1.006,0.330,0.052,0.990,0.005,-0.038,0.242,0,0,0,0,0,1.892,0.000,0.000,1.000,1.000
187490,-0.895,1.134,-9.747,0.008,0.068,0.017,0.005,-0.037,0.242,1.511,0.091,1.006,0.332,0.052,1.006,0.005,-0.038,0.242,0,0,0,0,0,1.892,0.000,0.000,1.000,1.000
187501,-0.897,1.108,-9.737,0.010,0.068,0.017,0.005,-0.036,0.242,1.511,0.091,1.006,0.334,0.053,1.006,0.005,-0.037,0.242,0,0,0,0,0,1.892,0.000,0.000,1.000,1.000
187512,-0.885,1.129,-9.747,0.010,0.068,0.016,0.005,-0.036,0.242,1.511,0.091,1.006,0.336,0.053,1.006,0.005,-0.036,0.242,0,0,0,0,0,1.892,0.000,0.000,1.000,1.000
187523,-0.883,1.103,-9.740,0.010,0.066,0.016,0.005,-0.035,0.243,0.928,0.073,1.006,0.338,0.054,1.006,0.005,-0.036,0.242,0,0,0,0,0,1.892,0.000,0.000,1.000,1.000
187534,-0.866,1.101,-9.745,0.012,0.066,0.016,0.005,-0.034,0.243,0.928,0.073,1.006,0.339,0.054,1.023,0.005,-0.035,0.243,0,0,0,0,0,1.892,0.000,0.000,1.000,1.000
187545,-0.858,1.133,-9.755,0.013,0.066,0.015,0.005,-0.034,0.243,0.928,0.073,1.023,0.341,0.054,1.023,0.005,-0.034,0.243,0,0,0,0,0,1.892,0.000,0.000,1.000,1.000
187556,-0.848,1.105,-9.739,0.014,0.065,0.015,0.005,-0.033,0.243,0.928,0.073,1.006,0.343,0.055,1.006,0.005,-0.034,0.243,0,0,0,0,0,1.892,0.000,0.000,1.000,1.000
187567,-0.848,1.116,-9.747,0.014,0.065,0.013,0.005,-0.032,0.243,0.928,0.073,1.006,0.344,0.055,1.006,0.005,-0.033,0.243,0,0,0,0,0,1.892,0.000,0.000,1.000,1.000
187578,-0.847,1.101,-9.727,0.016,0.065,0.015,0.006,-0.032,0.243,0.928,0.073,1.023,0.346,0.056,1.006,0.005,-0.032,0.243,0,0,0,0,0,1.892,0.000,0.000,1.000,1.000
187589,-0.832,1.115,-9.751,0.016,0.065,0.013,0.006,-0.031,0.243,0.928,0.073,1.023,0.347,0.056,1.023,0.006,-0.032,0.243,0,0,0,0,0,1.892,0.000,0.000,1.000,1.000
187600,-0.820,1.103,-9.740,0.017,0.064,0.013,0.006,-0.031,0.244,0.928,0.073,1.006,0.349,0.056,1.023,0.006,-0.031,0.243,0,0,0,0,0,1.892,0.000,0.000,1.000,1.000
187611,-0.818,1.126,-9.750,0.018,0.061,0.012,0.006,-0.030,0.244,0.928,0.073,1.023,0.350,0.057,1.039,0.006,-0.031,0.244,0,0,0,0,0,1.892,0.000,0.000,1.000,1.000
187622,-0.805,1.109,-9.753,0.019,0.060,0.012,0.006,-0.029,0.244,0.928,0.073,1.023,0.352,0.057,1.039,0.006,-0.030,0.244,0,0,0,0,0,1.892,0.000,0.000,1.000,1.000
187633,-0.802,1.093,-9.733,0.019,0.059,0.012,0.006,-0.029,0.244,0.928,0.073,1.023,0.353,0.057,1.023,0.006,-0.029,0.244,0,0,0,0,0,1.892,0.000,0.000,1.000,1.000
187644,-0.796,1.109,-9.750,0.021,0.057,0.011,0.007,-0.028,0.244,0.928,0.073,1.023,0.355,0.058,1.023,0.006,-0.029,0.244,0,0,0,0,0,1.892,0.000,0.000,1.000,1.000
187655,-0.794,1.095,-9.738,0.021,0.057,0.012,0.007,-0.028,0.244,0.928,0.073,1.023,0.356,0.058,1.023,0.007,-0.028,0.244,0,0,0,0,0,1.892,0.000,0.000,1.000,1.000
187666,-0.788,1.099,-9.752,0.021,0.055,0.010,0.007,-0.027,0.244,0.928,0.073,1.023,0.358,0.059,1.039,0.007,-0.028,0.244,0,0,0,0,0,1.892,0.000,0.000,1.000,1.000
187677,-0.779,1.096,-9.741,0.021,0.055,0.012,0.007,-0.027,0.244,0.928,0.073,1.039,0.359,0.059,1.023,0.007,-0.027,0.244,0,0,0,0,0,1.892,0.000,0.000,1.000,1.000
187688,-0.774,1.095,-9.752,0.021,0.051,0.011,0.007,-0.026,0.244,0.928,0.073,1.023,0.361,0.059,1.039,0.007,-0.027,0.244,0,0,0,0,0,1.892,0.000,0.000,1.000,1.000
187699,-0.765,1.092,-9.738,0.019,0.050,0.010,0.008,-0.025,0.244,0.928,0.073,1.039,0.362,0.060,1.039,0.007,-0.026,0.244,0,0,0,0,0,1.892,0.000,0.000,1.000,1.000
187710,-0.761,1.087,-9.739,0.022,0.045,0.010,0.008,-0.025,0.244,0.928,0.073,1.039,0.364,0.060,1.039,0.008,-0.025,0.244,0,0,0,0,0,1.892,0.000,0.000,1.000,1.000
187721,-0.757,1.083,-9.745,0.023,0.044,0.010,0.008,-0.025,0.244,0.928,0.073,1.055,0.365,0.060,1.023,0.008,-0.025,0.244,0,0,0,0,0,1.892,0.000,0.000,1.000,1.000
187732,-0.745,1.082,-9.732,0.022,0.042,0.010,0.008,-0.024,0.244,0.928,0.073,1.039,0.367,0.061,1.039,0.008,-0.025,0.244,0,0,0,0,0,1.892,0.000,0.000,1.000,1.000
187743,-0.744,1.086,-9.756,0.022,0.040,0.009,0.009,-0.024,0.244,0.928,0.073,1.039,0.368,0.061,1.039,0.008,-0.024,0.244,0,0,0,0,0,1.892,0.000,0.000,1.000,1.000
187754,-0.739,1.084,-9.740,0.021,0.039,0.010,0.009,-0.023,0.244,0.928,0.073,1.039,0.370,0.062,1.055,0.009,-0.024,0.244,0,0,0,0,0,1.892,0.000,0.000,1.000,1.000
187765,-0.737,1.073,-9.749,0.023,0.037,0.009,0.009,-0.023,0.244,0.928,0.073,1.055,0.371,0.062,1.055,0.009,-0.023,0.244,0,0,0,0,0,1.892,0.000,0.000,1.000,1.000
187776,-0.733,1.086,-9.745,0.021,0.034,0.009,0.009,-0.023,0.244,0.928,0.073,1.039,0.373,0.062,1.055,0.009,-0.023,0.244,0,0,0,0,0,1.892,0.000,0.000,1.000,1.000
187787,-0.725,1.072,-9.756,0.021,0.032,0.009,0.009,-0.022,0.244,0.928,0.073,1.055,0.374,0.063,1.039,0.009,-0.023,0.244,0,0,0,0,0,1.892,0.000,0.000,1.000,1.000
187798,-0.726,1.060,-9.751,0.021,0.028,0.009,0.010,-0.022,0.244,0.928,0.073,1.055,0.376,0.063,1.039,0.009,-0.022,0.244,0,0,0,0,0,1.892,0.000,0.000,1.000,1.000
187809,-0.725,1.082,-9.746,0.022,0.027,0.009,0.010,-0.022,0.244,0.928,0.073,1.071,0.378,0.064,1.039,0.010,-0.022,0.244,0,0,0,0,0,1.892,0.000,0.000,1.000,1.000
187820,-0.713,1.060,-9.756,0.021,0.023,0.007,0.010,-0.022,0.244,0.928,0.073,1.055,0.379,0.064,1.071,0.010,-0.022,0.244,0,0,0,0,0,1.892,0.000,0.000,1.000,1.000
187831,-0.706,1.073,-9.749,0.021,0.021,0.009,0.010,-0.021,0.244,0.928,0.073,1.055,0.380,0.064,1.071,0.010,-0.022,0.244,0,0,0,0,0,1.892,0.000,0.000,1.000,1.000
187842,-0.712,1.047,-9.747,0.021,0.021,0.009,0.010,-0.021,0.244,0.928,0.073,1.071,0.382,0.065,1.039,0.010,-0.021,0.244,0,0,0,0,0,1.892,0.000,0.000,1.000,1.000
187853,-0.708,1.071,-9.755,0.019,0.018,0.006,0.011,-0.021,0.244,0.928,0.073,1.071,0.383,0.065,1.055,0.010,-0.021,0.244,0,0,0,0,0,1.892,0.000,0.000,1.000,1.000
187864,-0.703,1.048,-9.751,0.021,0.016,0.007,0.011,-0.021,0.244,0.928,0.073,1.071,0.384,0.065,1.071,0.011,-0.021,0.244,0,0,0,0,0,1.892,0.000,0.000,1.000,1.000
187875,-0.694,1.071,-9.761,0.019,0.013,0.006,0.011,-0.021,0.244,0.928,0.073,1.055,0.386,0.066,1.055,0.011,-0.021,0.244,0,0,0,0,0,1.892,0.000,0.000,1.000,1.000
187886,-0.703,1.066,-9.753,0.018,0.011,0.006,0.011,-0.021,0.244,0.928,0.073,1.087,0.387,0.066,1.055,0.011,-0.021,0.244,0,0,0,0,0,1.892,0.000,0.000,1.000,1.000
187897,-0.702,1.029,-9.759,0.018,0.009,0.007,0.011,-0.021,0.244,0.928,0.073,1.055,0.389,0.066,1.071,0.011,-0.021,0.244,0,0,0,0,0,1.892,0.000,0.000,1.000,1.000
187908,-0.701,1.053,-9.750,0.018,0.007,0.006,0.012,-0.021,0.244,0.928,0.073,1.071,0.390,0.067,1.071,0.011,-0.021,0.244,0,0,0,0,0,1.892,0.000,0.000,1.000,1.000
187919,-0.699,1.032,-9.743,0.017,0.005,0.006,0.012,-0.021,0.244,0.928,0.073,1.071,0.392,0.067,1.071,0.012,-0.021,0.244,0,0,0,0,0,1.892,0.000,0.000,1.000,1.000
187930,-0.698,1.066,-9.753,0.017,0.002,0.006,0.012,-0.021,0.244,0.928,0.073,1.071,0.393,0.067,1.071,0.012,-0.021,0.244,0,0,0,0,0,1.892,0.000,0.000,1.000,1.000
187941,-0.693,1.036,-9.751,0.014,0.000,0.005,0.012,-0.021,0.244,0.928,0.073,1.087,0.395,0.068,1.087,0.012,-0.021,0.244,0,0,0,0,0,1.892,0.000,0.000,1.000,1.000
187952,-0.686,1.062,-9.763,0.016,-0.001,0.004,0.012,-0.021,0.244,0.928,0.073,1.087,0.396,0.068,1.087,0.012,-0.021,0.244,0,0,0,0,0,1.892,0.000,0.000,1.000,1.000
187963,-0.696,1.026,-9.746,0.016,-0.002,0.005,0.012,-0.021,0.244,0.928,0.073,1.071,0.398,0.069,1.087,0.012,-0.021,0.244,0,0,0,0,0,1.892,0.000,0.000,1.000,1.000
187974,-0.688,1.023,-9.746,0.014,-0.007,0.005,0.012,-0.021,0.244,0.928,0.073,1.087,0.399,0.069,1.071,0.012,-0.021,0.244,0,0,0,0,0,1.892,0.000,0.000,1.000,1.000
187985,-0.695,1.046,-9.757,0.014,-0.009,0.005,0.013,-0.021,0.244,0.928,0.073,1.087,0.401,0.069,1.071,0.012,-0.021,0.244,0,0,0,0,0,1.892,0.000,0.000,1.000,1.000
187996,-0.703,1.024,-9.747,0.014,-0.010,0.005,0.013,-0.021,0.244,0.928,0.073,1.071,0.402,0.070,1.087,0.013,-0.021,0.244,0,0,0,0,0,1.892,0.000,0.000,1.000,1.000
188007,-0.701,1.047,-9.747,0.013,-0.010,0.005,0.013,-0.021,0.244,0.928,0.073,1.087,0.404,0.070,1.087,0.013,-0.021,0.244,0,0,0,0,0,1.892,0.000,0.000,1.000,1.000
188018,-0.696,1.029,-9.751,0.012,-0.012,0.004,0.013,-0.021,0.244,0.928,0.073,1.087,0.405,0.071,1.087,0.013,-0.021,0.244,0,0,0,0,0,1.892,0.000,0.000,1.000,1.000
188029,-0.695,1.044,-9.762,0.012,-0.013,0.004,0.013,-0.021,0.244,0.928,0.073,1.071,0.407,0.071,1.087,0.013,-0.021,0.244,0,0,0,0,0,1.892,0.000,0.000,1.000,1.000
188040,-0.706,1.023,-9.741,0.010,-0.016,0.005,0.013,-0.021,0.244,0.928,0.073,1.087,0.408,0.071,1.087,0.013,-0.021,0.244,0,0,0,0,0,1.892,0.000,0.000,1.000,1.000
188051,-0.698,1.044,-9.753,0.012,-0.017,0.004,0.013,-0.021,0.244,0.928,0.073,1.103,0.410,0.072,1.103,0.013,-0.021,0.244,0,0,0,0,0,1.892,0.000,0.000,1.000,1.000
188062,-0.703,1.035,-9.755,0.010,-0.018,0.004,0.013,-0.021,0.244,0.928,0.073,1.103,0.411,0.072,1.103,0.013,-0.021,0.244,0,0,0,0,0,1.892,0.000,0.000,1.000,1.000
188073,-0.706,1.022,-9.739,0.008,-0.022,0.004,0.013,-0.022,0.244,0.928,0.073,1.103,0.413,0.072,1.119,0.013,-0.021,0.244,0,0,0,0,0,1.892,0.000,0.000,1.000,1.000
188084,-0.702,1.038,-9.768,0.010,-0.023,0.002,0.013,-0.022,0.244,0.928,0.073,1.087,0.414,0.073,1.087,0.013,-0.022,0.244,0,0,0,0,0,1.892,0.000,0.000,1.000,1.000
188095,-0.702,1.022,-9.747,0.008,-0.024,0.004,0.013,-0.022,0.244,0.928,0.073,1.103,0.416,0.073,1.103,0.013,-0.022,0.244,0,0,0,0,0,1.892,0.000,0.000,1.000,1.000
188106,-0.703,1.032,-9.752,0.008,-0.026,0.002,0.013,-0.022,0.244,0.928,0.073,1.103,0.417,0.074,1.087,0.013,-0.022,0.244,0,0,0,0,0,1.892,0.000,0.000,1.000,1.000
188117,-0.720,1.023,-9.734,0.008,-0.028,0.004,0.013,-0.023,0.244,0.928,0.073,1.103,0.419,0.074,1.103,0.013,-0.022,0.244,0,0,0,0,0,1.892,0.000,0.000,1.000,1.000
188128,-0.723,1.032,-9.755,0.008,-0.029,0.002,0.013,-0.023,0.244,0.928,0.073,1.103,0.421,0.074,1.103,0.013,-0.023,0.244,0,0,0,0,0,1.892,0.000,0.000,1.000,1.000
188139,-0.711,1.022,-9.738,0.006,-0.032,0.004,0.013,-0.023,0.244,0.928,0.073,1.119,0.422,0.075,1.103,0.013,-0.023,0.244,0,0,0,0,0,1.892,0.000,0.000,1.000,1.000
188150,-0.723,1.020,-9.741,0.008,-0.033,0.004,0.013,-0.024,0.244,0.928,0.073,1.119,0.423,0.075,1.103,0.013,-0.023,0.244,0,0,0,0,0,1.892,0.000,0.000,1.000,1.000
188161,-0.725,1.023,-9.750,0.006,-0.034,0.002,0.013,-0.024,0.244,0.928,0.073,1.119,0.425,0.075,1.119,0.013,-0.024,0.244,0,0,0,0,0,1.892,0.000,0.000,1.000,1.000
188172,-0.723,1.018,-9.745,0.006,-0.035,0.002,0.013,-0.024,0.244,0.928,0.073,1.103,0.426,0.076,1.119,0.013,-0.024,0.244,0,0,0,0,0,1.892,0.000,0.000,1.000,1.000
188183,-0.730,1.018,-9.752,0.005,-0.037,0.001,0.013,-0.025,0.244,0.928,0.073,1.119,0.428,0.076,1.103,0.013,-0.024,0.244,0,0,0,0,0,1.892,0.000,0.000,1.000,1.000
188194,-0.742,1.030,-9.739,0.003,-0.038,0.002,0.013,-0.025,0.244,0.928,0.073,1.103,0.430,0.077,1.119,0.013,-0.025,0.244,0,0,0,0,0,1.892,0.000,0.000,1.000,1.000
188205,-0.738,1.015,-9.763,0.005,-0.039,0.001,0.013,-0.025,0.244,0.928,0.073,1.119,0.431,0.077,1.103,0.013,-0.025,0.244,0,0,0,0,0,1.892,0.000,0.000,1.000,1.000
188216,-0.743,1.017,-9.745,0.005,-0.040,0.001,0.013,-0.026,0.244,0.928,0.073,1.119,0.433,0.077,1.103,0.013,-0.025,0.244,0,0,0,0,0,1.892,0.000,0.000,1.000,1.000
188227,-0.743,1.016,-9.758,0.003,-0.042,0.001,0.013,-0.026,0.244,0.928,0.073,1.119,0.434,0.078,1.135,0.013,-0.026,0.244,0,0,0,0,0,1.892,0.000,0.000,1.000,1.000
188238,-0.749,1.025,-9.747,0.002,-0.043,0.002,0.013,-0.027,0.244,0.928,0.073,1.119,0.436,0.078,1.135,0.013,-0.026,0.244,0,0,0,0,0,1.892,0.000,0.000,1.000,1.000
188249,-0.756,1.019,-9.746,0.003,-0.043,0.004,0.013,-0.027,0.244,0.928,0.073,1.119,0.437,0.078,1.135,0.013,-0.027,0.244,0,0,0,0,0,1.892,0.000,0.000,1.000,1.000
188260,-0.760,1.010,-9.749,0.003,-0.042,0.001,0.013,-0.027,0.244,0.928,0.073,1.135,0.439,0.079,1.119,0.013,-0.027,0.244,0,0,0,0,0,1.892,0.000,0.000,1.000,1.000
188271,-0.769,1.026,-9.747,0.002,-0.044,0.002,0.013,-0.028,0.244,0.928,0.073,1.119,0.440,0.079,1.135,0.013,-0.027,0.244,0,0,0,0,0,1.892,0.000,0.000,1.000,1.000
188282,-0.767,1.011,-9.750,0.002,-0.045,0.001,0.013,-0.028,0.244,0.928,0.073,1.135,0.442,0.080,1.135,0.013,-0.028,0.244,0,0,0,0,0,1.892,0.000,0.000,1.000,1.000
188293,-0.773,1.032,-9.743,0.002,-0.045,0.000,0.013,-0.029,0.244,0.928,0.073,1.103,0.443,0.080,1.152,0.013,-0.028,0.244,0,0,0,0,0,1.892,0.000,0.000,1.000,1.000
188304,-0.787,1.015,-9.743,0.001,-0.046,0.000,0.013,-0.029,0.244,0.928,0.073,1.152,0.445,0.080,1.135,0.013,-0.029,0.244,0,0,0,0,0,1.892,0.000,0.000,1.000,1.000
188315,-0.778,1.042,-9.751,0.001,-0.046,0.001,0.013,-0.030,0.244,0.928,0.073,1.135,0.446,0.081,1.135,0.013,-0.029,0.244,0,0,0,0,0,1.892,0.000,0.000,1.000,1.000
188326,-0.784,1.011,-9.755,0.001,-0.045,0.001,0.013,-0.030,0.244,0.928,0.073,1.152,0.448,0.081,1.152,0.013,-0.030,0.244,0,0,0,0,0,1.892,0.000,0.000,1.000,1.000
188337,-0.797,1.009,-9.749,-0.000,-0.046,0.001,0.013,-0.031,0.244,0.928,0.073,1.135,0.449,0.082,1.135,0.013,-0.030,0.244,0,0,0,0,0,1.892,0.000,0.000,1.000,1.000
188348,-0.792,1.040,-9.750,0.002,-0.046,0.000,0.013,-0.031,0.244,0.928,0.073,1.135,0.451,0.082,1.152,0.013,-0.031,0.244,0,0,0,0,0,1.892,0.000,0.000,1.000,1.000
188359,-0.799,1.010,-9.743,0.001,-0.048,0.000,0.013,-0.032,0.244,0.928,0.073,1.152,0.452,0.082,1.135,0.013,-0.031,0.244,0,0,0,0,0,1.892,0.000,0.000,1.000,1.000
188370,-0.811,1.032,-9.750,-0.000,-0.046,0.000,0.013,-0.032,0.244,0.928,0.073,1.135,0.454,0.083,1.152,0.013,-0.032,0.244,0,0,0,0,0,1.892,0.000,0.000,1.000,1.000
188381,-0.814,1.015,-9.745,-0.000,-0.048,0.000,0.013,-0.033,0.244,0.928,0.073,1.152,0.455,0.083,1.152,0.013,-0.032,0.244,0,0,0,0,0,1.892,0.000,0.000,1.000,1.000
188392,-0.811,1.036,-9.750,0.001,-0.048,-0.001,0.013,-0.033,0.244,0.928,0.073,1.152,0.457,0.083,1.119,0.013,-0.033,0.244,0,0,0,0,0,1.892,0.000,0.000,1.000,1.000
188403,-0.812,1.010,-9.751,0.001,-0.048,0.000,0.013,-0.033,0.244,0.928,0.073,1.152,0.458,0.084,1.152,0.013,-0.033,0.244,0,0,0,0,0,1.892,0.000,0.000,1.000,1.000
188414,-0.820,1.034,-9.749,-0.000,-0.048,0.000,0.013,-0.034,0.244,0.928,0.073,1.152,0.460,0.084,1.135,0.013,-0.033,0.244,0,0,0,0,0,1.892,0.000,0.000,1.000,1.000
188425,-0.830,1.047,-9.761,-0.000,-0.045,-0.001,0.013,-0.034,0.244,0.928,0.073,1.168,0.461,0.085,1.152,0.013,-0.034,0.244,0,0,0,0,0,1.892,0.000,0.000,1.000,1.000
188436,-0.836,1.006,-9.739,-0.001,-0.045,0.000,0.013,-0.035,0.244,0.928,0.073,1.152,0.463,0.085,1.152,0.013,-0.034,0.244,0,0,0,0,0,1.892,0.000,0.000,1.000,1.000
188447,-0.837,1.035,-9.745,-0.000,-0.045,-0.001,0.013,-0.035,0.244,0.928,0.073,1.168,0.465,0.085,1.152,0.013,-0.035,0.244,0,0,0,0,0,1.892,0.000,0.000,1.000,1.000
188458,-0.846,1.015,-9.753,-0.000,-0.045,-0.001,0.013,-0.036,0.244,0.928,0.073,1.168,0.466,0.086,1.152,0.013,-0.035,0.244,0,0,0,0,0,1.892,0.000,0.000,1.000,1.000
188469,-0.855,1.040,-9.752,-0.001,-0.045,-0.001,0.013,-0.036,0.244,0.928,0.073,1.184,0.467,0.086,1.152,0.013,-0.036,0.244,0,0,0,0,0,1.892,0.000,0.000,1.000,1.000
188480,-0.858,1.001,-9.738,-0.003,-0.045,0.000,0.013,-0.037,0.244,0.928,0.073,1.152,0.469,0.086,1.168,0.013,-0.036,0.244,0,0,0,0,0,1.892,0.000,0.000,1.000,1.000
188491,-0.860,1.026,-9.753,-0.000,-0.045,-0.002,0.013,-0.037,0.244,0.928,0.073,1.168,0.470,0.087,1.184,0.013,-0.037,0.244,0,0,0,0,0,1.892,0.000,0.000,1.000,1.000
188502,-0.867,1.013,-9.740,-0.000,-0.044,0.000,0.013,-0.038,0.244,0.928,0.073,1.184,0.472,0.087,1.152,0.013,-0.037,0.244,0,0,0,0,0,1.892,0.000,0.000,1.000,1.000
188513,-0.869,1.010,-9.739,-0.001,-0.043,0.001,0.013,-0.038,0.244,0.928,0.073,1.168,0.474,0.088,1.152,0.013,-0.038,0.244,0,0,0,0,0,1.892,0.000,0.000,1.000,1.000
188524,-0.872,1.026,-9.757,-0.001,-0.043,-0.001,0.013,-0.038,0.244,0.928,0.073,1.168,0.475,0.088,1.216,0.013,-0.038,0.244,0,0,0,0,0,1.892,0.000,0.000,1.000,1.000
188535,-0.877,1.019,-9.737,-0.003,-0.042,0.001,0.013,-0.039,0.244,0.928,0.073,1.152,0.477,0.088,1.168,0.013,-0.038,0.244,0,0,0,0,0,1.892,0.000,0.000,1.000,1.000
188546,-0.883,1.037,-9.751,-0.000,-0.040,-0.001,0.013,-0.039,0.244,0.928,0.073,1.184,0.478,0.089,1.184,0.013,-0.039,0.244,0,0,0,0,0,1.892,0.000,0.000,1.000,1.000
188557,-0.893,1.023,-9.739,-0.003,-0.040,0.000,0.013,-0.040,0.244,0.928,0.073,1.168,0.479,0.089,1.168,0.013,-0.039,0.244,0,0,0,0,0,1.892,0.000,0.000,1.000,1.000
188568,-0.895,1.036,-9.757,-0.001,-0.039,-0.001,0.013,-0.040,0.244,0.928,0.073,1.168,0.481,0.089,1.168,0.013,-0.040,0.244,0,0,0,0,0,1.892,0.000,0.000,1.000,1.000
188579,-0.889,1.019,-9.744,-0.001,-0.038,0.000,0.013,-0.040,0.244,0.928,0.073,1.200,0.483,0.090,1.200,0.013,-0.040,0.244,0,0,0,0,0,1.892,0.000,0.000,1.000,1.000
