Time, Accel X [mg],Accel Y [mg],Accel Z [mg],dRoll [deg/s],dPitch [deg/s],dHeading [deg/s],Roll [deg],Pitch [deg],Yaw [deg],Frequency Reader Frequency [Hz], Calibrated Velocity [m/s],Pressure Sensor Depth [m],State Estimator X [m],State Estimator Y [m],State Estimator Z [m],State Estimator Roll [rad],State Estimator Pitch [rad],State Estimator Yaw [rad],Motor A, Motor B, Motor C, Motor D, Motor E,Servo Angle [rad],Waypoint X [m], Waypoint Y [m], Waypoint Z [m], Waiting [bool]
184552,-0.500,0.814,-9.798,-0.011,0.002,-0.017,-0.000,0.000,-0.000,0.003,0.044,0.781,0.001,0.000,0.781,0.000,0.000,0.000,0,0,224,0,224,0.725,0.000,0.000,1.000,0.000
184563,-0.506,0.806,-9.788,-0.009,0.001,-0.018,-0.000,0.000,-0.000,0.003,0.044,0.781,0.002,0.000,0.781,-0.000,0.000,-0.000,0,0,224,0,224,0.725,0.000,0.000,1.000,0.000
184574,-0.528,0.831,-9.623,-0.010,-0.004,-0.016,-0.000,0.000,-0.001,0.003,0.044,0.781,0.003,0.000,0.765,-0.000,0.000,-0.000,0,0,238,0,238,0.725,0.000,0.000,1.000,0.000
184585,-0.337,0.955,-9.237,-0.003,0.010,-0.007,-0.000,0.000,-0.001,0.003,0.044,0.797,0.004,0.000,0.781,-0.000,0.000,-0.001,0,0,224,0,224,0.725,0.000,0.000,1.000,0.000
184596,-0.464,0.909,-9.549,0.011,0.012,0.013,-0.000,0.000,-0.000,0.003,0.044,0.765,0.005,0.000,0.748,-0.000,0.000,-0.001,0,0,242,0,242,0.725,0.000,0.000,1.000,0.000
184607,-0.479,0.770,-9.633,0.006,0.018,0.024,-0.000,0.000,-0.000,0.003,0.044,0.781,0.006,0.000,0.781,-0.000,0.000,-0.000,0,0,224,0,224,0.725,0.000,0.000,1.000,0.000
184618,-0.414,0.859,-9.404,0.003,0.020,0.026,-0.000,0.001,0.000,0.003,0.044,0.765,0.007,0.000,0.781,-0.000,0.000,-0.000,0,0,224,0,224,0.725,0.000,0.000,1.000,0.000
184629,-0.357,0.861,-9.361,0.012,0.045,0.048,0.000,0.001,0.001,0.003,0.044,0.781,0.007,0.000,0.781,-0.000,0.001,0.000,0,0,224,0,224,0.725,0.000,0.000,1.000,0.000
184640,-0.324,0.891,-9.308,0.025,0.045,0.062,0.000,0.001,0.001,0.003,0.044,0.797,0.008,0.000,0.781,0.000,0.001,0.001,0,0,224,0,224,1.892,0.000,0.000,1.000,0.000
184651,-0.581,0.846,-9.578,0.039,0.057,0.075,0.001,0.002,0.002,0.003,0.044,0.765,0.009,0.000,0.781,0.000,0.001,0.001,0,0,224,0,224,1.892,0.000,0.000,1.000,0.000
184662,-0.291,0.729,-9.472,0.047,0.070,0.088,0.001,0.003,0.003,0.003,0.044,0.781,0.010,0.000,0.797,0.001,0.002,0.002,0,0,210,0,210,1.892,0.000,0.000,1.000,0.000
184673,-0.534,0.836,-9.514,0.054,0.079,0.105,0.002,0.003,0.004,0.003,0.044,0.748,0.011,0.000,0.765,0.001,0.003,0.003,0,0,238,0,238,1.892,0.000,0.000,1.000,0.000
184684,-0.342,0.737,-9.185,0.061,0.075,0.109,0.002,0.004,0.005,0.003,0.044,0.781,0.012,0.000,0.797,0.002,0.003,0.004,0,0,210,0,210,1.892,0.000,0.000,1.000,0.000
184695,-0.592,0.787,-9.465,0.060,0.065,0.097,0.003,0.005,0.006,0.003,0.044,0.781,0.013,0.000,0.765,0.002,0.004,0.005,0,0,238,0,238,1.892,0.000,0.000,1.000,0.000
184706,-0.599,0.680,-9.312,0.049,0.065,0.093,0.003,0.006,0.007,0.003,0.044,0.781,0.014,0.000,0.765,0.003,0.005,0.006,0,0,238,0,238,1.892,0.000,0.000,1.000,0.000
184717,-0.430,0.773,-9.339,0.039,0.038,0.072,0.004,0.006,0.008,0.003,0.044,0.781,0.015,0.000,0.765,0.003,0.006,0.007,0,0,238,0,238,1.892,0.000,0.000,1.000,0.000
184728,-0.553,0.699,-9.180,0.034,0.032,0.065,0.004,0.006,0.008,0.003,0.044,0.781,0.016,0.000,0.781,0.004,0.006,0.008,0,0,224,0,224,1.892,0.000,0.000,1.000,0.000
184739,-0.597,0.640,-9.170,0.025,0.000,0.046,0.004,0.006,0.009,0.003,0.044,0.781,0.017,0.000,0.781,0.004,0.006,0.008,0,0,224,0,224,1.892,0.000,0.000,1.000,0.000
184750,-0.724,0.630,-9.402,0.027,-0.023,0.015,0.005,0.006,0.009,0.003,0.044,0.797,0.018,0.000,0.765,0.004,0.006,0.009,0,0,238,0,238,1.892,0.000,0.000,1.000,0.000
184761,-0.546,0.579,-9.311,0.040,-0.084,-0.049,0.005,0.005,0.008,0.003,0.044,0.781,0.019,0.000,0.781,0.005,0.006,0.009,0,0,224,0,224,1.892,0.000,0.000,1.000,0.000
184772,-0.574,0.663,-9.336,0.039,-0.099,-0.067,0.005,0.004,0.008,0.003,0.044,0.765,0.020,0.000,0.781,0.005,0.005,0.008,0,0,224,0,224,1.892,0.000,0.000,1.000,0.000
184783,-0.568,0.681,-9.347,0.030,-0.109,-0.079,0.006,0.003,0.007,0.003,0.044,0.781,0.021,0.000,0.781,0.005,0.004,0.008,0,0,224,0,224,1.892,0.000,0.000,1.000,0.000
184794,-0.464,0.806,-9.463,0.025,-0.127,-0.094,0.006,0.002,0.006,0.003,0.044,0.781,0.022,0.000,0.781,0.006,0.003,0.007,0,0,224,0,224,1.892,0.000,0.000,1.000,0.000
184805,-0.559,0.647,-9.432,0.024,-0.130,-0.094,0.006,0.000,0.005,0.003,0.044,0.781,0.023,0.000,0.797,0.006,0.002,0.006,0,0,210,0,210,1.892,0.000,0.000,1.000,0.000
184816,-0.531,0.796,-9.625,0.022,-0.134,-0.101,0.007,-0.001,0.004,0.003,0.044,0.813,0.024,0.000,0.813,0.006,0.000,0.005,0,0,197,0,197,1.892,0.000,0.000,1.000,0.000
184827,-0.443,0.758,-9.508,0.030,-0.136,-0.098,0.007,-0.002,0.003,0.003,0.044,0.813,0.025,0.000,0.781,0.007,-0.001,0.004,0,0,224,0,224,0.725,0.000,0.000,1.000,0.000
184838,-0.574,0.668,-9.584,0.024,-0.127,-0.092,0.007,-0.003,0.002,0.003,0.044,0.781,0.025,0.000,0.797,0.007,-0.002,0.003,0,0,210,0,210,0.725,0.000,0.000,1.000,0.000
184849,-0.548,0.714,-9.573,0.027,-0.120,-0.083,0.007,-0.005,0.001,0.003,0.044,0.781,0.026,0.000,0.797,0.007,-0.003,0.002,0,0,210,0,210,0.725,0.000,0.000,1.000,0.000
184860,-0.467,0.821,-9.720,0.025,-0.109,-0.077,0.008,-0.006,0.001,0.003,0.044,0.797,0.027,0.000,0.797,0.007,-0.005,0.001,0,0,210,0,210,0.725,0.000,0.000,1.000,0.000
184871,-0.434,0.882,-9.637,0.028,-0.103,-0.062,0.008,-0.007,-0.000,0.003,0.044,0.797,0.028,0.000,0.797,0.008,-0.006,0.001,0,0,210,0,210,0.725,0.000,0.000,1.000,0.000
184882,-0.473,0.848,-9.728,0.025,-0.078,-0.038,0.008,-0.008,-0.000,0.003,0.044,0.797,0.029,0.000,0.813,0.008,-0.007,-0.000,0,0,197,0,197,0.725,0.000,0.000,1.000,0.000
184893,-0.424,0.894,-9.665,0.028,-0.070,-0.022,0.008,-0.008,-0.001,0.003,0.044,0.797,0.030,0.000,0.797,0.008,-0.008,-0.000,0,0,210,0,210,0.725,0.000,0.000,1.000,0.000
184904,-0.537,0.857,-9.841,0.022,-0.050,0.001,0.009,-0.009,-0.001,0.003,0.044,0.813,0.031,0.000,0.781,0.008,-0.008,-0.001,0,0,224,0,224,0.725,0.000,0.000,1.000,0.000
184915,-0.376,0.909,-9.684,0.008,-0.023,0.024,0.009,-0.009,-0.000,0.003,0.044,0.813,0.032,0.000,0.813,0.009,-0.009,-0.001,0,0,197,0,197,0.725,0.000,0.000,1.000,0.000
184926,-0.424,0.843,-9.744,0.012,-0.010,0.050,0.009,-0.009,0.000,0.003,0.044,0.829,0.033,0.000,0.797,0.009,-0.009,-0.000,0,0,210,0,210,0.725,0.000,0.000,1.000,0.000
184937,-0.397,0.837,-9.768,0.018,0.039,0.099,0.009,-0.009,0.001,0.003,0.044,0.829,0.034,0.000,0.813,0.009,-0.009,0.000,0,0,197,0,197,0.725,0.000,0.000,1.000,0.000
184948,-0.525,0.752,-9.856,0.021,0.054,0.120,0.009,-0.008,0.002,0.003,0.044,0.829,0.035,0.000,0.813,0.009,-0.009,0.001,0,0,197,0,197,0.725,0.000,0.000,1.000,0.000
184959,-0.455,0.866,-9.642,0.013,0.075,0.136,0.009,-0.007,0.004,0.003,0.044,0.813,0.036,0.000,0.813,0.009,-0.008,0.002,0,0,197,0,197,0.725,0.000,0.000,1.000,0.000
184970,-0.476,0.723,-9.740,0.017,0.082,0.150,0.009,-0.007,0.005,0.003,0.044,0.813,0.037,0.000,0.813,0.009,-0.007,0.004,0,0,197,0,197,1.892,0.000,0.000,1.000,0.000
184981,-0.510,0.839,-9.786,0.018,0.099,0.164,0.010,-0.006,0.007,0.003,0.044,0.813,0.038,0.000,0.813,0.009,-0.007,0.005,0,0,197,0,197,1.892,0.000,0.000,1.000,0.000
184992,-0.465,0.675,-9.732,0.021,0.098,0.175,0.010,-0.005,0.008,0.003,0.044,0.813,0.039,0.000,0.845,0.010,-0.006,0.007,0,0,168,0,168,1.892,0.000,0.000,1.000,0.000
185003,-0.552,0.721,-9.860,0.024,0.110,0.181,0.010,-0.003,0.010,0.003,0.044,0.829,0.040,0.000,0.813,0.010,-0.005,0.008,0,0,197,0,197,1.892,0.000,0.000,1.000,0.000
185014,-0.572,0.599,-9.427,0.023,0.103,0.178,0.010,-0.002,0.012,0.003,0.044,0.813,0.041,0.000,0.813,0.010,-0.003,0.010,0,0,197,0,197,1.892,0.000,0.000,1.000,0.000
185025,-0.518,0.642,-9.397,0.021,0.093,0.148,0.010,-0.001,0.014,0.003,0.044,0.813,0.042,0.000,0.813,0.010,-0.002,0.012,0,0,197,0,197,1.892,0.000,0.000,1.000,0.000
185036,-0.633,0.587,-9.624,0.016,0.060,0.133,0.011,-0.001,0.015,0.003,0.044,0.829,0.043,0.000,0.813,0.010,-0.001,0.014,0,0,197,0,197,1.892,0.000,0.000,1.000,0.000
185047,-0.738,0.628,-9.548,0.002,0.051,0.111,0.011,-0.000,0.016,0.003,0.044,0.829,0.043,0.000,0.813,0.011,-0.001,0.015,0,0,197,0,197,1.892,0.000,0.000,1.000,0.000
185058,-0.676,0.461,-9.502,0.007,0.013,0.087,0.011,-0.000,0.017,0.003,0.044,0.797,0.044,0.000,0.829,0.011,-0.000,0.016,0,0,182,0,182,1.892,0.000,0.000,1.000,0.000
185069,-0.866,0.476,-9.771,0.013,-0.013,0.044,0.011,-0.000,0.017,0.003,0.044,0.845,0.045,0.000,0.829,0.011,-0.000,0.017,0,0,182,0,182,1.892,0.000,0.000,1.000,0.000
185080,-0.648,0.532,-9.411,0.010,-0.051,0.007,0.011,-0.001,0.017,0.003,0.044,0.813,0.046,0.000,0.829,0.011,-0.000,0.017,0,0,182,0,182,1.892,0.000,0.000,1.000,0.000
185091,-0.589,0.505,-9.536,0.012,-0.073,-0.017,0.011,-0.002,0.017,0.003,0.044,0.829,0.047,0.000,0.813,0.011,-0.001,0.017,0,0,197,0,197,1.892,0.000,0.000,1.000,0.000
185102,-0.662,0.657,-9.637,0.008,-0.089,-0.044,0.011,-0.003,0.017,0.003,0.044,0.845,0.048,0.000,0.829,0.011,-0.002,0.017,0,0,182,0,182,1.892,0.000,0.000,1.000,0.000
185113,-0.519,0.645,-9.712,0.006,-0.115,-0.071,0.011,-0.004,0.016,0.003,0.044,0.813,0.049,0.000,0.829,0.011,-0.003,0.017,0,0,182,0,182,1.892,0.000,0.000,1.000,0.000
185124,-0.580,0.672,-9.788,-0.000,-0.122,-0.072,0.011,-0.005,0.015,0.003,0.044,0.845,0.050,0.000,0.829,0.011,-0.004,0.016,0,0,182,0,182,1.892,0.000,0.000,1.000,0.000
185135,-0.500,0.745,-9.670,0.006,-0.112,-0.071,0.011,-0.006,0.015,0.003,0.044,0.845,0.051,0.000,0.845,0.011,-0.005,0.015,0,0,168,0,168,1.892,0.000,0.000,1.000,0.000
185146,-0.571,0.668,-9.909,0.011,-0.116,-0.068,0.011,-0.007,0.014,0.003,0.044,0.829,0.052,0.000,0.861,0.011,-0.006,0.015,0,0,154,0,154,1.892,0.000,0.000,1.000,0.000
185157,-0.575,0.648,-9.674,0.011,-0.103,-0.067,0.011,-0.008,0.013,0.003,0.044,0.861,0.053,0.000,0.829,0.011,-0.007,0.014,0,0,182,0,182,1.892,0.000,0.000,1.000,0.000
185168,-0.604,0.700,-10.000,0.014,-0.110,-0.070,0.011,-0.009,0.012,0.003,0.044,0.845,0.054,0.000,0.845,0.011,-0.008,0.013,0,0,168,0,168,1.892,0.000,0.000,1.000,0.000
185179,-0.589,0.645,-9.630,0.012,-0.103,-0.068,0.011,-0.010,0.012,0.003,0.044,0.845,0.055,0.000,0.845,0.011,-0.009,0.012,0,0,168,0,168,1.892,0.000,0.000,1.000,0.000
185190,-0.677,0.618,-9.886,0.016,-0.109,-0.076,0.012,-0.011,0.011,0.003,0.044,0.861,0.056,0.000,0.877,0.011,-0.010,0.012,0,0,140,0,140,1.892,0.000,0.000,1.000,0.000
185201,-0.653,0.602,-9.932,0.030,-0.105,-0.077,0.012,-0.012,0.010,0.003,0.044,0.845,0.057,0.000,0.845,0.012,-0.011,0.011,0,0,168,0,168,1.892,0.000,0.000,1.000,0.000
185212,-0.610,0.697,-9.847,0.034,-0.098,-0.079,0.012,-0.013,0.009,0.003,0.044,0.877,0.058,0.000,0.877,0.012,-0.012,0.010,0,0,140,0,140,1.892,0.000,0.000,1.000,0.000
185223,-0.656,0.707,-9.934,0.033,-0.098,-0.076,0.012,-0.014,0.009,0.003,0.044,0.861,0.059,0.000,0.861,0.012,-0.013,0.009,0,0,154,0,154,1.892,0.000,0.000,1.000,0.000
185234,-0.542,0.750,-9.727,0.024,-0.082,-0.072,0.013,-0.015,0.008,0.003,0.044,0.877,0.060,0.000,0.861,0.012,-0.014,0.009,0,0,154,0,154,1.892,0.000,0.000,1.000,0.000
185245,-0.735,0.685,-9.871,0.025,-0.086,-0.065,0.013,-0.016,0.007,0.003,0.044,0.877,0.060,0.000,0.877,0.013,-0.015,0.008,0,0,140,0,140,1.892,0.000,0.000,1.000,0.000
185256,-0.627,0.696,-9.869,0.028,-0.073,-0.065,0.013,-0.017,0.007,0.003,0.044,0.861,0.061,0.000,0.877,0.013,-0.016,0.007,0,0,140,0,140,1.892,0.000,0.000,1.000,0.000
185267,-0.641,0.720,-9.964,0.019,-0.067,-0.057,0.013,-0.017,0.006,0.003,0.044,0.845,0.062,0.000,0.877,0.013,-0.017,0.007,0,0,140,0,140,0.725,0.000,0.000,1.000,0.000
185278,-0.615,0.681,-9.769,0.013,-0.060,-0.053,0.014,-0.018,0.006,0.003,0.044,0.877,0.063,0.000,0.894,0.013,-0.017,0.006,0,0,126,0,126,0.725,0.000,0.000,1.000,0.000
185289,-0.646,0.666,-9.865,0.022,-0.045,-0.050,0.014,-0.019,0.005,0.003,0.044,0.861,0.064,0.000,0.861,0.014,-0.018,0.006,0,0,154,0,154,0.725,0.000,0.000,1.000,0.000
185300,-0.663,0.683,-9.844,0.016,-0.044,-0.046,0.014,-0.019,0.005,0.003,0.044,0.877,0.065,0.000,0.894,0.014,-0.019,0.005,0,0,126,0,126,0.725,0.000,0.000,1.000,0.000
185311,-0.701,0.668,-9.907,0.021,-0.039,-0.042,0.014,-0.019,0.004,0.003,0.044,0.894,0.066,0.000,0.877,0.014,-0.019,0.005,0,0,140,0,140,0.725,0.000,0.000,1.000,0.000
185322,-0.574,0.837,-9.891,0.012,-0.024,-0.032,0.014,-0.020,0.004,0.003,0.044,0.877,0.067,0.000,0.894,0.014,-0.019,0.004,0,0,126,0,126,0.725,0.000,0.000,1.000,0.000
185333,-0.670,0.676,-9.812,0.002,-0.015,-0.020,0.014,-0.020,0.004,0.003,0.044,0.894,0.068,0.000,0.861,0.014,-0.020,0.004,0,0,154,0,154,0.725,0.000,0.000,1.000,0.000
185344,-0.638,0.782,-9.926,0.010,-0.010,-0.016,0.014,-0.020,0.004,0.003,0.044,0.894,0.069,0.000,0.894,0.014,-0.020,0.004,0,0,126,0,126,0.725,0.000,0.000,1.000,0.000
185355,-0.676,0.842,-10.051,-0.009,0.006,0.000,0.014,-0.020,0.004,0.003,0.044,0.877,0.070,0.000,0.894,0.014,-0.020,0.004,0,0,126,0,126,0.725,0.000,0.000,1.000,0.000
185366,-0.511,0.764,-9.759,-0.028,0.024,0.013,0.014,-0.020,0.004,0.003,0.044,0.910,0.071,0.000,0.894,0.014,-0.020,0.004,0,0,126,0,126,0.725,0.000,0.000,1.000,0.000
185377,-0.635,0.729,-10.047,-0.025,0.032,0.032,0.014,-0.019,0.004,0.003,0.044,0.877,0.072,0.000,0.894,0.014,-0.020,0.004,0,0,126,0,126,0.725,0.000,0.000,1.000,0.000
185388,-0.522,0.827,-9.930,-0.031,0.072,0.057,0.013,-0.018,0.005,0.003,0.044,0.894,0.073,0.000,0.910,0.014,-0.019,0.004,0,0,0,0,0,0.725,0.000,0.000,1.000,1.000
185399,-0.632,0.705,-9.964,-0.038,0.082,0.078,0.013,-0.018,0.005,0.003,0.044,0.894,0.074,0.000,0.910,0.013,-0.018,0.005,0,0,0,0,0,0.725,0.000,0.000,1.000,1.000
185410,-0.562,0.792,-10.149,-0.039,0.104,0.083,0.013,-0.017,0.006,0.003,0.044,0.894,0.075,0.001,0.894,0.013,-0.018,0.005,0,0,0,0,0,0.725,0.000,0.000,1.000,1.000
185421,-0.633,0.780,-10.231,-0.044,0.108,0.093,0.012,-0.016,0.007,0.003,0.044,0.910,0.076,0.001,0.910,0.013,-0.017,0.006,0,0,0,0,0,0.725,0.000,0.000,1.000,1.000
185432,-0.590,0.697,-10.118,-0.048,0.114,0.105,0.012,-0.014,0.008,0.003,0.044,0.894,0.077,0.001,0.894,0.012,-0.016,0.007,0,0,0,0,0,1.892,0.000,0.000,1.000,1.000
185443,-0.548,0.714,-9.969,-0.052,0.117,0.111,0.011,-0.013,0.009,0.003,0.044,0.894,0.078,0.001,0.910,0.012,-0.014,0.008,0,0,0,0,0,1.892,0.000,0.000,1.000,1.000
185454,-0.556,0.724,-9.952,-0.047,0.128,0.116,0.011,-0.012,0.010,0.003,0.044,0.910,0.079,0.001,0.894,0.011,-0.013,0.009,0,0,0,0,0,1.892,0.000,0.000,1.000,1.000
185465,-0.568,0.737,-9.982,-0.041,0.134,0.122,0.010,-0.011,0.012,0.003,0.044,0.926,0.080,0.001,0.894,0.011,-0.012,0.010,0,0,0,0,0,1.892,0.000,0.000,1.000,1.000
185476,-0.677,0.638,-10.020,-0.045,0.123,0.109,0.010,-0.009,0.013,0.003,0.044,0.910,0.081,0.001,0.926,0.010,-0.011,0.012,0,0,0,0,0,1.892,0.000,0.000,1.000,1.000
185487,-0.646,0.592,-9.749,-0.050,0.114,0.097,0.009,-0.008,0.014,0.003,0.044,0.910,0.081,0.001,0.910,0.010,-0.009,0.013,0,0,0,0,0,1.892,0.000,0.000,1.000,1.000
185498,-0.754,0.620,-9.817,-0.058,0.092,0.073,0.009,-0.007,0.014,0.003,0.044,0.926,0.082,0.001,0.926,0.009,-0.008,0.014,0,0,0,0,0,1.892,0.000,0.000,1.000,1.000
185509,-0.706,0.634,-9.853,-0.060,0.075,0.053,0.008,-0.007,0.015,0.003,0.044,0.910,0.083,0.001,0.910,0.009,-0.007,0.014,0,0,0,0,0,1.892,0.000,0.000,1.000,1.000
185520,-0.648,0.537,-9.896,-0.059,0.051,0.033,0.008,-0.006,0.015,0.003,0.044,0.910,0.084,0.001,0.910,0.008,-0.007,0.015,0,0,0,0,0,1.892,0.000,0.000,1.000,1.000
185531,-0.854,0.495,-9.910,-0.048,0.018,-0.001,0.007,-0.006,0.015,0.003,0.044,0.926,0.085,0.001,0.894,0.008,-0.006,0.015,0,0,0,0,0,1.892,0.000,0.000,1.000,1.000
185542,-0.715,0.433,-9.747,-0.036,-0.009,-0.038,0.007,-0.006,0.015,0.003,0.044,0.910,0.086,0.001,0.910,0.007,-0.006,0.015,0,0,0,0,0,1.892,0.000,0.000,1.000,1.000
185553,-0.592,0.530,-9.726,-0.025,-0.027,-0.068,0.007,-0.006,0.014,0.003,0.044,0.910,0.087,0.001,0.910,0.007,-0.006,0.015,0,0,0,0,0,1.892,0.000,0.000,1.000,1.000
185564,-0.638,0.695,-9.962,-0.012,-0.059,-0.104,0.006,-0.007,0.013,0.003,0.044,0.926,0.088,0.001,0.926,0.007,-0.006,0.014,0,0,0,0,0,1.892,0.000,0.000,1.000,1.000
185575,-0.485,0.688,-9.925,-0.012,-0.065,-0.116,0.006,-0.007,0.012,0.003,0.044,0.926,0.089,0.001,0.942,0.006,-0.007,0.013,0,0,0,0,0,1.892,0.000,0.000,1.000,1.000
185586,-0.636,0.677,-9.862,-0.015,-0.071,-0.120,0.006,-0.008,0.011,0.003,0.044,0.942,0.090,0.001,0.942,0.006,-0.007,0.012,0,0,0,0,0,1.892,0.000,0.000,1.000,1.000
185597,-0.604,0.712,-9.868,-0.010,-0.079,-0.125,0.006,-0.009,0.010,0.003,0.044,0.942,0.091,0.001,0.926,0.006,-0.008,0.011,0,0,0,0,0,1.892,0.000,0.000,1.000,1.000
185608,-0.573,0.792,-9.963,-0.003,-0.078,-0.133,0.006,-0.010,0.008,0.003,0.044,0.942,0.092,0.001,0.910,0.006,-0.009,0.010,0,0,0,0,0,1.892,0.000,0.000,1.000,1.000
185619,-0.575,0.708,-9.905,-0.004,-0.079,-0.128,0.006,-0.010,0.007,0.003,0.044,0.942,0.093,0.001,0.942,0.006,-0.010,0.008,0,0,0,0,0,1.892,0.000,0.000,1.000,1.000
185630,-0.653,0.634,-9.922,-0.005,-0.087,-0.136,0.006,-0.011,0.006,0.003,0.044,0.926,0.094,0.001,0.942,0.006,-0.010,0.007,0,0,0,0,0,0.725,0.000,0.000,1.000,1.000
185641,-0.608,0.781,-9.933,0.001,-0.083,-0.140,0.006,-0.012,0.004,0.003,0.044,0.942,0.095,0.001,0.958,0.006,-0.011,0.006,0,0,0,0,0,0.725,0.000,0.000,1.000,1.000
185652,-0.664,0.731,-9.884,0.008,-0.086,-0.147,0.006,-0.013,0.003,0.003,0.044,0.926,0.095,0.001,0.942,0.006,-0.012,0.004,0,0,0,0,0,0.725,0.000,0.000,1.000,1.000
185663,-0.608,0.833,-10.024,0.014,-0.083,-0.142,0.006,-0.014,0.001,0.003,0.044,0.958,0.096,0.001,0.942,0.006,-0.013,0.003,0,0,0,0,0,0.725,0.000,0.000,1.000,1.000
185674,-0.498,0.791,-9.886,-0.000,-0.076,-0.134,0.006,-0.015,0.000,0.003,0.044,0.926,0.097,0.001,0.942,0.006,-0.014,0.001,0,0,0,0,0,0.725,0.000,0.000,1.000,1.000
185685,-0.573,0.925,-9.913,-0.003,-0.068,-0.126,0.006,-0.015,-0.001,0.003,0.044,0.942,0.098,0.001,0.958,0.006,-0.015,0.000,0,0,0,0,0,0.725,0.000,0.000,1.000,1.000
185696,-0.586,0.875,-9.951,-0.010,-0.060,-0.109,0.006,-0.016,-0.002,0.003,0.044,0.958,0.099,0.001,0.958,0.006,-0.015,-0.001,0,0,0,0,0,0.725,0.000,0.000,1.000,1.000
185707,-0.569,0.871,-9.957,-0.023,-0.045,-0.100,0.006,-0.016,-0.003,0.003,0.044,0.942,0.100,0.001,0.958,0.006,-0.016,-0.002,0,0,0,0,0,0.725,0.000,0.000,1.000,1.000
185718,-0.529,0.937,-9.927,-0.036,-0.038,-0.084,0.006,-0.017,-0.004,0.003,0.044,0.974,0.101,0.001,0.958,0.006,-0.016,-0.003,0,0,0,0,0,0.725,0.000,0.000,1.000,1.000
185729,-0.498,0.897,-10.013,-0.043,-0.020,-0.064,0.005,-0.017,-0.005,0.003,0.044,0.958,0.102,0.001,0.942,0.006,-0.017,-0.004,0,0,0,0,0,0.725,0.000,0.000,1.000,1.000
185740,-0.544,0.891,-10.006,-0.047,0.012,-0.029,0.005,-0.017,-0.005,0.003,0.044,0.958,0.103,0.001,0.974,0.005,-0.017,-0.005,0,0,0,0,0,0.725,0.000,0.000,1.000,1.000
185751,-0.514,0.892,-9.981,-0.056,0.029,-0.011,0.004,-0.017,-0.005,0.003,0.044,0.958,0.104,0.001,0.942,0.005,-0.017,-0.005,0,0,0,0,0,0.725,0.000,0.000,1.000,1.000
185762,-0.537,0.889,-9.898,-0.064,0.043,0.002,0.004,-0.016,-0.005,0.003,0.044,0.958,0.104,0.001,0.958,0.004,-0.017,-0.005,0,0,0,0,0,0.725,0.000,0.000,1.000,1.000
185773,-0.573,0.881,-9.915,-0.065,0.056,0.020,0.003,-0.016,-0.005,0.003,0.044,0.958,0.105,0.001,0.958,0.004,-0.016,-0.005,0,0,0,0,0,0.725,0.000,0.000,1.000,1.000
185784,-0.550,0.851,-10.027,-0.067,0.067,0.031,0.002,-0.015,-0.005,0.003,0.044,0.958,0.106,0.001,0.958,0.003,-0.016,-0.005,0,0,0,0,0,0.725,0.000,0.000,1.000,1.000
185795,-0.531,0.864,-9.925,-0.067,0.078,0.040,0.002,-0.014,-0.004,0.003,0.044,0.958,0.107,0.001,0.958,0.002,-0.015,-0.005,0,0,0,0,0,0.725,0.000,0.000,1.000,1.000
185806,-0.561,0.797,-9.908,-0.069,0.087,0.053,0.001,-0.013,-0.004,0.003,0.044,0.974,0.108,0.001,0.990,0.002,-0.014,-0.004,0,0,0,0,0,0.725,0.000,0.000,1.000,1.000
185817,-0.568,0.852,-9.907,-0.066,0.095,0.057,0.000,-0.012,-0.003,0.003,0.044,0.958,0.109,0.001,0.990,0.001,-0.013,-0.004,0,0,0,0,0,0.725,0.000,0.000,1.000,1.000
185828,-0.501,0.863,-9.956,-0.063,0.110,0.075,-0.000,-0.011,-0.002,0.003,0.044,0.974,0.110,0.001,0.974,0.000,-0.012,-0.003,0,0,0,0,0,0.725,0.000,0.000,1.000,1.000
185839,-0.530,0.871,-9.947,-0.061,0.116,0.083,-0.001,-0.010,-0.002,0.003,0.044,0.990,0.111,0.001,0.958,-0.000,-0.011,-0.002,0,0,0,0,0,0.725,0.000,0.000,1.000,1.000
185850,-0.531,0.781,-9.779,-0.058,0.122,0.090,-0.002,-0.009,-0.001,0.003,0.044,0.990,0.112,0.001,0.974,-0.001,-0.010,-0.002,0,0,0,0,0,0.725,0.000,0.000,1.000,1.000
185861,-0.528,0.891,-9.996,-0.055,0.127,0.090,-0.002,-0.007,0.000,0.003,0.044,0.974,0.113,0.001,0.990,-0.002,-0.009,-0.001,0,0,0,0,0,0.725,0.000,0.000,1.000,1.000
185872,-0.437,0.865,-9.877,-0.052,0.137,0.104,-0.003,-0.006,0.001,0.003,0.044,0.974,0.114,0.001,0.974,-0.002,-0.007,0.000,0,0,0,0,0,0.725,0.000,0.000,1.000,1.000
185883,-0.489,0.797,-9.866,-0.047,0.134,0.110,-0.003,-0.005,0.002,0.003,0.044,0.974,0.115,0.001,0.990,-0.003,-0.006,0.001,0,0,0,0,0,0.725,0.000,0.000,1.000,1.000
185894,-0.518,0.916,-9.964,-0.047,0.143,0.108,-0.004,-0.003,0.003,0.003,0.044,0.974,0.116,0.001,0.974,-0.003,-0.005,0.002,0,0,0,0,0,0.725,0.000,0.000,1.000,1.000
185905,-0.337,0.825,-9.776,-0.043,0.149,0.120,-0.004,-0.002,0.005,0.003,0.044,0.958,0.117,0.001,0.974,-0.004,-0.003,0.003,0,0,0,0,0,0.725,0.000,0.000,1.000,1.000
185916,-0.518,0.865,-9.829,-0.033,0.151,0.121,-0.004,-0.000,0.006,0.003,0.044,0.974,0.118,0.001,1.006,-0.004,-0.002,0.005,0,0,0,0,0,0.725,0.000,0.000,1.000,1.000
185927,-0.343,0.808,-9.846,-0.028,0.150,0.125,-0.005,0.001,0.007,0.003,0.044,0.974,0.119,0.001,0.990,-0.004,-0.000,0.006,0,0,0,0,0,0.725,0.000,0.000,1.000,1.000
185938,-0.457,0.854,-9.863,-0.022,0.150,0.121,-0.005,0.003,0.008,0.003,0.044,0.990,0.120,0.001,0.974,-0.005,0.001,0.007,0,0,0,0,0,1.892,0.000,0.000,1.000,1.000
185949,-0.463,0.877,-9.828,-0.026,0.144,0.120,-0.005,0.004,0.009,0.003,0.044,0.990,0.121,0.001,0.990,-0.005,0.003,0.008,0,0,0,0,0,1.892,0.000,0.000,1.000,1.000
185960,-0.361,0.852,-9.841,-0.027,0.145,0.115,-0.005,0.006,0.011,0.003,0.044,0.990,0.122,0.001,1.006,-0.005,0.004,0.009,0,0,0,0,0,1.892,0.000,0.000,1.000,1.000
185971,-0.358,0.848,-9.789,-0.021,0.139,0.116,-0.006,0.007,0.012,0.003,0.044,0.974,0.122,0.001,0.990,-0.005,0.006,0.011,0,0,0,0,0,1.892,0.000,0.000,1.000,1.000
185982,-0.446,0.888,-9.872,-0.025,0.134,0.114,-0.006,0.008,0.013,0.003,0.044,0.990,0.123,0.001,0.990,-0.006,0.007,0.012,0,0,0,0,0,1.892,0.000,0.000,1.000,1.000
185993,-0.382,0.848,-9.781,-0.030,0.132,0.108,-0.006,0.010,0.014,0.003,0.044,1.006,0.124,0.001,0.990,-0.006,0.008,0.013,0,0,0,0,0,1.892,0.000,0.000,1.000,1.000
186004,-0.471,0.924,-9.848,-0.050,0.108,0.081,-0.007,0.011,0.015,0.003,0.044,1.006,0.125,0.001,0.990,-0.006,0.010,0.014,0,0,0,0,0,1.892,0.000,0.000,1.000,1.000
186015,-0.287,0.866,-9.704,-0.050,0.104,0.077,-0.007,0.012,0.016,0.003,0.044,1.006,0.126,0.001,1.006,-0.007,0.011,0.015,0,0,0,0,0,1.892,0.000,0.000,1.000,1.000
186026,-0.376,0.803,-9.689,-0.053,0.076,0.066,-0.008,0.012,0.016,0.003,0.044,0.990,0.127,0.001,0.974,-0.007,0.012,0.016,0,0,0,0,0,1.892,0.000,0.000,1.000,1.000
186037,-0.574,0.896,-9.822,-0.072,0.065,0.043,-0.008,0.013,0.017,0.003,0.044,1.006,0.128,0.001,0.990,-0.008,0.012,0.016,0,0,0,0,0,1.892,0.000,0.000,1.000,1.000
186048,-0.395,0.780,-9.593,-0.077,0.044,0.026,-0.009,0.014,0.017,0.003,0.044,0.990,0.129,0.001,0.990,-0.008,0.013,0.017,0,0,0,0,0,1.892,0.000,0.000,1.000,1.000
186059,-0.446,0.782,-9.739,-0.074,0.010,-0.005,-0.010,0.014,0.017,0.003,0.044,0.990,0.130,0.001,0.990,-0.009,0.014,0.017,0,0,0,0,0,1.892,0.000,0.000,1.000,1.000
186070,-0.489,0.854,-9.773,-0.077,-0.006,-0.026,-0.011,0.014,0.017,0.003,0.044,0.990,0.131,0.001,1.006,-0.010,0.014,0.017,0,0,0,0,0,1.892,0.000,0.000,1.000,1.000
186081,-0.317,0.827,-9.709,-0.081,-0.026,-0.044,-0.011,0.013,0.016,0.003,0.044,1.006,0.132,0.001,0.990,-0.011,0.014,0.017,0,0,0,0,0,1.892,0.000,0.000,1.000,1.000
186092,-0.376,0.934,-9.765,-0.087,-0.046,-0.064,-0.012,0.013,0.016,0.003,0.044,1.006,0.133,0.001,1.006,-0.011,0.013,0.016,0,0,0,0,0,1.892,0.000,0.000,1.000,1.000
186103,-0.327,0.928,-9.810,-0.087,-0.054,-0.071,-0.013,0.012,0.015,0.003,0.044,0.990,0.134,0.001,1.023,-0.012,0.013,0.016,0,0,0,0,0,1.892,0.000,0.000,1.000,1.000
186114,-0.374,0.883,-9.722,-0.083,-0.065,-0.078,-0.014,0.012,0.014,0.003,0.044,1.006,0.135,0.001,1.023,-0.013,0.012,0.015,0,0,0,0,0,1.892,0.000,0.000,1.000,1.000
186125,-0.397,0.915,-9.855,-0.085,-0.073,-0.089,-0.015,0.011,0.013,0.003,0.044,1.006,0.136,0.001,1.023,-0.014,0.012,0.014,0,0,0,0,0,1.892,0.000,0.000,1.000,1.000
186136,-0.370,0.925,-9.707,-0.082,-0.081,-0.097,-0.016,0.010,0.012,0.003,0.044,1.006,0.137,0.001,1.023,-0.015,0.011,0.013,0,0,0,0,0,1.892,0.000,0.000,1.000,1.000
186147,-0.346,0.968,-9.837,-0.078,-0.092,-0.103,-0.016,0.009,0.011,0.003,0.044,1.006,0.138,0.001,1.006,-0.016,0.010,0.012,0,0,0,0,0,1.892,0.000,0.000,1.000,1.000
186158,-0.427,0.919,-9.759,-0.074,-0.098,-0.110,-0.017,0.008,0.010,0.003,0.044,1.006,0.139,0.001,1.006,-0.016,0.009,0.011,0,0,0,0,0,1.892,0.000,0.000,1.000,1.000
186169,-0.449,0.924,-9.776,-0.071,-0.109,-0.122,-0.018,0.007,0.009,0.003,0.044,1.023,0.140,0.001,0.990,-0.017,0.008,0.010,0,0,0,0,0,1.892,0.000,0.000,1.000,1.000
186180,-0.379,0.963,-9.759,-0.063,-0.122,-0.133,-0.019,0.006,0.008,0.003,0.044,1.006,0.140,0.001,1.023,-0.018,0.007,0.009,0,0,0,0,0,1.892,0.000,0.000,1.000,1.000
186191,-0.465,0.980,-9.775,-0.058,-0.127,-0.139,-0.019,0.005,0.006,0.003,0.044,1.006,0.141,0.001,1.023,-0.019,0.006,0.008,0,0,0,0,0,1.892,0.000,0.000,1.000,1.000
186202,-0.473,0.946,-9.805,-0.050,-0.133,-0.147,-0.020,0.003,0.005,0.003,0.044,1.023,0.142,0.001,1.023,-0.019,0.005,0.006,0,0,0,0,0,0.725,0.000,0.000,1.000,1.000
186213,-0.390,1.032,-9.866,-0.045,-0.136,-0.151,-0.020,0.002,0.003,0.003,0.044,1.023,0.143,0.001,1.023,-0.020,0.003,0.005,0,0,0,0,0,0.725,0.000,0.000,1.000,1.000
186224,-0.456,0.963,-9.718,-0.044,-0.142,-0.153,-0.020,0.001,0.002,0.003,0.044,1.023,0.144,0.001,0.990,-0.020,0.002,0.003,0,0,0,0,0,0.725,0.000,0.000,1.000,1.000
186235,-0.547,0.989,-9.886,-0.034,-0.145,-0.159,-0.021,-0.001,0.000,0.003,0.044,1.023,0.145,0.001,1.023,-0.020,0.001,0.002,0,0,0,0,0,0.725,0.000,0.000,1.000,1.000
186246,-0.390,1.083,-9.866,-0.027,-0.140,-0.159,-0.021,-0.002,-0.002,0.003,0.044,1.023,0.146,0.001,1.006,-0.021,-0.001,0.000,0,0,0,0,0,0.725,0.000,0.000,1.000,1.000
186257,-0.368,1.133,-9.826,-0.031,-0.136,-0.153,-0.021,-0.004,-0.003,0.003,0.044,1.039,0.147,0.001,1.039,-0.021,-0.002,-0.002,0,0,0,0,0,0.725,0.000,0.000,1.000,1.000
186268,-0.432,1.186,-9.880,-0.030,-0.122,-0.130,-0.022,-0.005,-0.004,0.003,0.044,1.039,0.148,0.001,1.023,-0.021,-0.004,-0.003,0,0,0,0,0,0.725,0.000,0.000,1.000,1.000
186279,-0.420,1.164,-9.847,-0.043,-0.114,-0.119,-0.022,-0.006,-0.006,0.003,0.044,1.023,0.149,0.001,1.023,-0.022,-0.005,-0.004,0,0,0,0,0,0.725,0.000,0.000,1.000,1.000
186290,-0.412,1.250,-9.875,-0.049,-0.103,-0.103,-0.023,-0.007,-0.007,0.003,0.044,1.039,0.150,0.001,1.055,-0.022,-0.006,-0.006,0,0,0,0,0,0.725,0.000,0.000,1.000,1.000
186301,-0.410,1.200,-9.936,-0.058,-0.086,-0.082,-0.023,-0.008,-0.007,0.003,0.044,1.039,0.151,0.001,1.023,-0.023,-0.007,-0.007,0,0,0,0,0,0.725,0.000,0.000,1.000,1.000
186312,-0.413,1.235,-9.922,-0.056,-0.068,-0.067,-0.024,-0.009,-0.008,0.003,0.044,1.039,0.152,0.001,1.039,-0.023,-0.008,-0.007,0,0,0,0,0,0.725,0.000,0.000,1.000,1.000
186323,-0.415,1.218,-9.951,-0.059,-0.050,-0.042,-0.024,-0.009,-0.009,0.003,0.044,1.039,0.153,0.001,1.039,-0.024,-0.009,-0.008,0,0,0,0,0,0.725,0.000,0.000,1.000,1.000
186334,-0.431,1.176,-9.913,-0.060,-0.035,-0.024,-0.025,-0.009,-0.009,0.003,0.044,1.039,0.154,0.001,1.023,-0.024,-0.009,-0.009,0,0,0,0,0,0.725,0.000,0.000,1.000,1.000
186345,-0.449,1.219,-9.860,-0.063,-0.020,-0.009,-0.026,-0.010,-0.009,0.003,0.044,1.023,0.155,0.001,1.039,-0.025,-0.009,-0.009,0,0,0,0,0,0.725,0.000,0.000,1.000,1.000
186356,-0.467,1.208,-9.887,-0.064,-0.007,0.016,-0.026,-0.010,-0.009,0.003,0.044,1.039,0.156,0.001,1.039,-0.026,-0.010,-0.009,0,0,0,0,0,0.725,0.000,0.000,1.000,1.000
186367,-0.486,1.139,-9.868,-0.059,0.016,0.029,-0.027,-0.009,-0.008,0.003,0.044,1.039,0.157,0.001,1.039,-0.026,-0.010,-0.009,0,0,0,0,0,0.725,0.000,0.000,1.000,1.000
186378,-0.517,1.120,-9.875,-0.056,0.022,0.037,-0.027,-0.009,-0.008,0.003,0.044,1.039,0.158,0.001,1.039,-0.027,-0.009,-0.008,0,0,0,0,0,0.725,0.000,0.000,1.000,1.000
186389,-0.501,1.162,-9.844,-0.053,0.031,0.044,-0.028,-0.009,-0.007,0.003,0.044,1.039,0.158,0.001,1.039,-0.027,-0.009,-0.008,0,0,0,0,0,0.725,0.000,0.000,1.000,1.000
186400,-0.431,1.177,-9.865,-0.050,0.042,0.054,-0.028,-0.009,-0.007,0.003,0.044,1.039,0.159,0.001,1.039,-0.028,-0.009,-0.007,0,0,0,0,0,0.725,0.000,0.000,1.000,1.000
186411,-0.464,1.144,-9.819,-0.044,0.045,0.062,-0.029,-0.008,-0.006,0.003,0.044,1.023,0.160,0.001,1.039,-0.028,-0.009,-0.007,0,0,0,0,0,0.725,0.000,0.000,1.000,1.000
186422,-0.508,1.140,-9.867,-0.038,0.054,0.072,-0.029,-0.008,-0.006,0.003,0.044,1.039,0.161,0.001,1.055,-0.029,-0.008,-0.006,0,0,0,0,0,0.725,0.000,0.000,1.000,1.000
186433,-0.510,1.147,-9.939,-0.033,0.060,0.075,-0.030,-0.007,-0.005,0.003,0.044,1.055,0.162,0.001,1.055,-0.029,-0.008,-0.006,0,0,0,0,0,0.725,0.000,0.000,1.000,1.000
186444,-0.382,0.881,-9.837,-0.027,0.072,0.084,-0.030,-0.006,-0.004,0.003,0.044,1.055,0.163,0.001,1.039,-0.030,-0.007,-0.005,0,0,0,0,0,0.725,0.000,0.000,1.000,1.000
186455,-0.534,1.147,-9.850,-0.012,0.081,0.095,-0.030,-0.005,-0.003,0.003,0.044,1.039,0.164,0.001,1.039,-0.030,-0.006,-0.004,0,0,0,0,0,0.725,0.000,0.000,1.000,1.000
186466,-0.383,1.158,-9.843,-0.005,0.092,0.105,-0.030,-0.005,-0.002,0.003,0.044,1.055,0.165,0.001,1.055,-0.030,-0.005,-0.003,0,0,0,0,0,0.725,0.000,0.000,1.000,1.000
186477,-0.426,1.093,-9.810,0.005,0.090,0.112,-0.030,-0.004,-0.001,0.003,0.044,1.055,0.166,0.001,1.055,-0.030,-0.005,-0.002,0,0,0,0,0,0.725,0.000,0.000,1.000,1.000
186488,-0.534,1.160,-9.860,0.007,0.090,0.110,-0.030,-0.003,0.000,0.003,0.044,1.055,0.167,0.001,1.039,-0.030,-0.004,-0.001,0,0,0,0,0,0.725,0.000,0.000,1.000,1.000
186499,-0.397,1.085,-9.767,0.013,0.100,0.115,-0.030,-0.002,0.001,0.003,0.044,1.039,0.168,0.001,1.039,-0.030,-0.003,0.000,0,0,0,0,0,0.725,0.000,0.000,1.000,1.000
186510,-0.403,1.098,-9.814,0.024,0.095,0.114,-0.030,-0.001,0.002,0.003,0.044,1.055,0.169,0.001,1.055,-0.030,-0.002,0.001,0,0,0,0,0,0.725,0.000,0.000,1.000,1.000
186521,-0.528,1.170,-9.860,0.024,0.097,0.112,-0.029,0.000,0.004,0.003,0.044,1.071,0.170,0.001,1.055,-0.030,-0.001,0.002,0,0,0,0,0,0.725,0.000,0.000,1.000,1.000
186532,-0.401,1.079,-9.722,0.024,0.097,0.110,-0.029,0.001,0.005,0.003,0.044,1.055,0.171,0.001,1.055,-0.029,0.000,0.004,0,0,0,0,0,0.725,0.000,0.000,1.000,1.000
186543,-0.447,1.133,-9.783,0.029,0.090,0.106,-0.029,0.002,0.006,0.003,0.044,1.055,0.172,0.001,1.071,-0.029,0.001,0.005,0,0,0,0,0,0.725,0.000,0.000,1.000,1.000
186554,-0.414,1.098,-9.781,0.027,0.086,0.101,-0.029,0.003,0.007,0.003,0.044,1.071,0.173,0.001,1.087,-0.029,0.002,0.006,0,0,0,0,0,1.892,0.000,0.000,1.000,1.000
186565,-0.396,1.107,-9.765,0.028,0.083,0.095,-0.028,0.004,0.008,0.003,0.044,1.055,0.174,0.001,1.055,-0.029,0.003,0.007,0,0,0,0,0,1.892,0.000,0.000,1.000,1.000
186576,-0.385,1.092,-9.756,0.029,0.076,0.095,-0.028,0.005,0.009,0.003,0.044,1.071,0.175,0.001,1.039,-0.028,0.004,0.008,0,0,0,0,0,1.892,0.000,0.000,1.000,1.000
186587,-0.412,1.120,-9.791,0.028,0.073,0.088,-0.028,0.005,0.010,0.003,0.044,1.055,0.176,0.001,1.055,-0.028,0.005,0.009,0,0,0,0,0,1.892,0.000,0.000,1.000,1.000
186598,-0.359,1.093,-9.765,0.029,0.068,0.086,-0.027,0.006,0.010,0.003,0.044,1.071,0.176,0.001,1.055,-0.028,0.005,0.010,0,0,0,0,0,1.892,0.000,0.000,1.000,1.000
186609,-0.378,1.089,-9.785,0.030,0.061,0.083,-0.027,0.007,0.011,0.003,0.044,1.055,0.177,0.001,1.055,-0.027,0.006,0.010,0,0,0,0,0,1.892,0.000,0.000,1.000,1.000
186620,-0.445,1.109,-9.704,0.023,0.055,0.072,-0.027,0.007,0.012,0.003,0.044,1.055,0.178,0.001,1.055,-0.027,0.007,0.011,0,0,0,0,0,1.892,0.000,0.000,1.000,1.000
186631,-0.298,1.087,-9.727,0.014,0.042,0.056,-0.027,0.008,0.013,0.003,0.044,1.071,0.179,0.001,1.087,-0.027,0.007,0.012,0,0,0,0,0,1.892,0.000,0.000,1.000,1.000
186642,-0.401,1.064,-9.689,0.014,0.024,0.048,-0.027,0.008,0.013,0.003,0.044,1.071,0.180,0.001,1.071,-0.027,0.008,0.013,0,0,0,0,0,1.892,0.000,0.000,1.000,1.000
186653,-0.531,1.083,-9.788,-0.000,0.013,0.031,-0.027,0.008,0.013,0.003,0.044,1.071,0.181,0.001,1.071,-0.027,0.008,0.013,0,0,0,0,0,1.892,0.000,0.000,1.000,1.000
186664,-0.391,1.000,-9.611,-0.006,-0.001,0.017,-0.027,0.008,0.014,0.003,0.044,1.071,0.182,0.001,1.071,-0.027,0.008,0.013,0,0,0,0,0,1.892,0.000,0.000,1.000,1.000
186675,-0.479,1.011,-9.688,-0.003,-0.026,-0.007,-0.027,0.008,0.014,0.003,0.044,1.055,0.183,0.001,1.055,-0.027,0.008,0.014,0,0,0,0,0,1.892,0.000,0.000,1.000,1.000
186686,-0.524,1.011,-9.708,-0.005,-0.043,-0.027,-0.027,0.007,0.013,0.003,0.044,1.055,0.184,0.001,1.055,-0.027,0.008,0.014,0,0,0,0,0,1.892,0.000,0.000,1.000,1.000
186697,-0.426,0.993,-9.710,-0.006,-0.062,-0.049,-0.027,0.007,0.013,0.003,0.044,1.071,0.185,0.001,1.055,-0.027,0.007,0.013,0,0,0,0,0,1.892,0.000,0.000,1.000,1.000
186708,-0.396,1.079,-9.706,-0.009,-0.073,-0.065,-0.027,0.006,0.012,0.003,0.044,1.071,0.186,0.001,1.071,-0.027,0.007,0.013,0,0,0,0,0,1.892,0.000,0.000,1.000,1.000
186719,-0.413,1.072,-9.782,-0.011,-0.092,-0.079,-0.027,0.005,0.011,0.003,0.044,1.071,0.187,0.001,1.071,-0.027,0.006,0.012,0,0,0,0,0,1.892,0.000,0.000,1.000,1.000
186730,-0.467,1.061,-9.737,-0.008,-0.100,-0.088,-0.027,0.004,0.010,0.003,0.044,1.071,0.188,0.001,1.071,-0.027,0.005,0.011,0,0,0,0,0,1.892,0.000,0.000,1.000,1.000
186741,-0.426,1.050,-9.781,-0.009,-0.108,-0.099,-0.027,0.003,0.009,0.003,0.044,1.071,0.188,0.001,1.071,-0.027,0.004,0.010,0,0,0,0,0,1.892,0.000,0.000,1.000,1.000
186752,-0.421,1.064,-9.746,-0.005,-0.115,-0.105,-0.027,0.002,0.008,0.003,0.044,1.055,0.189,0.001,1.087,-0.027,0.003,0.009,0,0,0,0,0,1.892,0.000,0.000,1.000,1.000
186763,-0.428,1.084,-9.758,-0.004,-0.119,-0.109,-0.027,0.001,0.007,0.003,0.044,1.071,0.190,0.001,1.071,-0.027,0.002,0.008,0,0,0,0,0,1.892,0.000,0.000,1.000,1.000
186774,-0.497,1.013,-9.758,0.001,-0.126,-0.115,-0.027,-0.001,0.006,0.003,0.044,1.071,0.191,0.001,1.071,-0.027,0.001,0.007,0,0,0,0,0,1.892,0.000,0.000,1.000,1.000
186785,-0.516,1.044,-9.811,0.007,-0.133,-0.128,-0.027,-0.002,0.005,0.003,0.044,1.087,0.192,0.001,1.087,-0.027,-0.001,0.006,0,0,0,0,0,1.892,0.000,0.000,1.000,1.000
186796,-0.447,1.062,-9.785,0.011,-0.134,-0.132,-0.027,-0.003,0.004,0.003,0.044,1.071,0.193,0.001,1.087,-0.027,-0.002,0.005,0,0,0,0,0,0.725,0.000,0.000,1.000,1.000
186807,-0.574,1.052,-9.732,0.019,-0.149,-0.142,-0.026,-0.005,0.002,0.003,0.044,1.087,0.193,0.001,1.071,-0.027,-0.003,0.004,0,0,0,0,0,0.725,0.000,0.000,1.000,1.000
186818,-0.530,1.040,-9.848,0.027,-0.153,-0.151,-0.026,-0.006,0.001,0.003,0.044,1.103,0.194,0.001,1.103,-0.026,-0.005,0.002,0,0,0,0,0,0.725,0.000,0.000,1.000,1.000
186829,-0.473,1.102,-9.770,0.029,-0.150,-0.154,-0.026,-0.008,-0.001,0.003,0.044,1.071,0.195,0.001,1.087,-0.026,-0.006,0.001,0,0,0,0,0,0.725,0.000,0.000,1.000,1.000
186840,-0.580,1.010,-9.765,0.032,-0.162,-0.156,-0.026,-0.010,-0.002,0.003,0.044,1.071,0.196,0.001,1.087,-0.026,-0.008,-0.001,0,0,0,0,0,0.725,0.000,0.000,1.000,1.000
186851,-0.492,1.259,-9.968,0.040,-0.153,-0.158,-0.025,-0.011,-0.004,0.003,0.044,1.087,0.197,0.001,1.071,-0.026,-0.010,-0.002,0,0,0,0,0,0.725,0.000,0.000,1.000,1.000
186862,-0.388,1.151,-9.762,0.027,-0.143,-0.139,-0.025,-0.012,-0.005,0.003,0.044,1.103,0.198,0.001,1.087,-0.025,-0.011,-0.004,0,0,0,0,0,0.725,0.000,0.000,1.000,1.000
186873,-0.500,1.224,-9.838,0.032,-0.137,-0.132,-0.025,-0.014,-0.007,0.003,0.044,1.087,0.199,0.001,1.071,-0.025,-0.012,-0.005,0,0,0,0,0,0.725,0.000,0.000,1.000,1.000
186884,-0.546,1.231,-9.922,0.027,-0.125,-0.114,-0.024,-0.015,-0.008,0.003,0.044,1.087,0.200,0.001,1.103,-0.025,-0.014,-0.007,0,0,0,0,0,0.725,0.000,0.000,1.000,1.000
186895,-0.473,1.280,-9.853,0.006,-0.097,-0.086,-0.024,-0.016,-0.009,0.003,0.044,1.087,0.201,0.001,1.087,-0.024,-0.015,-0.008,0,0,0,0,0,0.725,0.000,0.000,1.000,1.000
186906,-0.459,1.249,-9.959,0.002,-0.075,-0.060,-0.024,-0.017,-0.009,0.003,0.044,1.087,0.202,0.001,1.071,-0.024,-0.016,-0.009,0,0,0,0,0,0.725,0.000,0.000,1.000,1.000
186917,-0.481,1.204,-9.893,0.005,-0.055,-0.043,-0.024,-0.017,-0.010,0.003,0.044,1.087,0.203,0.001,1.103,-0.024,-0.017,-0.009,0,0,0,0,0,0.725,0.000,0.000,1.000,1.000
186928,-0.488,1.247,-9.977,0.005,-0.037,-0.021,-0.024,-0.018,-0.010,0.003,0.044,1.103,0.204,0.001,1.087,-0.024,-0.017,-0.010,0,0,0,0,0,0.725,0.000,0.000,1.000,1.000
186939,-0.489,1.119,-9.829,-0.000,-0.022,0.000,-0.024,-0.018,-0.010,0.003,0.044,1.103,0.205,0.001,1.103,-0.024,-0.018,-0.010,0,0,0,0,0,0.725,0.000,0.000,1.000,1.000
186950,-0.558,1.210,-9.867,0.001,-0.004,0.009,-0.024,-0.018,-0.010,0.003,0.044,1.087,0.206,0.001,1.087,-0.024,-0.018,-0.010,0,0,0,0,0,0.725,0.000,0.000,1.000,1.000
186961,-0.520,1.184,-9.855,-0.003,0.010,0.028,-0.024,-0.018,-0.010,0.003,0.044,1.087,0.207,0.001,1.103,-0.024,-0.018,-0.010,0,0,0,0,0,0.725,0.000,0.000,1.000,1.000
186972,-0.547,1.091,-9.834,0.001,0.017,0.038,-0.024,-0.018,-0.009,0.003,0.044,1.119,0.208,0.001,1.103,-0.024,-0.018,-0.010,0,0,0,0,0,0.725,0.000,0.000,1.000,1.000
186983,-0.526,1.087,-9.842,0.003,0.038,0.054,-0.024,-0.017,-0.009,0.003,0.044,1.103,0.209,0.001,1.087,-0.024,-0.018,-0.009,0,0,0,0,0,0.725,0.000,0.000,1.000,1.000
186994,-0.535,1.117,-9.829,0.008,0.045,0.060,-0.024,-0.017,-0.008,0.003,0.044,1.103,0.210,0.001,1.103,-0.024,-0.017,-0.009,0,0,0,0,0,0.725,0.000,0.000,1.000,1.000
187005,-0.575,1.149,-9.913,0.013,0.050,0.070,-0.024,-0.016,-0.008,0.003,0.044,1.071,0.211,0.001,1.103,-0.024,-0.017,-0.008,0,0,0,0,0,0.725,0.000,0.000,1.000,1.000
187016,-0.549,1.043,-9.710,0.017,0.060,0.077,-0.024,-0.016,-0.007,0.003,0.044,1.103,0.211,0.001,1.103,-0.024,-0.016,-0.008,0,0,0,0,0,0.725,0.000,0.000,1.000,1.000
187027,-0.548,1.149,-9.939,0.018,0.067,0.077,-0.024,-0.015,-0.006,0.003,0.044,1.119,0.212,0.001,1.103,-0.024,-0.016,-0.007,0,0,0,0,0,0.725,0.000,0.000,1.000,1.000
187038,-0.488,1.079,-9.829,0.022,0.077,0.094,-0.024,-0.014,-0.005,0.003,0.044,1.087,0.213,0.001,1.119,-0.024,-0.015,-0.006,0,0,0,0,0,0.725,0.000,0.000,1.000,1.000
187049,-0.573,1.048,-9.805,0.029,0.077,0.097,-0.023,-0.014,-0.004,0.003,0.044,1.103,0.214,0.001,1.103,-0.024,-0.014,-0.005,0,0,0,0,0,0.725,0.000,0.000,1.000,1.000
187060,-0.568,1.149,-9.887,0.030,0.089,0.097,-0.023,-0.013,-0.003,0.003,0.044,1.119,0.215,0.001,1.119,-0.023,-0.014,-0.004,0,0,0,0,0,0.725,0.000,0.000,1.000,1.000
187071,-0.568,1.080,-9.877,0.045,0.093,0.109,-0.023,-0.012,-0.002,0.003,0.044,1.103,0.216,0.001,1.119,-0.023,-0.013,-0.003,0,0,0,0,0,0.725,0.000,0.000,1.000,1.000
187082,-0.583,1.082,-9.826,0.045,0.100,0.112,-0.022,-0.011,-0.001,0.003,0.044,1.103,0.217,0.001,1.103,-0.023,-0.012,-0.002,0,0,0,0,0,0.725,0.000,0.000,1.000,1.000
187093,-0.404,0.980,-9.746,0.054,0.103,0.114,-0.022,-0.010,0.000,0.003,0.044,1.119,0.218,0.001,1.103,-0.022,-0.011,-0.001,0,0,0,0,0,0.725,0.000,0.000,1.000,1.000
187104,-0.554,1.084,-9.840,0.058,0.101,0.112,-0.021,-0.009,0.001,0.003,0.044,1.103,0.219,0.001,1.119,-0.022,-0.010,0.000,0,0,0,0,0,0.725,0.000,0.000,1.000,1.000
187115,-0.536,1.043,-9.795,0.052,0.101,0.112,-0.020,-0.008,0.002,0.003,0.044,1.103,0.220,0.001,1.103,-0.021,-0.009,0.001,0,0,0,0,0,0.725,0.000,0.000,1.000,1.000
187126,-0.446,1.000,-9.768,0.057,0.104,0.109,-0.020,-0.007,0.004,0.003,0.044,1.119,0.221,0.001,1.119,-0.020,-0.008,0.002,0,0,0,0,0,0.725,0.000,0.000,1.000,1.000
187137,-0.519,1.073,-9.794,0.057,0.099,0.106,-0.019,-0.006,0.005,0.003,0.044,1.119,0.222,0.001,1.135,-0.020,-0.007,0.004,0,0,0,0,0,0.725,0.000,0.000,1.000,1.000
187148,-0.501,1.020,-9.779,0.050,0.098,0.104,-0.019,-0.005,0.006,0.003,0.044,1.119,0.223,0.001,1.103,-0.019,-0.006,0.005,0,0,0,0,0,0.725,0.000,0.000,1.000,1.000
187159,-0.491,1.030,-9.783,0.051,0.089,0.098,-0.018,-0.004,0.007,0.003,0.044,1.103,0.224,0.001,1.135,-0.019,-0.005,0.006,0,0,0,0,0,1.892,0.000,0.000,1.000,1.000
187170,-0.471,1.010,-9.785,0.046,0.084,0.094,-0.018,-0.003,0.008,0.003,0.044,1.119,0.225,0.001,1.119,-0.018,-0.004,0.007,0,0,0,0,0,1.892,0.000,0.000,1.000,1.000
187181,-0.426,1.003,-9.739,0.049,0.082,0.089,-0.017,-0.002,0.008,0.003,0.044,1.119,0.226,0.001,1.135,-0.018,-0.003,0.008,0,0,0,0,0,1.892,0.000,0.000,1.000,1.000
187192,-0.437,1.012,-9.807,0.046,0.076,0.086,-0.017,-0.001,0.009,0.003,0.044,1.103,0.226,0.001,1.103,-0.017,-0.002,0.008,0,0,0,0,0,1.892,0.000,0.000,1.000,1.000
187203,-0.427,0.991,-9.776,0.044,0.075,0.082,-0.016,-0.001,0.010,0.003,0.044,1.103,0.227,0.001,1.119,-0.017,-0.001,0.009,0,0,0,0,0,1.892,0.000,0.000,1.000,1.000
187214,-0.474,1.013,-9.703,0.040,0.066,0.075,-0.016,-0.000,0.011,0.003,0.044,1.103,0.229,0.001,1.103,-0.016,-0.001,0.010,0,0,0,0,0,1.892,0.000,0.000,1.000,1.000
187225,-0.498,1.005,-9.775,0.024,0.059,0.061,-0.016,0.001,0.012,0.003,0.044,1.135,0.229,0.001,1.135,-0.016,-0.000,0.011,0,0,0,0,0,1.892,0.000,0.000,1.000,1.000
187236,-0.359,0.979,-9.731,0.027,0.056,0.057,-0.016,0.001,0.012,0.003,0.044,1.103,0.230,0.001,1.119,-0.016,0.001,0.012,0,0,0,0,0,1.892,0.000,0.000,1.000,1.000
187247,-0.575,0.973,-9.799,0.010,0.031,0.037,-0.016,0.001,0.012,0.003,0.044,1.119,0.231,0.001,1.119,-0.016,0.001,0.012,0,0,0,0,0,1.892,0.000,0.000,1.000,1.000
187258,-0.435,0.896,-9.598,0.005,0.018,0.021,-0.016,0.002,0.013,0.003,0.044,1.103,0.232,0.001,1.103,-0.016,0.001,0.012,0,0,0,0,0,1.892,0.000,0.000,1.000,1.000
187269,-0.506,0.928,-9.689,0.005,-0.006,-0.002,-0.016,0.002,0.013,0.003,0.044,1.119,0.233,0.001,1.119,-0.016,0.002,0.013,0,0,0,0,0,1.892,0.000,0.000,1.000,1.000
187280,-0.555,0.944,-9.722,-0.001,-0.023,-0.020,-0.016,0.001,0.012,0.003,0.044,1.103,0.234,0.001,1.119,-0.016,0.002,0.013,0,0,0,0,0,1.892,0.000,0.000,1.000,1.000
187291,-0.470,0.865,-9.697,-0.005,-0.040,-0.039,-0.016,0.001,0.012,0.003,0.044,1.119,0.235,0.001,1.119,-0.016,0.001,0.012,0,0,0,0,0,1.892,0.000,0.000,1.000,1.000
187302,-0.457,0.968,-9.734,-0.009,-0.055,-0.057,-0.016,0.000,0.012,0.003,0.044,1.119,0.236,0.001,1.119,-0.016,0.001,0.012,0,0,0,0,0,1.892,0.000,0.000,1.000,1.000
187313,-0.424,0.958,-9.735,-0.012,-0.064,-0.064,-0.016,-0.000,0.011,0.003,0.044,1.119,0.237,0.001,1.119,-0.016,0.000,0.012,0,0,0,0,0,1.892,0.000,0.000,1.000,1.000
187324,-0.440,0.957,-9.779,-0.015,-0.071,-0.072,-0.016,-0.001,0.010,0.003,0.044,1.135,0.238,0.001,1.119,-0.016,-0.000,0.011,0,0,0,0,0,1.892,0.000,0.000,1.000,1.000
187335,-0.473,0.948,-9.813,-0.014,-0.079,-0.090,-0.016,-0.002,0.009,0.003,0.044,1.119,0.239,0.001,1.135,-0.016,-0.001,0.010,0,0,0,0,0,1.892,0.000,0.000,1.000,1.000
187346,-0.462,0.956,-9.714,-0.016,-0.093,-0.098,-0.016,-0.003,0.008,0.003,0.044,1.135,0.240,0.001,1.135,-0.016,-0.002,0.009,0,0,0,0,0,1.892,0.000,0.000,1.000,1.000
187357,-0.453,0.992,-9.781,-0.012,-0.100,-0.104,-0.016,-0.004,0.007,0.003,0.044,1.119,0.241,0.001,1.135,-0.016,-0.003,0.008,0,0,0,0,0,1.892,0.000,0.000,1.000,1.000
187368,-0.529,0.907,-9.763,-0.010,-0.105,-0.108,-0.016,-0.005,0.006,0.003,0.044,1.135,0.242,0.001,1.135,-0.016,-0.004,0.007,0,0,0,0,0,1.892,0.000,0.000,1.000,1.000
187379,-0.543,0.930,-9.767,-0.005,-0.115,-0.120,-0.016,-0.006,0.005,0.003,0.044,1.119,0.243,0.001,1.119,-0.016,-0.005,0.006,0,0,0,0,0,1.892,0.000,0.000,1.000,1.000
187390,-0.488,0.963,-9.804,-0.001,-0.117,-0.126,-0.016,-0.007,0.004,0.003,0.044,1.135,0.244,0.001,1.135,-0.016,-0.006,0.005,0,0,0,0,0,0.725,0.000,0.000,1.000,1.000
187401,-0.501,0.928,-9.735,-0.000,-0.126,-0.133,-0.016,-0.008,0.002,0.003,0.044,1.119,0.245,0.001,1.135,-0.016,-0.007,0.004,0,0,0,0,0,0.725,0.000,0.000,1.000,1.000
187412,-0.586,0.949,-9.757,0.005,-0.131,-0.142,-0.016,-0.010,0.001,0.003,0.044,1.135,0.246,0.001,1.135,-0.016,-0.008,0.002,0,0,0,0,0,0.725,0.000,0.000,1.000,1.000
187423,-0.558,1.149,-9.929,0.010,-0.137,-0.148,-0.016,-0.011,-0.001,0.003,0.044,1.135,0.247,0.001,1.119,-0.016,-0.010,0.001,0,0,0,0,0,0.725,0.000,0.000,1.000,1.000
187434,-0.398,1.077,-9.752,0.002,-0.126,-0.130,-0.016,-0.012,-0.002,0.003,0.044,1.119,0.247,0.001,1.135,-0.016,-0.011,-0.001,0,0,0,0,0,0.725,0.000,0.000,1.000,1.000
187445,-0.529,1.065,-9.858,0.010,-0.119,-0.122,-0.016,-0.013,-0.003,0.003,0.044,1.135,0.248,0.001,1.152,-0.016,-0.012,-0.002,0,0,0,0,0,0.725,0.000,0.000,1.000,1.000
187456,-0.468,1.205,-9.941,0.005,-0.103,-0.109,-0.016,-0.014,-0.004,0.003,0.044,1.135,0.249,0.001,1.135,-0.016,-0.013,-0.003,0,0,0,0,0,0.725,0.000,0.000,1.000,1.000
187467,-0.392,1.105,-9.801,-0.014,-0.090,-0.092,-0.016,-0.015,-0.005,0.003,0.044,1.152,0.250,0.001,1.119,-0.016,-0.014,-0.004,0,0,0,0,0,0.725,0.000,0.000,1.000,1.000
187478,-0.488,1.199,-9.896,-0.014,-0.079,-0.076,-0.016,-0.016,-0.006,0.003,0.044,1.168,0.251,0.001,1.135,-0.016,-0.015,-0.005,0,0,0,0,0,0.725,0.000,0.000,1.000,1.000
187489,-0.421,1.190,-9.991,-0.019,-0.054,-0.049,-0.017,-0.017,-0.006,0.003,0.044,1.135,0.252,0.001,1.152,-0.016,-0.016,-0.006,0,0,0,0,0,0.725,0.000,0.000,1.000,1.000
187500,-0.414,1.072,-9.889,-0.017,-0.033,-0.029,-0.017,-0.017,-0.007,0.003,0.044,1.152,0.253,0.001,1.152,-0.017,-0.017,-0.006,0,0,0,0,0,0.725,0.000,0.000,1.000,1.000
187511,-0.507,1.146,-9.994,-0.010,-0.020,-0.011,-0.017,-0.017,-0.007,0.003,0.044,1.135,0.254,0.001,1.168,-0.017,-0.017,-0.007,0,0,0,0,0,0.725,0.000,0.000,1.000,1.000
187522,-0.471,1.098,-9.787,-0.017,0.016,0.023,-0.017,-0.017,-0.006,0.003,0.044,1.103,0.255,0.001,1.135,-0.017,-0.017,-0.007,0,0,0,0,0,0.725,0.000,0.000,1.000,1.000
187533,-0.542,1.114,-9.852,-0.019,0.028,0.038,-0.017,-0.017,-0.006,0.003,0.044,1.135,0.256,0.001,1.168,-0.017,-0.017,-0.006,0,0,0,0,0,0.725,0.000,0.000,1.000,1.000
187544,-0.501,1.046,-9.887,-0.016,0.039,0.049,-0.017,-0.016,-0.006,0.003,0.044,1.135,0.257,0.001,1.135,-0.017,-0.017,-0.006,0,0,0,0,0,0.725,0.000,0.000,1.000,1.000
187555,-0.504,1.067,-9.871,-0.012,0.045,0.056,-0.018,-0.016,-0.005,0.003,0.044,1.152,0.258,0.001,1.152,-0.017,-0.016,-0.006,0,0,0,0,0,0.725,0.000,0.000,1.000,1.000
187566,-0.532,1.017,-9.852,-0.009,0.051,0.068,-0.018,-0.015,-0.004,0.003,0.044,1.135,0.259,0.001,1.135,-0.018,-0.016,-0.005,0,0,0,0,0,0.725,0.000,0.000,1.000,1.000
187577,-0.508,1.016,-9.814,-0.004,0.062,0.075,-0.018,-0.015,-0.004,0.003,0.044,1.135,0.260,0.001,1.152,-0.018,-0.015,-0.004,0,0,0,0,0,0.725,0.000,0.000,1.000,1.000
187588,-0.547,1.070,-9.879,-0.000,0.067,0.078,-0.018,-0.014,-0.003,0.003,0.044,1.152,0.261,0.001,1.152,-0.018,-0.015,-0.004,0,0,0,0,0,0.725,0.000,0.000,1.000,1.000
187599,-0.430,1.073,-9.822,0.001,0.077,0.089,-0.018,-0.013,-0.002,0.003,0.044,1.135,0.261,0.001,1.152,-0.018,-0.014,-0.003,0,0,0,0,0,0.725,0.000,0.000,1.000,1.000
187610,-0.577,1.055,-9.868,0.008,0.086,0.097,-0.018,-0.012,-0.001,0.003,0.044,1.152,0.262,0.001,1.135,-0.018,-0.013,-0.002,0,0,0,0,0,0.725,0.000,0.000,1.000,1.000
187621,-0.415,1.022,-9.806,0.012,0.095,0.108,-0.017,-0.012,0.000,0.003,0.044,1.152,0.263,0.001,1.152,-0.018,-0.012,-0.001,0,0,0,0,0,0.725,0.000,0.000,1.000,1.000
187632,-0.453,1.001,-9.843,0.021,0.095,0.112,-0.017,-0.011,0.001,0.003,0.044,1.152,0.264,0.001,1.152,-0.017,-0.012,0.000,0,0,0,0,0,0.725,0.000,0.000,1.000,1.000
187643,-0.558,1.018,-9.818,0.025,0.097,0.114,-0.017,-0.010,0.002,0.003,0.044,1.152,0.265,0.001,1.152,-0.017,-0.011,0.001,0,0,0,0,0,0.725,0.000,0.000,1.000,1.000
187654,-0.422,0.965,-9.826,0.027,0.103,0.117,-0.017,-0.009,0.004,0.003,0.044,1.168,0.266,0.001,1.168,-0.017,-0.010,0.002,0,0,0,0,0,0.725,0.000,0.000,1.000,1.000
187665,-0.433,0.977,-9.793,0.035,0.105,0.119,-0.016,-0.008,0.005,0.003,0.044,1.135,0.267,0.001,1.168,-0.017,-0.009,0.004,0,0,0,0,0,0.725,0.000,0.000,1.000,1.000
187676,-0.542,1.060,-9.834,0.033,0.103,0.117,-0.016,-0.007,0.006,0.003,0.044,1.168,0.268,0.001,1.168,-0.016,-0.008,0.005,0,0,0,0,0,1.892,0.000,0.000,1.000,1.000
187687,-0.443,0.959,-9.767,0.033,0.105,0.117,-0.016,-0.005,0.007,0.003,0.044,1.184,0.269,0.001,1.168,-0.016,-0.007,0.006,0,0,0,0,0,1.892,0.000,0.000,1.000,1.000
187698,-0.483,1.018,-9.813,0.034,0.098,0.112,-0.015,-0.004,0.008,0.003,0.044,1.168,0.270,0.001,1.168,-0.016,-0.005,0.007,0,0,0,0,0,1.892,0.000,0.000,1.000,1.000
187709,-0.425,0.967,-9.765,0.030,0.097,0.109,-0.015,-0.004,0.009,0.003,0.044,1.168,0.271,0.001,1.152,-0.015,-0.004,0.008,0,0,0,0,0,1.892,0.000,0.000,1.000,1.000
187720,-0.412,0.986,-9.769,0.030,0.092,0.105,-0.015,-0.003,0.010,0.003,0.044,1.168,0.272,0.001,1.152,-0.015,-0.004,0.009,0,0,0,0,0,1.892,0.000,0.000,1.000,1.000
187731,-0.467,0.953,-9.746,0.027,0.086,0.100,-0.014,-0.002,0.011,0.003,0.044,1.152,0.273,0.001,1.168,-0.015,-0.003,0.010,0,0,0,0,0,1.892,0.000,0.000,1.000,1.000
187742,-0.547,0.998,-9.710,0.013,0.077,0.086,-0.014,-0.001,0.012,0.003,0.044,1.168,0.274,0.001,1.152,-0.014,-0.002,0.011,0,0,0,0,0,1.892,0.000,0.000,1.000,1.000
187753,-0.377,0.997,-9.739,0.003,0.068,0.075,-0.014,-0.000,0.013,0.003,0.044,1.168,0.275,0.001,1.168,-0.014,-0.001,0.012,0,0,0,0,0,1.892,0.000,0.000,1.000,1.000
187764,-0.352,0.918,-9.677,0.010,0.059,0.072,-0.014,0.000,0.014,0.003,0.044,1.168,0.276,0.001,1.168,-0.014,-0.000,0.013,0,0,0,0,0,1.892,0.000,0.000,1.000,1.000
187775,-0.583,0.970,-9.731,-0.004,0.038,0.053,-0.014,0.001,0.014,0.003,0.044,1.152,0.277,0.001,1.152,-0.014,0.000,0.014,0,0,0,0,0,1.892,0.000,0.000,1.000,1.000
187786,-0.483,0.830,-9.649,-0.021,0.001,0.011,-0.015,0.001,0.014,0.003,0.044,1.168,0.278,0.001,1.152,-0.014,0.001,0.014,0,0,0,0,0,1.892,0.000,0.000,1.000,1.000
187797,-0.568,0.928,-9.686,-0.020,-0.023,-0.018,-0.015,0.000,0.014,0.003,0.044,1.168,0.279,0.001,1.152,-0.015,0.001,0.014,0,0,0,0,0,1.892,0.000,0.000,1.000,1.000
187808,-0.497,0.877,-9.678,-0.027,-0.040,-0.034,-0.015,0.000,0.014,0.003,0.044,1.168,0.280,0.001,1.168,-0.015,0.000,0.014,0,0,0,0,0,1.892,0.000,0.000,1.000,1.000
187819,-0.416,0.934,-9.752,-0.032,-0.054,-0.054,-0.015,-0.001,0.013,0.003,0.044,1.168,0.281,0.001,1.152,-0.015,0.000,0.014,0,0,0,0,0,1.892,0.000,0.000,1.000,1.000
187830,-0.447,1.007,-9.704,-0.034,-0.064,-0.061,-0.016,-0.001,0.013,0.003,0.044,1.168,0.282,0.001,1.168,-0.015,-0.001,0.013,0,0,0,0,0,1.892,0.000,0.000,1.000,1.000
187841,-0.422,0.961,-9.751,-0.039,-0.075,-0.067,-0.016,-0.002,0.012,0.003,0.044,1.168,0.283,0.001,1.168,-0.016,-0.001,0.013,0,0,0,0,0,1.892,0.000,0.000,1.000,1.000
187852,-0.415,0.968,-9.753,-0.038,-0.078,-0.075,-0.016,-0.003,0.011,0.003,0.044,1.168,0.283,0.001,1.184,-0.016,-0.002,0.012,0,0,0,0,0,1.892,0.000,0.000,1.000,1.000
187863,-0.495,0.963,-9.798,-0.037,-0.088,-0.083,-0.017,-0.004,0.010,0.003,0.044,1.184,0.284,0.001,1.168,-0.016,-0.003,0.011,0,0,0,0,0,1.892,0.000,0.000,1.000,1.000
187874,-0.455,0.989,-9.757,-0.036,-0.103,-0.101,-0.017,-0.005,0.009,0.003,0.044,1.152,0.285,0.001,1.168,-0.017,-0.004,0.010,0,0,0,0,0,1.892,0.000,0.000,1.000,1.000
187885,-0.470,0.980,-9.738,-0.034,-0.105,-0.105,-0.017,-0.006,0.008,0.003,0.044,1.168,0.286,0.001,1.168,-0.017,-0.005,0.009,0,0,0,0,0,1.892,0.000,0.000,1.000,1.000
187896,-0.534,0.920,-9.755,-0.030,-0.115,-0.115,-0.018,-0.007,0.007,0.003,0.044,1.152,0.287,0.001,1.184,-0.017,-0.006,0.008,0,0,0,0,0,1.892,0.000,0.000,1.000,1.000
187907,-0.535,0.973,-9.848,-0.025,-0.121,-0.126,-0.018,-0.008,0.006,0.003,0.044,1.152,0.288,0.001,1.168,-0.018,-0.007,0.007,0,0,0,0,0,1.892,0.000,0.000,1.000,1.000
187918,-0.456,0.967,-9.741,-0.023,-0.126,-0.130,-0.018,-0.009,0.005,0.003,0.044,1.168,0.288,0.001,1.168,-0.018,-0.008,0.006,0,0,0,0,0,1.892,0.000,0.000,1.000,1.000
187929,-0.531,0.987,-9.755,-0.020,-0.132,-0.138,-0.018,-0.011,0.003,0.003,0.044,1.168,0.289,0.001,1.184,-0.018,-0.009,0.005,0,0,0,0,0,0.725,0.000,0.000,1.000,1.000
187940,-0.593,0.952,-9.721,-0.014,-0.138,-0.143,-0.019,-0.012,0.002,0.003,0.044,1.184,0.290,0.001,1.168,-0.018,-0.011,0.003,0,0,0,0,0,0.725,0.000,0.000,1.000,1.000
187951,-0.525,0.989,-9.852,-0.009,-0.142,-0.151,-0.019,-0.013,0.000,0.003,0.044,1.168,0.291,0.001,1.184,-0.019,-0.012,0.002,0,0,0,0,0,0.725,0.000,0.000,1.000,1.000
187962,-0.556,1.032,-9.861,-0.003,-0.145,-0.154,-0.019,-0.015,-0.001,0.003,0.044,1.184,0.292,0.001,1.168,-0.019,-0.013,0.000,0,0,0,0,0,0.725,0.000,0.000,1.000,1.000
187973,-0.446,1.216,-9.883,-0.004,-0.133,-0.145,-0.019,-0.016,-0.003,0.003,0.044,1.184,0.293,0.001,1.184,-0.019,-0.015,-0.001,0,0,0,0,0,0.725,0.000,0.000,1.000,1.000
187984,-0.435,1.098,-9.795,-0.011,-0.125,-0.131,-0.019,-0.017,-0.004,0.003,0.044,1.184,0.294,0.001,1.168,-0.019,-0.016,-0.003,0,0,0,0,0,0.725,0.000,0.000,1.000,1.000
187995,-0.522,1.205,-9.886,-0.008,-0.116,-0.116,-0.019,-0.019,-0.005,0.003,0.044,1.168,0.295,0.001,1.168,-0.019,-0.017,-0.004,0,0,0,0,0,0.725,0.000,0.000,1.000,1.000
188006,-0.535,1.102,-9.849,-0.020,-0.103,-0.101,-0.019,-0.020,-0.006,0.003,0.044,1.184,0.296,0.001,1.184,-0.019,-0.019,-0.005,0,0,0,0,0,0.725,0.000,0.000,1.000,1.000
188017,-0.452,1.248,-9.896,-0.028,-0.086,-0.092,-0.019,-0.020,-0.007,0.003,0.044,1.184,0.297,0.001,1.184,-0.019,-0.020,-0.006,0,0,0,0,0,0.725,0.000,0.000,1.000,1.000
188028,-0.433,1.217,-9.866,-0.037,-0.070,-0.065,-0.020,-0.021,-0.008,0.003,0.044,1.200,0.298,0.001,1.168,-0.019,-0.020,-0.007,0,0,0,0,0,0.725,0.000,0.000,1.000,1.000
188039,-0.482,1.178,-9.953,-0.033,-0.050,-0.043,-0.020,-0.022,-0.008,0.003,0.044,1.200,0.299,0.001,1.184,-0.020,-0.021,-0.008,0,0,0,0,0,0.725,0.000,0.000,1.000,1.000
188050,-0.507,1.087,-9.895,-0.032,-0.013,-0.004,-0.020,-0.022,-0.008,0.003,0.044,1.168,0.300,0.001,1.184,-0.020,-0.022,-0.008,0,0,0,0,0,0.725,0.000,0.000,1.000,1.000
188061,-0.524,1.175,-9.875,-0.031,0.001,0.009,-0.021,-0.022,-0.008,0.003,0.044,1.200,0.301,0.001,1.184,-0.020,-0.022,-0.008,0,0,0,0,0,0.725,0.000,0.000,1.000,1.000
188072,-0.519,1.140,-9.802,-0.037,0.017,0.026,-0.021,-0.022,-0.008,0.003,0.044,1.216,0.302,0.001,1.184,-0.021,-0.022,-0.008,0,0,0,0,0,0.725,0.000,0.000,1.000,1.000
188083,-0.543,1.116,-9.850,-0.033,0.027,0.034,-0.021,-0.021,-0.008,0.003,0.044,1.200,0.303,0.001,1.184,-0.021,-0.022,-0.008,0,0,0,0,0,0.725,0.000,0.000,1.000,1.000
188094,-0.586,1.103,-9.881,-0.031,0.035,0.043,-0.022,-0.021,-0.007,0.003,0.044,1.200,0.304,0.001,1.200,-0.021,-0.021,-0.008,0,0,0,0,0,0.725,0.000,0.000,1.000,1.000
188105,-0.518,1.098,-9.872,-0.027,0.044,0.053,-0.022,-0.021,-0.007,0.003,0.044,1.200,0.305,0.001,1.184,-0.022,-0.021,-0.007,0,0,0,0,0,0.725,0.000,0.000,1.000,1.000
188116,-0.537,1.096,-9.761,-0.023,0.051,0.060,-0.022,-0.020,-0.006,0.003,0.044,1.200,0.305,0.001,1.200,-0.022,-0.021,-0.007,0,0,0,0,0,0.725,0.000,0.000,1.000,1.000
188127,-0.562,1.107,-9.869,-0.020,0.060,0.070,-0.022,-0.019,-0.005,0.003,0.044,1.200,0.306,0.001,1.184,-0.022,-0.020,-0.006,0,0,0,0,0,0.725,0.000,0.000,1.000,1.000
188138,-0.463,1.146,-9.837,-0.012,0.077,0.081,-0.022,-0.019,-0.005,0.003,0.044,1.216,0.307,0.001,1.200,-0.022,-0.019,-0.005,0,0,0,0,0,0.725,0.000,0.000,1.000,1.000
188149,-0.497,1.065,-9.843,-0.008,0.083,0.095,-0.022,-0.018,-0.004,0.003,0.044,1.200,0.308,0.001,1.216,-0.022,-0.019,-0.005,0,0,0,0,0,0.725,0.000,0.000,1.000,1.000
188160,-0.596,1.072,-9.805,-0.001,0.088,0.094,-0.022,-0.017,-0.003,0.003,0.044,1.216,0.309,0.001,1.216,-0.022,-0.018,-0.004,0,0,0,0,0,0.725,0.000,0.000,1.000,1.000
188171,-0.497,1.137,-9.886,0.002,0.099,0.101,-0.022,-0.016,-0.002,0.003,0.044,1.265,0.310,0.001,1.200,-0.022,-0.017,-0.003,0,0,0,0,0,0.725,0.000,0.000,1.000,1.000
188182,-0.439,1.012,-9.768,0.007,0.101,0.112,-0.022,-0.015,-0.001,0.003,0.044,1.216,0.311,0.001,1.200,-0.022,-0.016,-0.002,0,0,0,0,0,0.725,0.000,0.000,1.000,1.000
188193,-0.587,1.099,-9.859,0.014,0.101,0.110,-0.022,-0.014,0.001,0.003,0.044,1.216,0.312,0.001,1.200,-0.022,-0.015,-0.001,0,0,0,0,0,0.725,0.000,0.000,1.000,1.000
188204,-0.493,1.053,-9.800,0.018,0.110,0.116,-0.022,-0.013,0.002,0.003,0.044,0.974,0.313,0.001,1.200,-0.022,-0.014,0.001,0,0,0,0,0,0.725,0.000,0.000,1.000,1.000
188215,-0.431,1.030,-9.779,0.025,0.110,0.116,-0.022,-0.012,0.003,0.003,0.044,1.216,0.314,0.001,1.216,-0.022,-0.013,0.002,0,0,0,0,0,0.725,0.000,0.000,1.000,1.000
188226,-0.485,1.031,-9.735,0.027,0.110,0.114,-0.022,-0.011,0.004,0.003,0.044,1.200,0.315,0.001,1.200,-0.022,-0.012,0.003,0,0,0,0,0,0.725,0.000,0.000,1.000,1.000
188237,-0.421,1.050,-9.768,0.029,0.110,0.110,-0.021,-0.010,0.005,0.003,0.044,1.216,0.316,0.001,1.216,-0.022,-0.011,0.004,0,0,0,0,0,0.725,0.000,0.000,1.000,1.000
188248,-0.501,1.082,-9.791,0.033,0.105,0.111,-0.021,-0.008,0.006,0.003,0.044,1.200,0.317,0.001,1.216,-0.021,-0.010,0.005,0,0,0,0,0,1.892,0.000,0.000,1.000,1.000
188259,-0.500,1.042,-9.776,0.024,0.105,0.106,-0.021,-0.007,0.007,0.003,0.044,1.200,0.318,0.001,1.216,-0.021,-0.008,0.006,0,0,0,0,0,1.892,0.000,0.000,1.000,1.000
188270,-0.426,1.052,-9.747,0.025,0.103,0.103,-0.020,-0.006,0.008,0.003,0.044,1.200,0.319,0.001,1.200,-0.021,-0.007,0.007,0,0,0,0,0,1.892,0.000,0.000,1.000,1.000
188281,-0.437,1.040,-9.747,0.028,0.097,0.103,-0.020,-0.005,0.009,0.003,0.044,1.216,0.320,0.001,1.216,-0.020,-0.006,0.008,0,0,0,0,0,1.892,0.000,0.000,1.000,1.000
188292,-0.480,1.052,-9.771,0.022,0.092,0.094,-0.020,-0.005,0.010,0.003,0.044,1.200,0.321,0.001,1.216,-0.020,-0.005,0.009,0,0,0,0,0,1.892,0.000,0.000,1.000,1.000
188303,-0.530,1.036,-9.657,0.013,0.084,0.083,-0.020,-0.004,0.011,0.003,0.044,1.216,0.322,0.001,1.216,-0.020,-0.005,0.010,0,0,0,0,0,1.892,0.000,0.000,1.000,1.000
188314,-0.374,1.038,-9.684,-0.000,0.073,0.065,-0.020,-0.003,0.012,0.003,0.044,1.200,0.323,0.001,1.232,-0.020,-0.004,0.011,0,0,0,0,0,1.892,0.000,0.000,1.000,1.000
188325,-0.507,1.011,-9.673,-0.001,0.048,0.054,-0.020,-0.002,0.012,0.003,0.044,1.200,0.323,0.001,1.216,-0.020,-0.003,0.012,0,0,0,0,0,1.892,0.000,0.000,1.000,1.000
188336,-0.564,1.016,-9.729,-0.017,0.037,0.034,-0.020,-0.002,0.013,0.003,0.044,1.200,0.324,0.001,1.216,-0.020,-0.002,0.012,0,0,0,0,0,1.892,0.000,0.000,1.000,1.000
188347,-0.488,0.915,-9.593,-0.022,0.016,0.016,-0.020,-0.002,0.013,0.003,0.044,1.216,0.325,0.001,1.216,-0.020,-0.002,0.013,0,0,0,0,0,1.892,0.000,0.000,1.000,1.000
188358,-0.569,0.987,-9.671,-0.022,-0.010,-0.013,-0.020,-0.002,0.013,0.003,0.044,1.216,0.326,0.001,1.216,-0.020,-0.002,0.013,0,0,0,0,0,1.892,0.000,0.000,1.000,1.000
188369,-0.528,0.964,-9.686,-0.025,-0.027,-0.033,-0.021,-0.002,0.012,0.003,0.044,1.216,0.327,0.002,1.200,-0.020,-0.002,0.013,0,0,0,0,0,1.892,0.000,0.000,1.000,1.000
188380,-0.430,0.982,-9.726,-0.028,-0.043,-0.053,-0.021,-0.003,0.012,0.003,0.044,1.200,0.328,0.002,1.232,-0.021,-0.002,0.012,0,0,0,0,0,1.892,0.000,0.000,1.000,1.000
188391,-0.431,1.061,-9.668,-0.033,-0.054,-0.065,-0.021,-0.003,0.011,0.003,0.044,1.200,0.329,0.002,1.232,-0.021,-0.003,0.012,0,0,0,0,0,1.892,0.000,0.000,1.000,1.000
188402,-0.353,1.211,-10.165,-0.038,-0.064,-0.070,-0.022,-0.004,0.011,0.003,0.044,1.216,0.330,0.002,1.216,-0.021,-0.003,0.011,0,0,0,0,0,1.892,0.000,0.000,1.000,1.000
188413,-0.467,1.262,-10.104,-0.001,-0.062,-0.066,-0.022,-0.004,0.010,0.003,0.044,1.216,0.331,0.002,1.216,-0.022,-0.004,0.011,0,0,0,0,0,1.892,0.000,0.000,1.000,1.000
188424,-0.451,1.219,-10.039,0.054,-0.072,-0.076,-0.021,-0.005,0.009,0.003,0.044,1.232,0.332,0.002,1.216,-0.022,-0.004,0.010,0,0,0,0,0,1.892,0.000,0.000,1.000,1.000
188435,-0.482,1.056,-10.037,0.096,-0.081,-0.082,-0.020,-0.006,0.008,0.003,0.044,1.216,0.333,0.002,1.216,-0.021,-0.005,0.009,0,0,0,0,0,1.892,0.000,0.000,1.000,1.000
188446,-0.440,1.103,-10.112,0.159,-0.092,-0.097,-0.019,-0.007,0.007,0.003,0.044,1.216,0.334,0.002,1.216,-0.020,-0.006,0.008,0,0,0,0,0,1.892,0.000,0.000,1.000,1.000
188457,-0.510,0.975,-9.848,0.207,-0.100,-0.108,-0.016,-0.008,0.006,0.003,0.044,1.216,0.335,0.002,1.216,-0.019,-0.007,0.007,0,0,0,0,0,1.892,0.000,0.000,1.000,1.000
188468,-0.644,0.865,-9.735,0.225,-0.128,-0.127,-0.014,-0.009,0.005,0.003,0.044,1.216,0.336,0.002,1.216,-0.016,-0.008,0.006,0,0,0,0,0,1.892,0.000,0.000,1.000,1.000
188479,-0.586,0.741,-9.609,0.236,-0.138,-0.148,-0.012,-0.011,0.003,0.003,0.044,1.216,0.337,0.002,1.232,-0.014,-0.009,0.005,0,0,0,0,0,1.892,0.000,0.000,1.000,1.000
188490,-0.487,0.928,-10.146,0.243,-0.143,-0.167,-0.009,-0.012,0.002,0.003,0.044,1.232,0.338,0.002,1.216,-0.012,-0.011,0.003,0,0,0,0,0,0.725,0.000,0.000,1.000,1.000
188501,-0.617,0.895,-9.980,0.280,-0.159,-0.176,-0.007,-0.014,0.000,0.003,0.044,1.216,0.339,0.002,1.216,-0.009,-0.012,0.002,0,0,0,0,0,0.725,0.000,0.000,1.000,1.000
188512,-0.528,0.786,-9.763,0.287,-0.159,-0.182,-0.004,-0.015,-0.002,0.003,0.044,1.216,0.340,0.002,1.232,-0.007,-0.014,0.000,0,0,0,0,0,0.725,0.000,0.000,1.000,1.000
188523,-0.468,0.942,-9.829,0.292,-0.155,-0.184,-0.001,-0.017,-0.004,0.003,0.044,1.232,0.341,0.002,1.216,-0.004,-0.015,-0.002,0,0,0,0,0,0.725,0.000,0.000,1.000,1.000
188534,-0.397,1.007,-9.917,0.292,-0.143,-0.166,0.002,-0.018,-0.005,0.003,0.044,1.216,0.341,0.002,1.232,-0.001,-0.017,-0.004,0,0,0,0,0,0.725,0.000,0.000,1.000,1.000
188545,-0.468,0.940,-9.968,0.294,-0.131,-0.148,0.005,-0.019,-0.007,0.003,0.044,1.216,0.342,0.002,1.200,0.002,-0.018,-0.005,0,0,0,0,0,0.725,0.000,0.000,1.000,1.000
188556,-0.531,0.898,-9.971,0.302,-0.120,-0.134,0.008,-0.021,-0.008,0.003,0.044,1.216,0.343,0.002,1.232,0.005,-0.019,-0.007,0,0,0,0,0,0.725,0.000,0.000,1.000,1.000
