Time, Accel X [mg],Accel Y [mg],Accel Z [mg],dRoll [deg/s],dPitch [deg/s],dHeading [deg/s],Roll [deg],Pitch [deg],Yaw [deg],Frequency Reader Frequency [Hz], Calibrated Velocity [m/s],Pressure Sensor Depth [m],State Estimator X [m],State Estimator Y [m],State Estimator Z [m],State Estimator Roll [rad],State Estimator Pitch [rad],State Estimator Yaw [rad],Motor A, Motor B, Motor C, Motor D, Motor E,Servo Angle [rad],Waypoint X [m], Waypoint Y [m], Waypoint Z [m], Waiting [bool]
154579,1.454,-1.996,0.369,0.002,0.015,0.006,0.000,0.000,0.000,0.003,0.044,0.329,0.001,0.000,0.345,0.000,0.000,0.000,0,0,0,0,0,0.725,0.000,0.000,1.000,1.000
154590,1.446,-1.992,0.370,0.003,0.015,0.006,0.000,0.000,0.000,0.003,0.044,0.329,0.002,0.000,0.361,0.000,0.000,0.000,0,0,0,0,0,0.725,0.000,0.000,1.000,1.000
154601,1.442,-1.999,0.360,0.005,0.016,0.006,0.000,0.000,0.000,0.003,0.044,0.345,0.003,0.000,0.329,0.000,0.000,0.000,0,0,0,0,0,0.725,0.000,0.000,1.000,1.000
154612,1.452,-1.976,0.323,0.007,0.017,0.007,0.000,0.001,0.000,0.003,0.044,0.345,0.004,0.000,0.329,0.000,0.000,0.000,0,0,0,0,0,0.725,0.000,0.000,1.000,1.000
154623,1.446,-1.952,0.305,0.016,0.024,0.012,0.000,0.001,0.000,0.003,0.044,0.329,0.005,0.000,0.329,0.000,0.001,0.000,0,0,0,0,0,0.725,0.000,0.000,1.000,1.000
154634,1.480,-1.919,0.409,0.019,0.027,0.021,0.000,0.001,0.000,0.003,0.044,0.329,0.006,0.000,0.345,0.000,0.001,0.000,0,0,0,0,0,1.892,0.000,0.000,1.000,1.000
154645,1.438,-1.984,0.285,0.019,0.023,0.018,0.001,0.001,0.001,0.003,0.044,0.329,0.007,0.000,0.345,0.000,0.001,0.000,0,0,0,0,0,1.892,0.000,0.000,1.000,1.000
154656,1.393,-2.001,0.263,0.035,0.039,0.024,0.001,0.002,0.001,0.003,0.044,0.329,0.008,0.000,0.329,0.001,0.001,0.001,0,0,0,0,0,1.892,0.000,0.000,1.000,1.000
154667,1.466,-1.909,0.420,0.044,0.042,0.033,0.001,0.002,0.001,0.003,0.044,0.345,0.009,0.000,0.329,0.001,0.002,0.001,0,0,0,0,0,1.892,0.000,0.000,1.000,1.000
154678,1.449,-1.971,0.424,0.039,0.035,0.024,0.002,0.003,0.001,0.003,0.044,0.329,0.010,0.000,0.329,0.001,0.002,0.001,0,0,0,0,0,1.892,0.000,0.000,1.000,1.000
154689,1.468,-1.994,0.509,0.035,0.039,0.018,0.002,0.003,0.002,0.003,0.044,0.329,0.011,0.000,0.345,0.002,0.003,0.001,0,0,0,0,0,1.892,0.000,0.000,1.000,1.000
154700,1.486,-2.042,0.330,0.016,0.028,-0.001,0.002,0.003,0.002,0.003,0.044,0.329,0.012,0.000,0.345,0.002,0.003,0.002,0,0,0,0,0,1.892,0.000,0.000,1.000,1.000
154711,1.415,-1.982,0.412,0.012,0.034,-0.004,0.002,0.004,0.002,0.003,0.044,0.313,0.013,0.000,0.329,0.002,0.003,0.002,0,0,0,0,0,1.892,0.000,0.000,1.000,1.000
154722,1.512,-1.930,0.602,-0.009,0.017,-0.005,0.002,0.004,0.002,0.003,0.044,0.345,0.014,0.000,0.313,0.002,0.004,0.002,0,0,0,0,0,1.892,0.000,0.000,1.000,1.000
154733,1.371,-2.108,0.419,-0.033,-0.006,-0.032,0.002,0.004,0.001,0.003,0.044,0.329,0.015,0.000,0.345,0.002,0.004,0.002,0,0,0,0,0,1.892,0.000,0.000,1.000,1.000
154744,1.333,-2.151,0.384,-0.041,-0.013,-0.046,0.002,0.004,0.001,0.003,0.044,0.345,0.016,0.000,0.329,0.002,0.004,0.001,0,0,0,0,0,1.892,0.000,0.000,1.000,1.000
154755,1.363,-2.039,0.475,-0.049,-0.022,-0.057,0.001,0.003,0.000,0.003,0.044,0.329,0.017,0.000,0.345,0.002,0.004,0.001,0,0,0,0,0,1.892,0.000,0.000,1.000,1.000
154766,1.323,-2.050,0.463,-0.063,-0.040,-0.083,0.000,0.003,-0.001,0.003,0.044,0.329,0.018,0.000,0.345,0.001,0.003,0.000,0,0,0,0,0,0.725,0.000,0.000,1.000,1.000
154777,1.373,-1.951,0.464,-0.059,-0.051,-0.088,-0.000,0.002,-0.002,0.003,0.044,0.361,0.019,0.000,0.329,0.000,0.003,-0.001,0,0,0,0,0,0.725,0.000,0.000,1.000,1.000
154788,1.438,-2.011,0.355,-0.067,-0.060,-0.098,-0.001,0.002,-0.003,0.003,0.044,0.345,0.020,0.000,0.329,-0.000,0.002,-0.002,0,0,0,0,0,0.725,0.000,0.000,1.000,1.000
154799,1.482,-1.994,0.340,-0.070,-0.055,-0.097,-0.001,0.001,-0.003,0.003,0.044,0.345,0.021,0.000,0.329,-0.001,0.002,-0.003,0,0,0,0,0,0.725,0.000,0.000,1.000,1.000
154810,1.482,-1.923,0.339,-0.072,-0.049,-0.086,-0.002,0.001,-0.004,0.003,0.044,0.345,0.022,0.000,0.345,-0.001,0.001,-0.003,0,0,0,0,0,0.725,0.000,0.000,1.000,1.000
154821,1.501,-1.889,0.334,-0.071,-0.040,-0.076,-0.003,0.000,-0.005,0.003,0.044,0.329,0.023,-0.000,0.329,-0.002,0.001,-0.004,0,0,0,0,0,0.725,0.000,0.000,1.000,1.000
154832,1.533,-1.902,0.329,-0.069,-0.034,-0.056,-0.004,0.000,-0.006,0.003,0.044,0.345,0.024,-0.000,0.345,-0.003,0.000,-0.005,0,0,0,0,0,0.725,0.000,0.000,1.000,1.000
154843,1.529,-1.881,0.193,-0.065,-0.023,-0.037,-0.004,-0.000,-0.006,0.003,0.044,0.329,0.025,-0.000,0.329,-0.004,0.000,-0.006,0,0,0,0,0,0.725,0.000,0.000,1.000,1.000
154854,1.604,-1.884,0.290,-0.054,0.000,-0.012,-0.005,-0.000,-0.006,0.003,0.044,0.345,0.026,-0.000,0.345,-0.004,-0.000,-0.006,0,0,0,0,0,0.725,0.000,0.000,1.000,1.000
154865,1.541,-1.887,0.225,-0.037,0.028,0.031,-0.005,0.000,-0.006,0.003,0.044,0.345,0.027,-0.000,0.329,-0.005,-0.000,-0.006,0,0,0,0,0,0.725,0.000,0.000,1.000,1.000
154876,1.517,-1.892,0.290,-0.020,0.039,0.056,-0.005,0.001,-0.005,0.003,0.044,0.329,0.028,-0.000,0.345,-0.005,0.000,-0.006,0,0,0,0,0,0.725,0.000,0.000,1.000,1.000
154887,1.515,-1.936,0.292,-0.011,0.048,0.068,-0.005,0.001,-0.005,0.003,0.044,0.345,0.029,-0.000,0.329,-0.005,0.001,-0.005,0,0,0,0,0,0.725,0.000,0.000,1.000,1.000
154898,1.546,-1.975,0.224,0.001,0.057,0.078,-0.005,0.002,-0.004,0.003,0.044,0.329,0.030,-0.000,0.345,-0.005,0.001,-0.005,0,0,0,0,0,0.725,0.000,0.000,1.000,1.000
154909,1.515,-1.910,0.326,0.016,0.073,0.095,-0.005,0.002,-0.003,0.003,0.044,0.313,0.031,-0.000,0.345,-0.005,0.002,-0.004,0,0,0,0,0,0.725,0.000,0.000,1.000,1.000
154920,1.533,-1.905,0.324,0.021,0.071,0.100,-0.005,0.003,-0.002,0.003,0.044,0.329,0.032,-0.000,0.345,-0.005,0.002,-0.003,0,0,0,0,0,0.725,0.000,0.000,1.000,1.000
154931,1.475,-1.948,0.304,0.033,0.075,0.104,-0.005,0.004,-0.001,0.003,0.044,0.329,0.033,-0.000,0.329,-0.005,0.003,-0.002,0,0,0,0,0,0.725,0.000,0.000,1.000,1.000
154942,1.505,-1.945,0.365,0.044,0.078,0.109,-0.004,0.005,0.000,0.003,0.044,0.329,0.034,-0.000,0.329,-0.005,0.004,-0.001,0,0,0,0,0,1.892,0.000,0.000,1.000,1.000
154953,1.479,-1.950,0.324,0.060,0.076,0.103,-0.004,0.005,0.001,0.003,0.044,0.345,0.035,-0.000,0.361,-0.004,0.005,0.000,0,0,0,0,0,1.892,0.000,0.000,1.000,1.000
154964,1.506,-1.885,0.378,0.069,0.079,0.103,-0.003,0.006,0.002,0.003,0.044,0.345,0.036,-0.000,0.329,-0.004,0.005,0.001,0,0,0,0,0,1.892,0.000,0.000,1.000,1.000
154975,1.519,-1.892,0.399,0.072,0.076,0.098,-0.002,0.007,0.003,0.003,0.044,0.329,0.037,-0.000,0.313,-0.003,0.006,0.002,0,0,0,0,0,1.892,0.000,0.000,1.000,1.000
154986,1.461,-1.935,0.345,0.077,0.075,0.093,-0.002,0.008,0.004,0.003,0.044,0.329,0.038,-0.000,0.345,-0.002,0.007,0.003,0,0,0,0,0,1.892,0.000,0.000,1.000,1.000
154997,1.546,-1.905,0.443,0.077,0.078,0.092,-0.001,0.008,0.005,0.003,0.044,0.345,0.039,-0.000,0.329,-0.002,0.008,0.004,0,0,0,0,0,1.892,0.000,0.000,1.000,1.000
155008,1.509,-1.946,0.422,0.067,0.073,0.077,-0.000,0.009,0.006,0.003,0.044,0.313,0.040,-0.000,0.313,-0.001,0.008,0.005,0,0,0,0,0,1.892,0.000,0.000,1.000,1.000
155019,1.512,-1.952,0.378,0.057,0.073,0.066,0.000,0.010,0.007,0.003,0.044,0.329,0.041,-0.000,0.345,-0.000,0.009,0.006,0,0,0,0,0,1.892,0.000,0.000,1.000,1.000
155030,1.507,-1.891,0.444,0.050,0.073,0.059,0.001,0.011,0.007,0.003,0.044,0.329,0.042,-0.000,0.313,0.000,0.010,0.007,0,0,0,0,0,1.892,0.000,0.000,1.000,1.000
155041,1.479,-1.926,0.457,0.035,0.068,0.046,0.001,0.011,0.008,0.003,0.044,0.329,0.043,-0.000,0.313,0.001,0.011,0.007,0,0,0,0,0,1.892,0.000,0.000,1.000,1.000
155052,1.445,-2.003,0.436,0.006,0.044,0.015,0.001,0.012,0.008,0.003,0.044,0.329,0.044,-0.000,0.329,0.001,0.011,0.008,0,0,0,0,0,1.892,0.000,0.000,1.000,1.000
155063,1.391,-1.997,0.494,-0.010,0.027,-0.007,0.001,0.012,0.008,0.003,0.044,0.329,0.045,0.000,0.345,0.001,0.012,0.008,0,0,0,0,0,1.892,0.000,0.000,1.000,1.000
155074,1.393,-2.027,0.450,-0.025,0.011,-0.034,0.001,0.012,0.007,0.003,0.044,0.345,0.046,0.000,0.329,0.001,0.012,0.008,0,0,0,0,0,1.892,0.000,0.000,1.000,1.000
155085,1.395,-1.958,0.455,-0.036,-0.004,-0.055,0.001,0.012,0.007,0.003,0.044,0.329,0.047,0.000,0.361,0.001,0.012,0.007,0,0,0,0,0,1.892,0.000,0.000,1.000,1.000
155096,1.437,-1.919,0.454,-0.045,-0.016,-0.073,0.000,0.012,0.006,0.003,0.044,0.329,0.048,0.000,0.345,0.001,0.012,0.007,0,0,0,0,0,1.892,0.000,0.000,1.000,1.000
155107,1.460,-1.915,0.401,-0.056,-0.027,-0.086,-0.000,0.012,0.005,0.003,0.044,0.329,0.049,0.000,0.329,0.000,0.012,0.006,0,0,0,0,0,1.892,0.000,0.000,1.000,1.000
155118,1.420,-1.901,0.436,-0.066,-0.035,-0.093,-0.001,0.011,0.004,0.003,0.044,0.345,0.050,0.000,0.329,-0.000,0.012,0.005,0,0,0,0,0,1.892,0.000,0.000,1.000,1.000
155129,1.477,-1.913,0.406,-0.077,-0.039,-0.103,-0.002,0.011,0.003,0.003,0.044,0.345,0.051,0.000,0.329,-0.001,0.011,0.004,0,0,0,0,0,1.892,0.000,0.000,1.000,1.000
155140,1.449,-1.883,0.395,-0.088,-0.043,-0.106,-0.003,0.010,0.002,0.003,0.044,0.329,0.051,0.000,0.345,-0.002,0.011,0.003,0,0,0,0,0,1.892,0.000,0.000,1.000,1.000
155151,1.481,-1.909,0.347,-0.092,-0.043,-0.111,-0.004,0.010,0.001,0.003,0.044,0.345,0.052,0.000,0.345,-0.003,0.010,0.002,0,0,0,0,0,1.892,0.000,0.000,1.000,1.000
155162,1.477,-1.908,0.381,-0.092,-0.042,-0.106,-0.004,0.010,0.000,0.003,0.044,0.345,0.053,0.000,0.329,-0.004,0.010,0.001,0,0,0,0,0,1.892,0.000,0.000,1.000,1.000
155173,1.401,-1.917,0.463,-0.096,-0.046,-0.111,-0.005,0.009,-0.001,0.003,0.044,0.329,0.054,0.000,0.329,-0.004,0.010,0.000,0,0,0,0,0,0.725,0.000,0.000,1.000,1.000
155184,1.495,-2.000,0.358,-0.104,-0.055,-0.123,-0.006,0.009,-0.002,0.003,0.044,0.345,0.055,0.000,0.345,-0.005,0.009,-0.001,0,0,0,0,0,0.725,0.000,0.000,1.000,1.000
155195,1.470,-1.963,0.382,-0.104,-0.053,-0.126,-0.008,0.008,-0.004,0.003,0.044,0.329,0.056,0.000,0.329,-0.006,0.009,-0.002,0,0,0,0,0,0.725,0.000,0.000,1.000,1.000
155206,1.495,-1.919,0.424,-0.109,-0.056,-0.128,-0.009,0.008,-0.005,0.003,0.044,0.345,0.057,0.000,0.345,-0.008,0.008,-0.004,0,0,0,0,0,0.725,0.000,0.000,1.000,1.000
155217,1.525,-1.890,0.354,-0.110,-0.060,-0.131,-0.010,0.007,-0.006,0.003,0.044,0.329,0.058,0.000,0.345,-0.009,0.008,-0.005,0,0,0,0,0,0.725,0.000,0.000,1.000,1.000
155228,1.571,-1.816,0.278,-0.102,-0.040,-0.099,-0.011,0.007,-0.007,0.003,0.044,0.345,0.059,0.000,0.345,-0.010,0.007,-0.006,0,0,0,0,0,0.725,0.000,0.000,1.000,1.000
155239,1.680,-1.813,0.276,-0.103,-0.033,-0.082,-0.012,0.006,-0.008,0.003,0.044,0.345,0.060,0.000,0.345,-0.011,0.007,-0.007,0,0,0,0,0,0.725,0.000,0.000,1.000,1.000
155250,1.769,-1.822,0.281,-0.102,-0.018,-0.059,-0.013,0.006,-0.009,0.003,0.044,0.345,0.062,0.000,0.329,-0.012,0.006,-0.008,0,0,0,0,0,0.725,0.000,0.000,1.000,1.000
155261,1.641,-1.826,0.218,-0.098,-0.006,-0.038,-0.014,0.006,-0.009,0.003,0.044,0.345,0.062,0.000,0.329,-0.013,0.006,-0.009,0,0,0,0,0,0.725,0.000,0.000,1.000,1.000
155272,1.696,-1.829,0.201,-0.088,0.011,-0.016,-0.015,0.006,-0.009,0.003,0.044,0.345,0.063,-0.000,0.313,-0.014,0.006,-0.009,0,0,0,0,0,0.725,0.000,0.000,1.000,1.000
155283,1.661,-1.794,0.251,-0.072,0.021,0.009,-0.015,0.006,-0.009,0.003,0.044,0.329,0.065,-0.000,0.345,-0.015,0.006,-0.009,0,0,0,0,0,0.725,0.000,0.000,1.000,1.000
155294,1.604,-1.843,0.299,-0.059,0.024,0.022,-0.016,0.007,-0.009,0.003,0.044,0.329,0.065,-0.000,0.345,-0.015,0.006,-0.009,0,0,0,0,0,0.725,0.000,0.000,1.000,1.000
155305,1.759,-1.879,0.213,-0.045,0.035,0.035,-0.016,0.007,-0.008,0.003,0.044,0.329,0.066,-0.000,0.345,-0.016,0.007,-0.009,0,0,0,0,0,0.725,0.000,0.000,1.000,1.000
155316,1.686,-1.861,0.215,-0.028,0.046,0.056,-0.017,0.007,-0.008,0.003,0.044,0.329,0.068,-0.000,0.329,-0.016,0.007,-0.008,0,0,0,0,0,0.725,0.000,0.000,1.000,1.000
155327,1.680,-1.862,0.321,-0.011,0.059,0.071,-0.017,0.008,-0.007,0.003,0.044,0.345,0.068,-0.000,0.329,-0.017,0.007,-0.008,0,0,0,0,0,0.725,0.000,0.000,1.000,1.000
155338,1.604,-1.856,0.381,-0.001,0.056,0.079,-0.017,0.009,-0.006,0.003,0.044,0.329,0.069,-0.000,0.313,-0.017,0.008,-0.007,0,0,0,0,0,0.725,0.000,0.000,1.000,1.000
155349,1.661,-1.923,0.294,0.003,0.056,0.068,-0.017,0.009,-0.006,0.003,0.044,0.329,0.071,-0.000,0.345,-0.017,0.009,-0.006,0,0,0,0,0,0.725,0.000,0.000,1.000,1.000
155360,1.669,-1.911,0.309,0.023,0.065,0.075,-0.017,0.010,-0.005,0.003,0.044,0.329,0.071,-0.000,0.345,-0.017,0.009,-0.006,0,0,0,0,0,0.725,0.000,0.000,1.000,1.000
155371,1.646,-1.823,0.397,0.032,0.071,0.076,-0.016,0.010,-0.004,0.003,0.044,0.345,0.072,-0.000,0.329,-0.017,0.010,-0.005,0,0,0,0,0,0.725,0.000,0.000,1.000,1.000
155382,1.681,-1.837,0.363,0.030,0.070,0.066,-0.016,0.011,-0.004,0.003,0.044,0.345,0.073,-0.000,0.361,-0.016,0.010,-0.004,0,0,0,0,0,0.725,0.000,0.000,1.000,1.000
155393,1.611,-1.880,0.327,0.049,0.084,0.072,-0.015,0.012,-0.003,0.003,0.044,0.345,0.074,-0.000,0.329,-0.016,0.011,-0.004,0,0,0,0,0,0.725,0.000,0.000,1.000,1.000
155404,1.619,-1.858,0.360,0.056,0.098,0.065,-0.015,0.013,-0.002,0.003,0.044,0.345,0.075,-0.000,0.329,-0.015,0.012,-0.003,0,0,0,0,0,0.725,0.000,0.000,1.000,1.000
155415,1.595,-1.878,0.320,0.065,0.112,0.064,-0.014,0.014,-0.002,0.003,0.044,0.345,0.076,-0.000,0.345,-0.015,0.013,-0.002,0,0,0,0,0,0.725,0.000,0.000,1.000,1.000
155426,1.619,-1.764,0.466,0.067,0.120,0.065,-0.014,0.015,-0.001,0.003,0.044,0.329,0.077,-0.000,0.345,-0.014,0.014,-0.002,0,0,0,0,0,0.725,0.000,0.000,1.000,1.000
155437,1.641,-1.816,0.357,0.065,0.123,0.056,-0.013,0.017,-0.000,0.003,0.044,0.329,0.078,-0.000,0.329,-0.014,0.015,-0.001,0,0,0,0,0,1.892,0.000,0.000,1.000,1.000
155448,1.576,-1.802,0.352,0.068,0.132,0.055,-0.012,0.018,0.000,0.003,0.044,0.329,0.079,-0.000,0.329,-0.013,0.017,-0.000,0,0,0,0,0,1.892,0.000,0.000,1.000,1.000
155459,1.681,-1.746,0.464,0.060,0.138,0.054,-0.012,0.019,0.001,0.003,0.044,0.329,0.081,-0.000,0.329,-0.012,0.018,0.000,0,0,0,0,0,1.892,0.000,0.000,1.000,1.000
155470,1.580,-1.787,0.382,0.047,0.143,0.044,-0.011,0.021,0.001,0.003,0.044,0.329,0.081,-0.000,0.345,-0.012,0.019,0.001,0,0,0,0,0,1.892,0.000,0.000,1.000,1.000
155481,1.625,-1.756,0.421,0.041,0.151,0.043,-0.011,0.022,0.002,0.003,0.044,0.329,0.082,-0.000,0.329,-0.011,0.021,0.001,0,0,0,0,0,1.892,0.000,0.000,1.000,1.000
155492,1.585,-1.798,0.363,-0.000,0.140,0.023,-0.011,0.024,0.002,0.003,0.044,0.345,0.084,-0.000,0.329,-0.011,0.022,0.002,0,0,0,0,0,1.892,0.000,0.000,1.000,1.000
155503,1.595,-1.775,0.339,-0.009,0.142,0.020,-0.011,0.025,0.002,0.003,0.044,0.329,0.084,-0.000,0.345,-0.011,0.024,0.002,0,0,0,0,0,1.892,0.000,0.000,1.000,1.000
155514,1.659,-1.653,0.515,-0.022,0.133,0.020,-0.011,0.026,0.002,0.003,0.044,0.361,0.085,-0.000,0.345,-0.011,0.025,0.002,0,0,0,0,0,1.892,0.000,0.000,1.000,1.000
155525,1.550,-1.714,0.412,-0.042,0.109,0.001,-0.011,0.027,0.002,0.003,0.044,0.345,0.087,-0.000,0.313,-0.011,0.026,0.002,0,0,0,0,0,1.892,0.000,0.000,1.000,1.000
155536,1.582,-1.777,0.384,-0.053,0.092,-0.006,-0.012,0.028,0.002,0.003,0.044,0.329,0.087,-0.000,0.345,-0.011,0.027,0.002,0,0,0,0,0,1.892,0.000,0.000,1.000,1.000
155547,1.579,-1.755,0.458,-0.065,0.066,-0.016,-0.013,0.029,0.002,0.003,0.044,0.329,0.088,-0.000,0.329,-0.012,0.028,0.002,0,0,0,0,0,1.892,0.000,0.000,1.000,1.000
155558,1.531,-1.805,0.389,-0.081,0.040,-0.043,-0.013,0.029,0.002,0.003,0.044,0.313,0.090,-0.000,0.329,-0.013,0.029,0.002,0,0,0,0,0,1.892,0.000,0.000,1.000,1.000
155569,1.585,-1.750,0.418,-0.089,0.017,-0.056,-0.014,0.030,0.001,0.003,0.044,0.329,0.090,-0.000,0.329,-0.013,0.029,0.002,0,0,0,0,0,1.892,0.000,0.000,1.000,1.000
155580,1.613,-1.686,0.404,-0.113,-0.021,-0.079,-0.015,0.029,0.000,0.003,0.044,0.345,0.091,-0.000,0.345,-0.014,0.030,0.001,0,0,0,0,0,1.892,0.000,0.000,1.000,1.000
155591,1.641,-1.677,0.410,-0.121,-0.034,-0.081,-0.017,0.029,-0.001,0.003,0.044,0.345,0.092,-0.000,0.329,-0.015,0.029,0.000,0,0,0,0,0,1.892,0.000,0.000,1.000,1.000
155602,1.651,-1.665,0.361,-0.131,-0.048,-0.084,-0.018,0.029,-0.001,0.003,0.044,0.329,0.093,-0.000,0.345,-0.017,0.029,-0.001,0,0,0,0,0,1.892,0.000,0.000,1.000,1.000
155613,1.664,-1.686,0.402,-0.136,-0.051,-0.084,-0.019,0.028,-0.002,0.003,0.044,0.329,0.094,-0.000,0.329,-0.018,0.029,-0.001,0,0,0,0,0,0.725,0.000,0.000,1.000,1.000
155624,1.673,-1.661,0.410,-0.146,-0.064,-0.084,-0.021,0.027,-0.003,0.003,0.044,0.329,0.095,-0.000,0.329,-0.019,0.028,-0.002,0,0,0,0,0,0.725,0.000,0.000,1.000,1.000
155635,1.683,-1.671,0.375,-0.148,-0.065,-0.084,-0.022,0.027,-0.004,0.003,0.044,0.329,0.096,-0.000,0.329,-0.021,0.027,-0.003,0,0,0,0,0,0.725,0.000,0.000,1.000,1.000
155646,1.687,-1.678,0.420,-0.150,-0.066,-0.078,-0.024,0.026,-0.005,0.003,0.044,0.329,0.097,-0.000,0.345,-0.022,0.027,-0.004,0,0,0,0,0,0.725,0.000,0.000,1.000,1.000
155657,1.723,-1.671,0.363,-0.159,-0.073,-0.081,-0.025,0.025,-0.005,0.003,0.044,0.361,0.098,-0.000,0.329,-0.024,0.026,-0.005,0,0,0,0,0,0.725,0.000,0.000,1.000,1.000
155668,1.790,-1.563,0.323,-0.154,-0.055,-0.048,-0.027,0.025,-0.006,0.003,0.044,0.345,0.100,-0.000,0.329,-0.025,0.025,-0.005,0,0,0,0,0,0.725,0.000,0.000,1.000,1.000
155679,1.814,-1.506,0.333,-0.154,-0.060,-0.032,-0.028,0.024,-0.006,0.003,0.044,0.329,0.100,-0.000,0.329,-0.027,0.025,-0.006,0,0,0,0,0,0.725,0.000,0.000,1.000,1.000
155690,1.961,-1.615,0.281,-0.149,-0.045,-0.010,-0.030,0.024,-0.006,0.003,0.044,0.329,0.101,-0.000,0.329,-0.028,0.024,-0.006,0,0,0,0,0,0.725,0.000,0.000,1.000,1.000
155701,1.859,-1.582,0.310,-0.146,-0.035,0.015,-0.031,0.023,-0.006,0.003,0.044,0.329,0.102,-0.000,0.329,-0.030,0.024,-0.006,0,0,0,0,0,0.725,0.000,0.000,1.000,1.000
155712,1.935,-1.604,0.229,-0.141,-0.021,0.031,-0.033,0.023,-0.006,0.003,0.044,0.313,0.103,-0.000,0.329,-0.031,0.023,-0.006,0,0,0,0,0,0.725,0.000,0.000,1.000,1.000
155723,1.884,-1.576,0.318,-0.121,-0.004,0.055,-0.034,0.023,-0.005,0.003,0.044,0.329,0.104,-0.000,0.345,-0.033,0.023,-0.006,0,0,0,0,0,0.725,0.000,0.000,1.000,1.000
155734,1.848,-1.591,0.359,-0.111,-0.001,0.070,-0.035,0.023,-0.005,0.003,0.044,0.329,0.105,-0.000,0.329,-0.034,0.023,-0.005,0,0,0,0,0,0.725,0.000,0.000,1.000,1.000
155745,1.905,-1.697,0.305,-0.098,0.006,0.072,-0.036,0.023,-0.004,0.003,0.044,0.329,0.106,-0.000,0.345,-0.035,0.023,-0.005,0,0,0,0,0,0.725,0.000,0.000,1.000,1.000
155756,1.926,-1.580,0.348,-0.067,0.033,0.093,-0.037,0.024,-0.003,0.003,0.044,0.329,0.107,-0.000,0.313,-0.036,0.023,-0.004,0,0,0,0,0,0.725,0.000,0.000,1.000,1.000
155767,1.956,-1.610,0.349,-0.058,0.033,0.097,-0.037,0.024,-0.002,0.003,0.044,0.329,0.108,-0.000,0.345,-0.037,0.024,-0.003,0,0,0,0,0,0.725,0.000,0.000,1.000,1.000
155778,1.894,-1.633,0.322,-0.039,0.035,0.101,-0.038,0.024,-0.001,0.003,0.044,0.345,0.109,-0.000,0.345,-0.037,0.024,-0.002,0,0,0,0,0,0.725,0.000,0.000,1.000,1.000
155789,1.939,-1.655,0.383,-0.025,0.037,0.105,-0.038,0.025,0.000,0.003,0.044,0.345,0.110,-0.000,0.345,-0.038,0.024,-0.001,0,0,0,0,0,1.892,0.000,0.000,1.000,1.000
155800,1.937,-1.695,0.311,-0.014,0.035,0.100,-0.038,0.025,0.001,0.003,0.044,0.329,0.111,-0.000,0.329,-0.038,0.025,0.000,0,0,0,0,0,1.892,0.000,0.000,1.000,1.000
155811,1.894,-1.657,0.349,0.002,0.043,0.100,-0.038,0.025,0.002,0.003,0.044,0.329,0.112,-0.000,0.329,-0.038,0.025,0.001,0,0,0,0,0,1.892,0.000,0.000,1.000,1.000
155822,1.954,-1.603,0.397,0.014,0.045,0.100,-0.038,0.026,0.003,0.003,0.044,0.329,0.113,-0.000,0.345,-0.038,0.025,0.002,0,0,0,0,0,1.892,0.000,0.000,1.000,1.000
155833,1.933,-1.628,0.412,0.023,0.040,0.097,-0.038,0.026,0.004,0.003,0.044,0.313,0.114,-0.000,0.329,-0.038,0.026,0.003,0,0,0,0,0,1.892,0.000,0.000,1.000,1.000
155844,1.908,-1.727,0.419,0.027,0.037,0.077,-0.037,0.027,0.005,0.003,0.044,0.345,0.115,-0.000,0.329,-0.038,0.026,0.004,0,0,0,0,0,1.892,0.000,0.000,1.000,1.000
155855,2.005,-1.751,0.433,0.014,0.038,0.062,-0.037,0.027,0.005,0.003,0.044,0.345,0.116,-0.000,0.345,-0.037,0.027,0.005,0,0,0,0,0,1.892,0.000,0.000,1.000,1.000
155866,1.907,-1.685,0.355,0.008,0.034,0.046,-0.037,0.027,0.006,0.003,0.044,0.345,0.117,-0.000,0.345,-0.037,0.027,0.005,0,0,0,0,0,1.892,0.000,0.000,1.000,1.000
155877,1.951,-1.690,0.480,0.001,0.035,0.039,-0.037,0.028,0.006,0.003,0.044,0.329,0.118,-0.000,0.313,-0.037,0.027,0.006,0,0,0,0,0,1.892,0.000,0.000,1.000,1.000
155888,1.929,-1.692,0.512,-0.016,0.013,0.021,-0.037,0.028,0.007,0.003,0.044,0.313,0.119,-0.000,0.329,-0.037,0.028,0.006,0,0,0,0,0,1.892,0.000,0.000,1.000,1.000
155899,1.856,-1.855,0.421,-0.028,0.004,-0.007,-0.038,0.028,0.007,0.003,0.044,0.329,0.120,-0.000,0.345,-0.037,0.028,0.007,0,0,0,0,0,1.892,0.000,0.000,1.000,1.000
155910,1.865,-1.824,0.481,-0.039,-0.006,-0.026,-0.038,0.028,0.006,0.003,0.044,0.329,0.121,-0.000,0.329,-0.038,0.028,0.007,0,0,0,0,0,1.892,0.000,0.000,1.000,1.000
155921,1.839,-1.781,0.501,-0.053,-0.023,-0.055,-0.039,0.028,0.006,0.003,0.044,0.329,0.122,-0.000,0.329,-0.038,0.028,0.006,0,0,0,0,0,1.892,0.000,0.000,1.000,1.000
155932,1.885,-1.715,0.529,-0.063,-0.048,-0.090,-0.039,0.027,0.005,0.003,0.044,0.313,0.123,-0.000,0.329,-0.039,0.028,0.006,0,0,0,0,0,1.892,0.000,0.000,1.000,1.000
155943,1.906,-1.728,0.393,-0.086,-0.062,-0.109,-0.040,0.026,0.004,0.003,0.044,0.329,0.124,-0.000,0.329,-0.039,0.027,0.005,0,0,0,0,0,1.892,0.000,0.000,1.000,1.000
155954,1.918,-1.740,0.377,-0.092,-0.060,-0.114,-0.041,0.026,0.003,0.003,0.044,0.329,0.125,-0.000,0.313,-0.040,0.026,0.004,0,0,0,0,0,1.892,0.000,0.000,1.000,1.000
155965,1.914,-1.667,0.445,-0.103,-0.065,-0.111,-0.042,0.025,0.001,0.003,0.044,0.345,0.126,-0.000,0.329,-0.041,0.026,0.003,0,0,0,0,0,1.892,0.000,0.000,1.000,1.000
155976,1.907,-1.712,0.382,-0.115,-0.070,-0.119,-0.043,0.024,0.000,0.003,0.044,0.329,0.127,-0.000,0.361,-0.042,0.025,0.001,0,0,0,0,0,1.892,0.000,0.000,1.000,1.000
155987,1.937,-1.728,0.377,-0.120,-0.066,-0.112,-0.044,0.024,-0.001,0.003,0.044,0.329,0.128,-0.000,0.329,-0.043,0.024,0.000,0,0,0,0,0,1.892,0.000,0.000,1.000,1.000
155998,1.874,-1.696,0.432,-0.126,-0.065,-0.108,-0.046,0.023,-0.002,0.003,0.044,0.345,0.129,-0.000,0.313,-0.044,0.024,-0.001,0,0,0,0,0,0.725,0.000,0.000,1.000,1.000
156009,1.871,-1.780,0.413,-0.140,-0.070,-0.114,-0.047,0.022,-0.003,0.003,0.044,0.313,0.130,-0.000,0.361,-0.046,0.023,-0.002,0,0,0,0,0,0.725,0.000,0.000,1.000,1.000
156020,1.895,-1.761,0.428,-0.147,-0.068,-0.112,-0.049,0.022,-0.004,0.003,0.044,0.329,0.131,-0.000,0.313,-0.047,0.022,-0.003,0,0,0,0,0,0.725,0.000,0.000,1.000,1.000
156031,2.029,-1.710,0.308,-0.170,-0.067,-0.104,-0.050,0.021,-0.005,0.003,0.044,0.313,0.132,-0.000,0.329,-0.049,0.022,-0.004,0,0,0,0,0,0.725,0.000,0.000,1.000,1.000
156042,2.010,-1.649,0.413,-0.174,-0.051,-0.077,-0.052,0.021,-0.006,0.003,0.044,0.329,0.133,-0.000,0.329,-0.050,0.021,-0.005,0,0,0,0,0,0.725,0.000,0.000,1.000,1.000
156053,1.993,-1.622,0.275,-0.183,-0.051,-0.060,-0.054,0.020,-0.007,0.003,0.044,0.329,0.134,-0.000,0.361,-0.052,0.021,-0.006,0,0,0,0,0,0.725,0.000,0.000,1.000,1.000
156064,2.161,-1.655,0.292,-0.188,-0.035,-0.035,-0.056,0.020,-0.007,0.003,0.044,0.329,0.135,-0.000,0.329,-0.054,0.020,-0.007,0,0,0,0,0,0.725,0.000,0.000,1.000,1.000
156075,2.124,-1.639,0.303,-0.194,-0.020,0.004,-0.058,0.020,-0.007,0.003,0.044,0.345,0.136,-0.000,0.313,-0.056,0.020,-0.007,0,0,0,0,0,0.725,0.000,0.000,1.000,1.000
156086,2.121,-1.609,0.249,-0.205,-0.007,0.027,-0.060,0.020,-0.007,0.003,0.044,0.345,0.137,-0.000,0.329,-0.058,0.020,-0.007,0,0,0,0,0,0.725,0.000,0.000,1.000,1.000
156097,2.146,-1.658,0.345,-0.204,0.007,0.057,-0.062,0.020,-0.006,0.003,0.044,0.329,0.138,-0.000,0.329,-0.060,0.020,-0.007,0,0,0,0,0,0.725,0.000,0.000,1.000,1.000
156108,2.086,-1.641,0.408,-0.202,0.017,0.087,-0.064,0.020,-0.005,0.003,0.044,0.329,0.139,-0.000,0.345,-0.062,0.020,-0.006,0,0,0,0,0,0.725,0.000,0.000,1.000,1.000
156119,2.192,-1.735,0.242,-0.193,0.029,0.121,-0.066,0.020,-0.004,0.003,0.044,0.329,0.140,-0.000,0.329,-0.064,0.020,-0.005,0,0,0,0,0,0.725,0.000,0.000,1.000,1.000
156130,2.168,-1.665,0.337,-0.183,0.048,0.142,-0.068,0.021,-0.003,0.003,0.044,0.329,0.141,-0.000,0.329,-0.066,0.020,-0.004,0,0,0,0,0,0.725,0.000,0.000,1.000,1.000
156141,2.211,-1.664,0.419,-0.182,0.053,0.159,-0.069,0.021,-0.001,0.003,0.044,0.329,0.142,-0.000,0.329,-0.068,0.021,-0.003,0,0,0,0,0,0.725,0.000,0.000,1.000,1.000
156152,2.188,-1.691,0.345,-0.180,0.055,0.161,-0.071,0.022,0.001,0.003,0.044,0.329,0.143,-0.000,0.345,-0.069,0.021,-0.001,0,0,0,0,0,0.725,0.000,0.000,1.000,1.000
156163,2.209,-1.729,0.328,-0.169,0.070,0.173,-0.073,0.022,0.002,0.003,0.044,0.329,0.144,-0.000,0.345,-0.071,0.022,0.001,0,0,0,0,0,1.892,0.000,0.000,1.000,1.000
156174,2.225,-1.683,0.425,-0.160,0.079,0.182,-0.074,0.023,0.004,0.003,0.044,0.313,0.145,-0.000,0.345,-0.073,0.022,0.002,0,0,0,0,0,1.892,0.000,0.000,1.000,1.000
156185,2.232,-1.729,0.349,-0.155,0.079,0.172,-0.076,0.024,0.006,0.003,0.044,0.361,0.146,-0.000,0.329,-0.074,0.023,0.004,0,0,0,0,0,1.892,0.000,0.000,1.000,1.000
156196,2.236,-1.727,0.347,-0.136,0.095,0.176,-0.077,0.025,0.008,0.003,0.044,0.345,0.147,-0.000,0.345,-0.076,0.024,0.006,0,0,0,0,0,1.892,0.000,0.000,1.000,1.000
156207,2.291,-1.685,0.456,-0.118,0.110,0.167,-0.079,0.026,0.009,0.003,0.044,0.329,0.148,-0.000,0.329,-0.077,0.025,0.008,0,0,0,0,0,1.892,0.000,0.000,1.000,1.000
156218,2.358,-1.738,0.443,-0.116,0.116,0.158,-0.080,0.027,0.011,0.003,0.044,0.313,0.149,-0.000,0.329,-0.079,0.026,0.009,0,0,0,0,0,1.892,0.000,0.000,1.000,1.000
156229,2.303,-1.704,0.487,-0.109,0.123,0.144,-0.081,0.028,0.012,0.003,0.044,0.313,0.149,-0.000,0.329,-0.080,0.027,0.011,0,0,0,0,0,1.892,0.000,0.000,1.000,1.000
156240,2.407,-1.702,0.552,-0.118,0.123,0.126,-0.082,0.030,0.014,0.003,0.044,0.329,0.150,-0.000,0.345,-0.081,0.028,0.012,0,0,0,0,0,1.892,0.000,0.000,1.000,1.000
156251,2.348,-1.665,0.443,-0.122,0.112,0.103,-0.083,0.031,0.015,0.003,0.044,0.329,0.151,-0.000,0.313,-0.082,0.030,0.014,0,0,0,0,0,1.892,0.000,0.000,1.000,1.000
156262,2.390,-1.659,0.555,-0.120,0.119,0.090,-0.084,0.032,0.016,0.003,0.044,0.345,0.152,-0.000,0.345,-0.083,0.031,0.015,0,0,0,0,0,1.892,0.000,0.000,1.000,1.000
156273,2.357,-1.618,0.643,-0.133,0.097,0.071,-0.086,0.033,0.016,0.003,0.044,0.313,0.153,-0.000,0.313,-0.084,0.032,0.016,0,0,0,0,0,1.892,0.000,0.000,1.000,1.000
156284,2.321,-1.795,0.542,-0.142,0.081,0.034,-0.087,0.034,0.017,0.003,0.044,0.345,0.154,-0.000,0.329,-0.086,0.033,0.016,0,0,0,0,0,1.892,0.000,0.000,1.000,1.000
156295,2.302,-1.744,0.603,-0.148,0.050,-0.028,-0.089,0.034,0.016,0.003,0.044,0.345,0.155,-0.000,0.345,-0.087,0.034,0.017,0,0,0,0,0,1.892,0.000,0.000,1.000,1.000
156306,2.331,-1.696,0.464,-0.153,0.029,-0.064,-0.090,0.034,0.016,0.003,0.044,0.345,0.156,0.000,0.345,-0.089,0.034,0.016,0,0,0,0,0,1.892,0.000,0.000,1.000,1.000
156317,2.381,-1.594,0.591,-0.149,0.022,-0.075,-0.092,0.035,0.015,0.003,0.044,0.329,0.157,0.000,0.329,-0.090,0.034,0.016,0,0,0,0,0,1.892,0.000,0.000,1.000,1.000
156328,2.402,-1.586,0.536,-0.158,0.002,-0.089,-0.093,0.035,0.014,0.003,0.044,0.345,0.158,0.000,0.329,-0.092,0.035,0.015,0,0,0,0,0,1.892,0.000,0.000,1.000,1.000
156339,2.417,-1.668,0.443,-0.159,-0.002,-0.104,-0.095,0.035,0.013,0.003,0.044,0.329,0.159,0.000,0.329,-0.093,0.035,0.014,0,0,0,0,0,1.892,0.000,0.000,1.000,1.000
156350,2.453,-1.609,0.488,-0.159,-0.002,-0.104,-0.096,0.035,0.012,0.003,0.044,0.345,0.160,0.000,0.361,-0.095,0.035,0.013,0,0,0,0,0,1.892,0.000,0.000,1.000,1.000
156361,2.387,-1.598,0.540,-0.163,-0.005,-0.111,-0.098,0.035,0.011,0.003,0.044,0.329,0.161,0.000,0.345,-0.096,0.035,0.012,0,0,0,0,0,1.892,0.000,0.000,1.000,1.000
156372,2.447,-1.649,0.506,-0.168,-0.010,-0.120,-0.100,0.035,0.010,0.003,0.044,0.329,0.162,0.000,0.345,-0.098,0.035,0.011,0,0,0,0,0,1.892,0.000,0.000,1.000,1.000
156383,2.425,-1.645,0.494,-0.174,-0.012,-0.126,-0.101,0.035,0.008,0.003,0.044,0.345,0.163,0.000,0.329,-0.100,0.035,0.010,0,0,0,0,0,1.892,0.000,0.000,1.000,1.000
156394,2.471,-1.609,0.503,-0.177,-0.017,-0.127,-0.103,0.034,0.007,0.003,0.044,0.329,0.164,0.000,0.329,-0.101,0.035,0.008,0,0,0,0,0,1.892,0.000,0.000,1.000,1.000
156405,2.414,-1.616,0.571,-0.179,-0.021,-0.126,-0.105,0.034,0.006,0.003,0.044,0.345,0.165,0.000,0.329,-0.103,0.034,0.007,0,0,0,0,0,1.892,0.000,0.000,1.000,1.000
156416,2.441,-1.613,0.559,-0.185,-0.033,-0.131,-0.107,0.034,0.005,0.003,0.044,0.345,0.166,0.000,0.329,-0.105,0.034,0.006,0,0,0,0,0,1.892,0.000,0.000,1.000,1.000
156427,2.545,-1.636,0.519,-0.188,-0.032,-0.127,-0.109,0.033,0.003,0.003,0.044,0.361,0.167,0.000,0.345,-0.107,0.034,0.005,0,0,0,0,0,1.892,0.000,0.000,1.000,1.000
156438,2.474,-1.588,0.560,-0.194,-0.033,-0.119,-0.111,0.033,0.002,0.003,0.044,0.329,0.168,0.000,0.345,-0.109,0.033,0.003,0,0,0,0,0,1.892,0.000,0.000,1.000,1.000
156449,2.496,-1.613,0.585,-0.204,-0.034,-0.116,-0.113,0.033,0.001,0.003,0.044,0.345,0.169,0.000,0.345,-0.111,0.033,0.002,0,0,0,0,0,1.892,0.000,0.000,1.000,1.000
156460,2.597,-1.629,0.548,-0.209,-0.035,-0.111,-0.115,0.032,-0.000,0.003,0.044,0.329,0.170,0.000,0.329,-0.113,0.033,0.001,0,0,0,0,0,1.892,0.000,0.000,1.000,1.000
156471,2.649,-1.563,0.540,-0.221,-0.021,-0.089,-0.117,0.032,-0.001,0.003,0.044,0.345,0.171,0.000,0.345,-0.115,0.032,-0.000,0,0,0,0,0,0.725,0.000,0.000,1.000,1.000
156482,2.627,-1.585,0.584,-0.227,-0.018,-0.075,-0.119,0.032,-0.002,0.003,0.044,0.345,0.172,0.000,0.345,-0.117,0.032,-0.001,0,0,0,0,0,0.725,0.000,0.000,1.000,1.000
156493,2.674,-1.603,0.555,-0.234,-0.016,-0.066,-0.122,0.032,-0.002,0.003,0.044,0.345,0.173,0.000,0.329,-0.119,0.032,-0.002,0,0,0,0,0,0.725,0.000,0.000,1.000,1.000
156504,2.756,-1.622,0.528,-0.237,-0.004,-0.054,-0.124,0.032,-0.003,0.003,0.044,0.329,0.174,0.000,0.361,-0.122,0.032,-0.002,0,0,0,0,0,0.725,0.000,0.000,1.000,1.000
156515,2.662,-1.603,0.550,-0.236,0.006,-0.043,-0.126,0.032,-0.003,0.003,0.044,0.345,0.175,0.000,0.329,-0.124,0.032,-0.003,0,0,0,0,0,0.725,0.000,0.000,1.000,1.000
156526,2.861,-1.532,0.495,-0.238,0.011,-0.034,-0.129,0.032,-0.004,0.003,0.044,0.329,0.176,0.000,0.329,-0.126,0.032,-0.003,0,0,0,0,0,0.725,0.000,0.000,1.000,1.000
156537,2.869,-1.505,0.589,-0.235,0.024,-0.010,-0.131,0.032,-0.004,0.003,0.044,0.329,0.177,0.000,0.361,-0.129,0.032,-0.004,0,0,0,0,0,0.725,0.000,0.000,1.000,1.000
156548,2.727,-1.534,0.533,-0.230,0.029,0.006,-0.133,0.033,-0.004,0.003,0.044,0.345,0.178,0.000,0.345,-0.131,0.032,-0.004,0,0,0,0,0,0.725,0.000,0.000,1.000,1.000
156559,2.996,-1.532,0.467,-0.223,0.046,0.037,-0.136,0.033,-0.003,0.003,0.044,0.329,0.179,0.000,0.329,-0.133,0.033,-0.004,0,0,0,0,0,0.725,0.000,0.000,1.000,1.000
156570,2.806,-1.487,0.525,-0.210,0.056,0.053,-0.138,0.034,-0.003,0.003,0.044,0.329,0.180,0.000,0.345,-0.136,0.033,-0.003,0,0,0,0,0,0.725,0.000,0.000,1.000,1.000
156581,2.971,-1.491,0.553,-0.197,0.057,0.061,-0.140,0.034,-0.002,0.003,0.044,0.329,0.181,0.000,0.345,-0.138,0.034,-0.003,0,0,0,0,0,0.725,0.000,0.000,1.000,1.000
156592,2.989,-1.503,0.527,-0.176,0.067,0.076,-0.141,0.035,-0.002,0.003,0.044,0.329,0.182,0.000,0.313,-0.140,0.034,-0.002,0,0,0,0,0,0.725,0.000,0.000,1.000,1.000
156603,2.910,-1.506,0.579,-0.159,0.076,0.088,-0.143,0.036,-0.001,0.003,0.044,0.313,0.183,0.000,0.345,-0.141,0.035,-0.002,0,0,0,0,0,0.725,0.000,0.000,1.000,1.000
156614,3.017,-1.524,0.568,-0.147,0.077,0.089,-0.145,0.036,0.000,0.003,0.044,0.313,0.184,0.000,0.329,-0.143,0.036,-0.001,0,0,0,0,0,0.725,0.000,0.000,1.000,1.000
156625,3.052,-1.502,0.533,-0.129,0.088,0.095,-0.146,0.037,0.001,0.003,0.044,0.345,0.185,0.000,0.345,-0.145,0.036,0.000,0,0,0,0,0,0.725,0.000,0.000,1.000,1.000
156636,2.985,-1.452,0.620,-0.109,0.099,0.104,-0.147,0.038,0.002,0.003,0.044,0.329,0.186,0.000,0.329,-0.146,0.037,0.001,0,0,0,0,0,1.892,0.000,0.000,1.000,1.000
156647,3.007,-1.534,0.531,-0.074,0.103,0.097,-0.148,0.039,0.003,0.003,0.044,0.313,0.187,0.000,0.329,-0.147,0.038,0.002,0,0,0,0,0,1.892,0.000,0.000,1.000,1.000
156658,3.028,-1.467,0.585,-0.048,0.119,0.098,-0.148,0.040,0.004,0.003,0.044,0.345,0.188,0.000,0.313,-0.148,0.039,0.003,0,0,0,0,0,1.892,0.000,0.000,1.000,1.000
156669,3.042,-1.446,0.766,-0.028,0.131,0.099,-0.148,0.042,0.005,0.003,0.044,0.313,0.189,0.000,0.329,-0.148,0.040,0.004,0,0,0,0,0,1.892,0.000,0.000,1.000,1.000
156680,2.972,-1.496,0.707,-0.022,0.120,0.081,-0.149,0.043,0.006,0.003,0.044,0.345,0.190,0.000,0.345,-0.148,0.042,0.005,0,0,0,0,0,1.892,0.000,0.000,1.000,1.000
156691,2.968,-1.590,0.730,-0.010,0.125,0.061,-0.149,0.044,0.007,0.003,0.044,0.329,0.191,0.000,0.329,-0.149,0.043,0.006,0,0,0,0,0,1.892,0.000,0.000,1.000,1.000
156702,3.041,-1.556,0.755,-0.006,0.125,0.040,-0.149,0.045,0.007,0.003,0.044,0.329,0.192,0.000,0.329,-0.149,0.044,0.007,0,0,0,0,0,1.892,0.000,0.000,1.000,1.000
156713,2.992,-1.502,0.799,-0.008,0.119,0.015,-0.149,0.047,0.007,0.003,0.044,0.345,0.193,0.000,0.345,-0.149,0.045,0.007,0,0,0,0,0,1.892,0.000,0.000,1.000,1.000
156724,2.910,-1.513,0.866,-0.006,0.100,-0.009,-0.149,0.048,0.007,0.003,0.044,0.329,0.194,0.000,0.329,-0.149,0.047,0.007,0,0,0,0,0,1.892,0.000,0.000,1.000,1.000
156735,2.850,-1.618,0.780,0.001,0.062,-0.076,-0.149,0.048,0.006,0.003,0.044,0.329,0.195,0.000,0.329,-0.149,0.048,0.007,0,0,0,0,0,1.892,0.000,0.000,1.000,1.000
156746,2.864,-1.534,0.786,0.007,0.056,-0.103,-0.149,0.049,0.005,0.003,0.044,0.329,0.196,0.000,0.329,-0.149,0.048,0.006,0,0,0,0,0,1.892,0.000,0.000,1.000,1.000
156757,2.922,-1.445,0.841,0.008,0.050,-0.127,-0.149,0.049,0.004,0.003,0.044,0.329,0.197,0.000,0.313,-0.149,0.049,0.005,0,0,0,0,0,1.892,0.000,0.000,1.000,1.000
156768,2.974,-1.398,0.772,0.006,0.042,-0.144,-0.149,0.050,0.003,0.003,0.044,0.345,0.198,0.000,0.329,-0.149,0.049,0.004,0,0,0,0,0,1.892,0.000,0.000,1.000,1.000
156779,2.906,-1.394,0.845,0.002,0.037,-0.151,-0.149,0.050,0.001,0.003,0.044,0.329,0.199,0.000,0.329,-0.149,0.050,0.003,0,0,0,0,0,1.892,0.000,0.000,1.000,1.000
156790,2.986,-1.428,0.687,-0.008,0.031,-0.161,-0.149,0.050,-0.000,0.003,0.044,0.313,0.199,0.000,0.345,-0.149,0.050,0.001,0,0,0,0,0,1.892,0.000,0.000,1.000,1.000
156801,2.947,-1.390,0.725,-0.008,0.039,-0.158,-0.149,0.051,-0.002,0.003,0.044,0.313,0.200,0.000,0.329,-0.149,0.050,-0.000,0,0,0,0,0,0.725,0.000,0.000,1.000,1.000
156812,2.880,-1.351,0.748,-0.014,0.038,-0.151,-0.149,0.051,-0.004,0.003,0.044,0.313,0.201,0.000,0.329,-0.149,0.051,-0.002,0,0,0,0,0,0.725,0.000,0.000,1.000,1.000
156823,2.987,-1.350,0.667,-0.021,0.037,-0.136,-0.149,0.052,-0.005,0.003,0.044,0.329,0.202,0.000,0.329,-0.149,0.051,-0.004,0,0,0,0,0,0.725,0.000,0.000,1.000,1.000
156834,2.834,-1.330,0.759,-0.026,0.033,-0.126,-0.149,0.052,-0.006,0.003,0.044,0.345,0.203,0.000,0.329,-0.149,0.052,-0.005,0,0,0,0,0,0.725,0.000,0.000,1.000,1.000
156845,2.980,-1.372,0.671,-0.034,0.028,-0.120,-0.150,0.052,-0.007,0.003,0.044,0.329,0.204,0.000,0.329,-0.149,0.052,-0.006,0,0,0,0,0,0.725,0.000,0.000,1.000,1.000
156856,3.053,-1.283,0.651,-0.038,0.031,-0.095,-0.150,0.052,-0.008,0.003,0.044,0.329,0.205,0.000,0.313,-0.150,0.052,-0.007,0,0,0,0,0,0.725,0.000,0.000,1.000,1.000
156867,2.934,-1.213,0.705,-0.043,0.031,-0.071,-0.150,0.053,-0.009,0.003,0.044,0.329,0.206,0.000,0.329,-0.150,0.052,-0.008,0,0,0,0,0,0.725,0.000,0.000,1.000,1.000
156878,3.100,-1.225,0.613,-0.048,0.031,-0.048,-0.151,0.053,-0.010,0.003,0.044,0.345,0.207,0.000,0.345,-0.150,0.053,-0.009,0,0,0,0,0,0.725,0.000,0.000,1.000,1.000
156889,3.048,-1.225,0.710,-0.048,0.033,-0.012,-0.151,0.053,-0.010,0.003,0.044,0.329,0.208,0.000,0.329,-0.151,0.053,-0.010,0,0,0,0,0,0.725,0.000,0.000,1.000,1.000
156900,2.995,-1.251,0.625,-0.055,0.031,0.010,-0.152,0.054,-0.010,0.003,0.044,0.329,0.209,0.000,0.329,-0.151,0.053,-0.010,0,0,0,0,0,0.725,0.000,0.000,1.000,1.000
156911,2.989,-1.191,0.676,-0.056,0.050,0.068,-0.152,0.054,-0.009,0.003,0.044,0.329,0.210,0.000,0.329,-0.152,0.054,-0.010,0,0,0,0,0,0.725,0.000,0.000,1.000,1.000
156922,3.001,-1.234,0.699,-0.050,0.053,0.088,-0.153,0.055,-0.008,0.003,0.044,0.329,0.211,0.000,0.345,-0.152,0.054,-0.009,0,0,0,0,0,0.725,0.000,0.000,1.000,1.000
156933,3.068,-1.255,0.658,-0.042,0.051,0.104,-0.153,0.055,-0.007,0.003,0.044,0.329,0.212,0.000,0.329,-0.153,0.055,-0.008,0,0,0,0,0,0.725,0.000,0.000,1.000,1.000
156944,3.062,-1.246,0.659,-0.034,0.057,0.122,-0.154,0.056,-0.006,0.003,0.044,0.313,0.213,0.000,0.313,-0.153,0.055,-0.007,0,0,0,0,0,0.725,0.000,0.000,1.000,1.000
156955,3.056,-1.225,0.748,-0.030,0.060,0.134,-0.154,0.056,-0.004,0.003,0.044,0.329,0.214,0.000,0.329,-0.154,0.056,-0.006,0,0,0,0,0,0.725,0.000,0.000,1.000,1.000
156966,3.056,-1.269,0.739,-0.020,0.061,0.142,-0.154,0.057,-0.003,0.003,0.044,0.313,0.215,0.000,0.313,-0.154,0.056,-0.004,0,0,0,0,0,0.725,0.000,0.000,1.000,1.000
156977,3.018,-1.281,0.716,-0.012,0.064,0.148,-0.154,0.058,-0.002,0.003,0.044,0.329,0.216,0.000,0.313,-0.154,0.057,-0.003,0,0,0,0,0,0.725,0.000,0.000,1.000,1.000
156988,3.063,-1.271,0.696,-0.001,0.068,0.148,-0.154,0.058,-0.000,0.003,0.044,0.313,0.217,0.000,0.345,-0.154,0.058,-0.002,0,0,0,0,0,0.725,0.000,0.000,1.000,1.000
156999,3.032,-1.232,0.736,0.017,0.081,0.150,-0.154,0.059,0.001,0.003,0.044,0.313,0.218,0.000,0.329,-0.154,0.058,-0.000,0,0,0,0,0,0.725,0.000,0.000,1.000,1.000
157010,3.072,-1.258,0.688,0.041,0.083,0.140,-0.154,0.060,0.003,0.003,0.044,0.329,0.219,0.000,0.329,-0.154,0.059,0.001,0,0,0,0,0,1.892,0.000,0.000,1.000,1.000
157021,3.066,-1.195,0.750,0.060,0.087,0.145,-0.153,0.061,0.004,0.003,0.044,0.329,0.220,0.000,0.329,-0.154,0.060,0.003,0,0,0,0,0,1.892,0.000,0.000,1.000,1.000
157032,3.041,-1.201,0.753,0.067,0.083,0.139,-0.153,0.062,0.006,0.003,0.044,0.329,0.221,0.000,0.313,-0.153,0.061,0.004,0,0,0,0,0,1.892,0.000,0.000,1.000,1.000
157043,3.022,-1.283,0.665,0.085,0.089,0.131,-0.152,0.063,0.007,0.003,0.044,0.329,0.222,0.000,0.329,-0.153,0.062,0.006,0,0,0,0,0,1.892,0.000,0.000,1.000,1.000
157054,3.026,-1.222,0.795,0.105,0.093,0.131,-0.151,0.063,0.008,0.003,0.044,0.329,0.223,0.000,0.329,-0.152,0.063,0.007,0,0,0,0,0,1.892,0.000,0.000,1.000,1.000
157065,3.066,-1.266,0.827,0.105,0.084,0.111,-0.150,0.064,0.009,0.003,0.044,0.313,0.224,0.000,0.329,-0.151,0.063,0.008,0,0,0,0,0,1.892,0.000,0.000,1.000,1.000
157076,2.947,-1.341,0.751,0.106,0.077,0.087,-0.148,0.065,0.010,0.003,0.044,0.313,0.225,0.000,0.313,-0.150,0.064,0.009,0,0,0,0,0,1.892,0.000,0.000,1.000,1.000
157087,3.048,-1.286,0.854,0.109,0.081,0.072,-0.147,0.066,0.011,0.003,0.044,0.313,0.226,0.000,0.313,-0.148,0.065,0.010,0,0,0,0,0,1.892,0.000,0.000,1.000,1.000
157098,2.953,-1.257,0.838,0.098,0.056,0.039,-0.146,0.066,0.011,0.003,0.044,0.329,0.227,0.000,0.329,-0.147,0.066,0.011,0,0,0,0,0,1.892,0.000,0.000,1.000,1.000
157109,2.886,-1.336,0.810,0.091,0.037,0.015,-0.146,0.067,0.012,0.003,0.044,0.329,0.228,0.000,0.329,-0.146,0.066,0.011,0,0,0,0,0,1.892,0.000,0.000,1.000,1.000
157120,2.861,-1.424,0.795,0.087,0.020,-0.011,-0.145,0.067,0.011,0.003,0.044,0.313,0.229,0.000,0.313,-0.146,0.067,0.012,0,0,0,0,0,1.892,0.000,0.000,1.000,1.000
157131,2.807,-1.380,0.852,0.078,-0.005,-0.046,-0.144,0.067,0.011,0.003,0.044,0.313,0.230,0.000,0.313,-0.145,0.067,0.011,0,0,0,0,0,1.892,0.000,0.000,1.000,1.000
157142,2.820,-1.369,0.748,0.072,-0.029,-0.081,-0.143,0.067,0.010,0.003,0.044,0.329,0.231,0.000,0.313,-0.144,0.067,0.011,0,0,0,0,0,1.892,0.000,0.000,1.000,1.000
157153,2.822,-1.250,0.765,0.078,-0.043,-0.101,-0.142,0.066,0.009,0.003,0.044,0.329,0.232,0.000,0.313,-0.143,0.067,0.010,0,0,0,0,0,1.892,0.000,0.000,1.000,1.000
157164,2.869,-1.209,0.824,0.074,-0.065,-0.114,-0.142,0.066,0.008,0.003,0.044,0.313,0.233,0.000,0.329,-0.142,0.066,0.009,0,0,0,0,0,1.892,0.000,0.000,1.000,1.000
157175,2.890,-1.249,0.694,0.072,-0.081,-0.130,-0.141,0.065,0.007,0.003,0.044,0.329,0.234,0.000,0.313,-0.142,0.066,0.008,0,0,0,0,0,1.892,0.000,0.000,1.000,1.000
157186,2.873,-1.214,0.750,0.072,-0.090,-0.132,-0.140,0.064,0.005,0.003,0.044,0.313,0.235,0.000,0.313,-0.141,0.065,0.007,0,0,0,0,0,1.892,0.000,0.000,1.000,1.000
157197,2.843,-1.258,0.725,0.072,-0.098,-0.140,-0.139,0.063,0.004,0.003,0.044,0.313,0.236,0.000,0.329,-0.140,0.064,0.005,0,0,0,0,0,1.892,0.000,0.000,1.000,1.000
157208,2.833,-1.289,0.720,0.073,-0.103,-0.140,-0.139,0.062,0.003,0.003,0.044,0.313,0.237,0.000,0.313,-0.139,0.063,0.004,0,0,0,0,0,1.892,0.000,0.000,1.000,1.000
157219,2.790,-1.307,0.748,0.069,-0.105,-0.145,-0.138,0.061,0.001,0.003,0.044,0.313,0.238,0.000,0.297,-0.139,0.062,0.003,0,0,0,0,0,1.892,0.000,0.000,1.000,1.000
157230,2.833,-1.342,0.670,0.067,-0.106,-0.150,-0.137,0.060,-0.000,0.003,0.044,0.345,0.239,0.000,0.345,-0.138,0.061,0.001,0,0,0,0,0,1.892,0.000,0.000,1.000,1.000
157241,2.820,-1.292,0.724,0.067,-0.103,-0.148,-0.137,0.059,-0.002,0.003,0.044,0.329,0.240,0.000,0.329,-0.137,0.060,-0.000,0,0,0,0,0,0.725,0.000,0.000,1.000,1.000
157252,2.748,-1.344,0.745,0.066,-0.104,-0.150,-0.136,0.058,-0.003,0.003,0.044,0.313,0.241,0.000,0.329,-0.137,0.059,-0.002,0,0,0,0,0,0.725,0.000,0.000,1.000,1.000
157263,2.800,-1.356,0.682,0.062,-0.110,-0.156,-0.135,0.057,-0.005,0.003,0.044,0.329,0.242,0.000,0.329,-0.136,0.058,-0.003,0,0,0,0,0,0.725,0.000,0.000,1.000,1.000
157274,2.785,-1.295,0.684,0.060,-0.095,-0.140,-0.135,0.056,-0.006,0.003,0.044,0.329,0.243,0.000,0.313,-0.135,0.057,-0.005,0,0,0,0,0,0.725,0.000,0.000,1.000,1.000
157285,2.845,-1.326,0.669,0.054,-0.095,-0.138,-0.134,0.055,-0.008,0.003,0.044,0.329,0.244,0.000,0.313,-0.135,0.056,-0.006,0,0,0,0,0,0.725,0.000,0.000,1.000,1.000
157296,2.935,-1.327,0.607,0.052,-0.086,-0.125,-0.134,0.054,-0.009,0.003,0.044,0.313,0.245,0.000,0.313,-0.134,0.055,-0.008,0,0,0,0,0,0.725,0.000,0.000,1.000,1.000
157307,2.864,-1.283,0.560,0.050,-0.075,-0.106,-0.133,0.053,-0.010,0.003,0.044,0.329,0.246,0.000,0.313,-0.134,0.054,-0.009,0,0,0,0,0,0.725,0.000,0.000,1.000,1.000
157318,2.902,-1.276,0.574,0.051,-0.062,-0.086,-0.133,0.053,-0.011,0.003,0.044,0.297,0.247,0.000,0.329,-0.133,0.053,-0.010,0,0,0,0,0,0.725,0.000,0.000,1.000,1.000
157329,2.870,-1.288,0.580,0.052,-0.056,-0.061,-0.132,0.052,-0.012,0.003,0.044,0.329,0.248,0.000,0.329,-0.133,0.053,-0.011,0,0,0,0,0,0.725,0.000,0.000,1.000,1.000
157340,2.881,-1.299,0.534,0.051,-0.049,-0.043,-0.132,0.051,-0.012,0.003,0.044,0.313,0.248,0.000,0.313,-0.132,0.052,-0.012,0,0,0,0,0,0.725,0.000,0.000,1.000,1.000
157351,2.880,-1.330,0.524,0.057,-0.034,-0.018,-0.131,0.051,-0.012,0.003,0.044,0.329,0.249,0.000,0.329,-0.132,0.051,-0.012,0,0,0,0,0,0.725,0.000,0.000,1.000,1.000
157362,2.804,-1.343,0.556,0.067,-0.022,0.023,-0.130,0.051,-0.012,0.003,0.044,0.329,0.250,0.000,0.313,-0.131,0.051,-0.012,0,0,0,0,0,0.725,0.000,0.000,1.000,1.000
157373,2.819,-1.387,0.524,0.073,-0.016,0.042,-0.130,0.051,-0.011,0.003,0.044,0.297,0.251,0.000,0.313,-0.130,0.051,-0.012,0,0,0,0,0,0.725,0.000,0.000,1.000,1.000
157384,2.788,-1.385,0.537,0.079,-0.010,0.057,-0.129,0.051,-0.011,0.003,0.044,0.345,0.252,0.000,0.329,-0.130,0.051,-0.011,0,0,0,0,0,0.725,0.000,0.000,1.000,1.000
157395,2.752,-1.385,0.548,0.084,-0.009,0.070,-0.128,0.051,-0.010,0.003,0.044,0.313,0.253,0.000,0.329,-0.129,0.051,-0.011,0,0,0,0,0,0.725,0.000,0.000,1.000,1.000
157406,2.730,-1.392,0.620,0.090,-0.007,0.081,-0.127,0.051,-0.009,0.003,0.044,0.313,0.254,0.000,0.345,-0.128,0.051,-0.010,0,0,0,0,0,0.725,0.000,0.000,1.000,1.000
157417,2.717,-1.427,0.559,0.094,-0.007,0.086,-0.126,0.051,-0.009,0.003,0.044,0.313,0.255,0.000,0.313,-0.127,0.051,-0.009,0,0,0,0,0,0.725,0.000,0.000,1.000,1.000
157428,2.716,-1.412,0.535,0.100,-0.005,0.089,-0.125,0.051,-0.008,0.003,0.044,0.329,0.256,0.000,0.313,-0.126,0.051,-0.009,0,0,0,0,0,0.725,0.000,0.000,1.000,1.000
157439,2.724,-1.416,0.601,0.110,0.004,0.099,-0.124,0.051,-0.007,0.003,0.044,0.313,0.257,0.000,0.329,-0.125,0.051,-0.008,0,0,0,0,0,0.725,0.000,0.000,1.000,1.000
157450,2.691,-1.445,0.535,0.118,0.002,0.101,-0.123,0.051,-0.006,0.003,0.044,0.329,0.258,0.000,0.345,-0.124,0.051,-0.007,0,0,0,0,0,0.725,0.000,0.000,1.000,1.000
157461,2.656,-1.399,0.589,0.126,0.007,0.111,-0.122,0.051,-0.005,0.003,0.044,0.345,0.259,0.000,0.329,-0.123,0.051,-0.006,0,0,0,0,0,0.725,0.000,0.000,1.000,1.000
157472,2.640,-1.409,0.565,0.124,0.004,0.108,-0.121,0.051,-0.003,0.003,0.044,0.329,0.260,0.000,0.297,-0.122,0.051,-0.005,0,0,0,0,0,0.725,0.000,0.000,1.000,1.000
157483,2.624,-1.471,0.495,0.134,0.009,0.108,-0.119,0.051,-0.002,0.003,0.044,0.313,0.261,0.000,0.329,-0.121,0.051,-0.003,0,0,0,0,0,0.725,0.000,0.000,1.000,1.000
157494,2.620,-1.417,0.558,0.144,0.012,0.112,-0.118,0.051,-0.001,0.003,0.044,0.329,0.262,0.000,0.329,-0.119,0.051,-0.002,0,0,0,0,0,0.725,0.000,0.000,1.000,1.000
157505,2.628,-1.400,0.565,0.146,0.007,0.106,-0.116,0.051,-0.000,0.003,0.044,0.313,0.263,0.000,0.329,-0.118,0.051,-0.001,0,0,0,0,0,0.725,0.000,0.000,1.000,1.000
157516,2.596,-1.436,0.525,0.156,0.009,0.103,-0.115,0.051,0.001,0.003,0.044,0.345,0.264,0.000,0.329,-0.116,0.051,-0.000,0,0,0,0,0,0.725,0.000,0.000,1.000,1.000
157527,2.587,-1.408,0.534,0.166,0.011,0.104,-0.113,0.051,0.002,0.003,0.044,0.329,0.265,0.000,0.313,-0.115,0.051,0.001,0,0,0,0,0,1.892,0.000,0.000,1.000,1.000
157538,2.563,-1.471,0.519,0.168,0.013,0.089,-0.111,0.051,0.003,0.003,0.044,0.313,0.266,0.000,0.329,-0.113,0.051,0.002,0,0,0,0,0,1.892,0.000,0.000,1.000,1.000
157549,2.530,-1.445,0.524,0.174,0.018,0.082,-0.110,0.051,0.004,0.003,0.044,0.313,0.267,0.000,0.297,-0.111,0.051,0.003,0,0,0,0,0,1.892,0.000,0.000,1.000,1.000
157560,2.637,-1.428,0.538,0.171,0.020,0.077,-0.108,0.052,0.004,0.003,0.044,0.313,0.269,0.000,0.313,-0.110,0.051,0.004,0,0,0,0,0,1.892,0.000,0.000,1.000,1.000
157571,2.535,-1.414,0.509,0.166,0.016,0.065,-0.106,0.052,0.005,0.003,0.044,0.313,0.269,0.000,0.313,-0.108,0.052,0.004,0,0,0,0,0,1.892,0.000,0.000,1.000,1.000
157582,2.584,-1.461,0.559,0.160,0.021,0.059,-0.105,0.052,0.006,0.003,0.044,0.313,0.270,0.000,0.313,-0.106,0.052,0.005,0,0,0,0,0,1.892,0.000,0.000,1.000,1.000
157593,2.625,-1.433,0.589,0.144,0.016,0.049,-0.103,0.052,0.006,0.003,0.044,0.329,0.272,0.000,0.313,-0.105,0.052,0.006,0,0,0,0,0,1.892,0.000,0.000,1.000,1.000
157604,2.482,-1.514,0.443,0.129,0.012,0.031,-0.102,0.052,0.006,0.003,0.044,0.313,0.272,0.000,0.313,-0.103,0.052,0.006,0,0,0,0,0,1.892,0.000,0.000,1.000,1.000
157615,2.506,-1.451,0.543,0.126,0.015,0.024,-0.101,0.052,0.007,0.003,0.044,0.329,0.273,0.000,0.329,-0.102,0.052,0.006,0,0,0,0,0,1.892,0.000,0.000,1.000,1.000
157626,2.389,-1.520,0.482,0.089,-0.011,-0.015,-0.100,0.052,0.006,0.003,0.044,0.297,0.274,0.000,0.345,-0.101,0.052,0.007,0,0,0,0,0,1.892,0.000,0.000,1.000,1.000
157637,2.511,-1.525,0.533,0.078,-0.009,-0.024,-0.099,0.052,0.006,0.003,0.044,0.313,0.275,0.000,0.313,-0.100,0.052,0.006,0,0,0,0,0,1.892,0.000,0.000,1.000,1.000
157648,2.454,-1.444,0.596,0.065,-0.021,-0.042,-0.098,0.052,0.006,0.003,0.044,0.345,0.276,0.000,0.329,-0.099,0.052,0.006,0,0,0,0,0,1.892,0.000,0.000,1.000,1.000
157659,2.427,-1.561,0.492,0.047,-0.032,-0.071,-0.098,0.052,0.005,0.003,0.044,0.329,0.277,0.000,0.313,-0.098,0.052,0.006,0,0,0,0,0,1.892,0.000,0.000,1.000,1.000
157670,2.405,-1.514,0.556,0.041,-0.044,-0.087,-0.097,0.051,0.004,0.003,0.044,0.313,0.278,0.000,0.313,-0.098,0.052,0.005,0,0,0,0,0,1.892,0.000,0.000,1.000,1.000
157681,2.414,-1.501,0.552,0.030,-0.056,-0.104,-0.097,0.051,0.003,0.003,0.044,0.345,0.279,0.000,0.329,-0.097,0.051,0.004,0,0,0,0,0,1.892,0.000,0.000,1.000,1.000
157692,2.400,-1.487,0.518,0.018,-0.067,-0.123,-0.097,0.050,0.002,0.003,0.044,0.313,0.280,0.000,0.313,-0.097,0.051,0.003,0,0,0,0,0,1.892,0.000,0.000,1.000,1.000
157703,2.421,-1.478,0.483,0.010,-0.073,-0.132,-0.097,0.049,0.001,0.003,0.044,0.329,0.281,0.000,0.313,-0.097,0.050,0.002,0,0,0,0,0,1.892,0.000,0.000,1.000,1.000
157714,2.427,-1.523,0.443,-0.006,-0.092,-0.153,-0.097,0.048,-0.001,0.003,0.044,0.313,0.282,0.000,0.329,-0.097,0.049,0.001,0,0,0,0,0,1.892,0.000,0.000,1.000,1.000
157725,2.399,-1.495,0.479,-0.008,-0.092,-0.155,-0.097,0.047,-0.002,0.003,0.044,0.313,0.283,0.000,0.329,-0.097,0.048,-0.001,0,0,0,0,0,0.725,0.000,0.000,1.000,1.000
157736,2.372,-1.466,0.515,-0.012,-0.098,-0.159,-0.097,0.046,-0.004,0.003,0.044,0.329,0.285,0.000,0.313,-0.097,0.047,-0.002,0,0,0,0,0,0.725,0.000,0.000,1.000,1.000
157747,2.406,-1.500,0.477,-0.020,-0.101,-0.169,-0.097,0.045,-0.006,0.003,0.044,0.313,0.285,0.000,0.313,-0.097,0.046,-0.004,0,0,0,0,0,0.725,0.000,0.000,1.000,1.000
157758,2.420,-1.518,0.470,-0.022,-0.100,-0.167,-0.098,0.044,-0.007,0.003,0.044,0.345,0.286,0.000,0.329,-0.097,0.045,-0.006,0,0,0,0,0,0.725,0.000,0.000,1.000,1.000
157769,2.348,-1.505,0.562,-0.030,-0.101,-0.169,-0.098,0.043,-0.009,0.003,0.044,0.329,0.288,0.000,0.329,-0.098,0.044,-0.007,0,0,0,0,0,0.725,0.000,0.000,1.000,1.000
157780,2.514,-1.523,0.336,-0.041,-0.099,-0.171,-0.098,0.042,-0.011,0.003,0.044,0.313,0.288,0.000,0.313,-0.098,0.043,-0.009,0,0,0,0,0,0.725,0.000,0.000,1.000,1.000
157791,2.494,-1.385,0.440,-0.036,-0.083,-0.149,-0.099,0.042,-0.012,0.003,0.044,0.329,0.289,0.000,0.329,-0.098,0.042,-0.011,0,0,0,0,0,0.725,0.000,0.000,1.000,1.000
157802,2.532,-1.406,0.438,-0.037,-0.067,-0.112,-0.099,0.041,-0.013,0.003,0.044,0.345,0.291,0.000,0.313,-0.099,0.042,-0.012,0,0,0,0,0,0.725,0.000,0.000,1.000,1.000
157813,2.579,-1.439,0.322,-0.036,-0.055,-0.089,-0.099,0.040,-0.014,0.003,0.044,0.313,0.291,0.000,0.313,-0.099,0.041,-0.013,0,0,0,0,0,0.725,0.000,0.000,1.000,1.000
157824,2.479,-1.452,0.363,-0.027,-0.024,-0.066,-0.100,0.040,-0.015,0.003,0.044,0.313,0.292,0.000,0.329,-0.099,0.040,-0.014,0,0,0,0,0,0.725,0.000,0.000,1.000,1.000
157835,2.509,-1.408,0.357,-0.023,-0.015,-0.049,-0.100,0.040,-0.015,0.003,0.044,0.329,0.293,0.000,0.329,-0.100,0.040,-0.015,0,0,0,0,0,0.725,0.000,0.000,1.000,1.000
157846,2.472,-1.422,0.409,-0.006,0.004,-0.028,-0.100,0.040,-0.016,0.003,0.044,0.313,0.294,-0.000,0.329,-0.100,0.040,-0.015,0,0,0,0,0,0.725,0.000,0.000,1.000,1.000
157857,2.473,-1.451,0.430,0.003,0.013,-0.012,-0.100,0.040,-0.016,0.003,0.044,0.313,0.295,-0.000,0.329,-0.100,0.040,-0.016,0,0,0,0,0,0.725,0.000,0.000,1.000,1.000
157868,2.468,-1.487,0.428,0.012,0.024,-0.002,-0.100,0.040,-0.016,0.003,0.044,0.329,0.296,-0.000,0.313,-0.100,0.040,-0.016,0,0,0,0,0,0.725,0.000,0.000,1.000,1.000
157879,2.500,-1.499,0.378,0.021,0.037,0.007,-0.099,0.041,-0.016,0.003,0.044,0.345,0.297,-0.000,0.329,-0.100,0.040,-0.016,0,0,0,0,0,0.725,0.000,0.000,1.000,1.000
157890,2.490,-1.460,0.503,0.032,0.046,0.023,-0.099,0.041,-0.016,0.003,0.044,0.345,0.298,-0.000,0.313,-0.099,0.041,-0.016,0,0,0,0,0,0.725,0.000,0.000,1.000,1.000
157901,2.424,-1.501,0.452,0.047,0.048,0.022,-0.099,0.042,-0.015,0.003,0.044,0.313,0.299,-0.000,0.345,-0.099,0.041,-0.016,0,0,0,0,0,0.725,0.000,0.000,1.000,1.000
157912,2.465,-1.505,0.500,0.060,0.053,0.024,-0.098,0.042,-0.015,0.003,0.044,0.329,0.300,-0.000,0.313,-0.099,0.042,-0.015,0,0,0,0,0,0.725,0.000,0.000,1.000,1.000
157923,2.463,-1.471,0.499,0.066,0.053,0.018,-0.097,0.043,-0.015,0.003,0.044,0.313,0.301,-0.000,0.329,-0.098,0.042,-0.015,0,0,0,0,0,0.725,0.000,0.000,1.000,1.000
157934,2.423,-1.464,0.488,0.076,0.053,0.015,-0.097,0.043,-0.015,0.003,0.044,0.329,0.302,-0.000,0.313,-0.097,0.043,-0.015,0,0,0,0,0,0.725,0.000,0.000,1.000,1.000
157945,2.442,-1.452,0.504,0.087,0.055,0.016,-0.096,0.044,-0.015,0.003,0.044,0.329,0.303,-0.000,0.313,-0.097,0.043,-0.015,0,0,0,0,0,0.725,0.000,0.000,1.000,1.000
157956,2.447,-1.451,0.546,0.090,0.053,0.011,-0.095,0.044,-0.015,0.003,0.044,0.313,0.304,-0.000,0.313,-0.096,0.044,-0.015,0,0,0,0,0,0.725,0.000,0.000,1.000,1.000
157967,2.400,-1.512,0.464,0.099,0.055,0.005,-0.094,0.045,-0.015,0.003,0.044,0.329,0.305,-0.000,0.329,-0.095,0.044,-0.015,0,0,0,0,0,0.725,0.000,0.000,1.000,1.000
157978,2.400,-1.460,0.494,0.105,0.060,0.001,-0.093,0.045,-0.015,0.003,0.044,0.329,0.306,-0.000,0.345,-0.094,0.045,-0.015,0,0,0,0,0,0.725,0.000,0.000,1.000,1.000
157989,2.384,-1.458,0.499,0.112,0.061,-0.013,-0.092,0.046,-0.015,0.003,0.044,0.345,0.307,-0.000,0.329,-0.093,0.045,-0.015,0,0,0,0,0,0.725,0.000,0.000,1.000,1.000
158000,2.462,-1.415,0.572,0.110,0.057,-0.016,-0.091,0.047,-0.015,0.003,0.044,0.329,0.308,-0.000,0.329,-0.092,0.046,-0.015,0,0,0,0,0,0.725,0.000,0.000,1.000,1.000
158011,2.384,-1.457,0.506,0.107,0.059,-0.027,-0.090,0.047,-0.015,0.003,0.044,0.313,0.309,-0.000,0.329,-0.091,0.047,-0.015,0,0,0,0,0,0.725,0.000,0.000,1.000,1.000
158022,2.439,-1.465,0.483,0.100,0.060,-0.031,-0.089,0.048,-0.015,0.003,0.044,0.345,0.310,-0.000,0.329,-0.090,0.047,-0.015,0,0,0,0,0,0.725,0.000,0.000,1.000,1.000
158033,2.374,-1.417,0.495,0.098,0.057,-0.033,-0.088,0.048,-0.016,0.003,0.044,0.329,0.311,-0.000,0.313,-0.089,0.048,-0.015,0,0,0,0,0,0.725,0.000,0.000,1.000,1.000
158044,2.441,-1.429,0.536,0.087,0.054,-0.038,-0.087,0.049,-0.016,0.003,0.044,0.313,0.312,-0.000,0.345,-0.088,0.048,-0.016,0,0,0,0,0,0.725,0.000,0.000,1.000,1.000
158055,2.366,-1.430,0.527,0.077,0.044,-0.043,-0.086,0.049,-0.017,0.003,0.044,0.329,0.313,-0.000,0.297,-0.087,0.049,-0.016,0,0,0,0,0,0.725,0.000,0.000,1.000,1.000
158066,2.364,-1.458,0.500,0.068,0.039,-0.048,-0.085,0.050,-0.017,0.003,0.044,0.361,0.314,-0.000,0.313,-0.086,0.049,-0.017,0,0,0,0,0,0.725,0.000,0.000,1.000,1.000
158077,2.410,-1.422,0.517,0.056,0.018,-0.057,-0.085,0.050,-0.018,0.003,0.044,0.329,0.315,-0.000,0.313,-0.085,0.050,-0.017,0,0,0,0,0,0.725,0.000,0.000,1.000,1.000
158088,2.297,-1.430,0.473,0.050,0.006,-0.062,-0.084,0.050,-0.018,0.003,0.044,0.313,0.316,-0.000,0.329,-0.085,0.050,-0.018,0,0,0,0,0,0.725,0.000,0.000,1.000,1.000
158099,2.346,-1.427,0.507,0.047,0.004,-0.064,-0.084,0.050,-0.019,0.003,0.044,0.313,0.317,-0.000,0.329,-0.084,0.050,-0.018,0,0,0,0,0,0.725,0.000,0.000,1.000,1.000
158110,2.332,-1.409,0.493,0.044,-0.007,-0.067,-0.083,0.050,-0.020,0.003,0.044,0.313,0.318,-0.000,0.313,-0.084,0.050,-0.019,0,0,0,0,0,0.725,0.000,0.000,1.000,1.000
158121,2.279,-1.441,0.450,0.044,-0.012,-0.072,-0.083,0.050,-0.020,0.003,0.044,0.329,0.319,-0.000,0.329,-0.083,0.050,-0.020,0,0,0,0,0,0.725,0.000,0.000,1.000,1.000
158132,2.327,-1.408,0.480,0.044,-0.018,-0.072,-0.082,0.050,-0.021,0.003,0.044,0.345,0.320,-0.000,0.329,-0.083,0.050,-0.020,0,0,0,0,0,0.725,0.000,0.000,1.000,1.000
158143,2.291,-1.408,0.488,0.046,-0.024,-0.076,-0.082,0.049,-0.022,0.003,0.044,0.313,0.321,-0.000,0.329,-0.082,0.050,-0.021,0,0,0,0,0,0.725,0.000,0.000,1.000,1.000
158154,2.305,-1.426,0.473,0.049,-0.029,-0.079,-0.082,0.049,-0.023,0.003,0.044,0.313,0.321,-0.000,0.329,-0.082,0.049,-0.022,0,0,0,0,0,0.725,0.000,0.000,1.000,1.000
158165,2.280,-1.450,0.460,0.054,-0.034,-0.083,-0.081,0.049,-0.023,0.003,0.044,0.329,0.323,-0.000,0.345,-0.082,0.049,-0.023,0,0,0,0,0,0.725,0.000,0.000,1.000,1.000
158176,2.277,-1.467,0.469,0.052,-0.033,-0.086,-0.080,0.048,-0.024,0.003,0.044,0.329,0.324,-0.000,0.329,-0.081,0.049,-0.023,0,0,0,0,0,0.725,0.000,0.000,1.000,1.000
158187,2.289,-1.464,0.471,0.049,-0.032,-0.087,-0.080,0.048,-0.025,0.003,0.044,0.329,0.325,-0.001,0.345,-0.080,0.048,-0.024,0,0,0,0,0,0.725,0.000,0.000,1.000,1.000
158198,2.267,-1.467,0.450,0.045,-0.029,-0.089,-0.080,0.048,-0.026,0.003,0.044,0.313,0.326,-0.001,0.329,-0.080,0.048,-0.025,0,0,0,0,0,0.725,0.000,0.000,1.000,1.000
158209,2.292,-1.477,0.448,0.040,-0.031,-0.092,-0.079,0.048,-0.027,0.003,0.044,0.329,0.327,-0.001,0.313,-0.080,0.048,-0.026,0,0,0,0,0,0.725,0.000,0.000,1.000,1.000
158220,2.256,-1.470,0.462,0.036,-0.033,-0.093,-0.079,0.047,-0.028,0.003,0.044,0.329,0.328,-0.001,0.329,-0.079,0.048,-0.027,0,0,0,0,0,0.725,0.000,0.000,1.000,1.000
158231,2.265,-1.487,0.471,0.029,-0.034,-0.097,-0.078,0.047,-0.029,0.003,0.044,0.329,0.328,-0.001,0.313,-0.079,0.047,-0.028,0,0,0,0,0,0.725,0.000,0.000,1.000,1.000
158242,2.258,-1.477,0.456,0.025,-0.034,-0.097,-0.078,0.047,-0.030,0.003,0.044,0.345,0.330,-0.001,0.329,-0.078,0.047,-0.029,0,0,0,0,0,0.725,0.000,0.000,1.000,1.000
158253,2.254,-1.503,0.445,0.011,-0.033,-0.099,-0.078,0.046,-0.031,0.003,0.044,0.345,0.331,-0.001,0.329,-0.078,0.047,-0.030,0,0,0,0,0,0.725,0.000,0.000,1.000,1.000
158264,2.235,-1.507,0.443,0.006,-0.031,-0.100,-0.078,0.046,-0.032,0.003,0.044,0.329,0.331,-0.001,0.329,-0.078,0.046,-0.031,0,0,0,0,0,0.725,0.000,0.000,1.000,1.000
158275,2.243,-1.499,0.448,0.003,-0.033,-0.101,-0.078,0.046,-0.033,0.003,0.044,0.329,0.332,-0.001,0.345,-0.078,0.046,-0.032,0,0,0,0,0,0.725,0.000,0.000,1.000,1.000
158286,2.238,-1.507,0.439,-0.000,-0.033,-0.101,-0.078,0.045,-0.034,0.003,0.044,0.329,0.334,-0.001,0.329,-0.078,0.046,-0.033,0,0,0,0,0,0.725,0.000,0.000,1.000,1.000
158297,2.236,-1.511,0.443,-0.003,-0.035,-0.100,-0.078,0.045,-0.035,0.003,0.044,0.345,0.334,-0.001,0.329,-0.078,0.045,-0.034,0,0,0,0,0,0.725,0.000,0.000,1.000,1.000
158308,2.249,-1.500,0.455,-0.005,-0.037,-0.100,-0.078,0.045,-0.036,0.003,0.044,0.329,0.335,-0.001,0.345,-0.078,0.045,-0.035,0,0,0,0,0,0.725,0.000,0.000,1.000,1.000
158319,2.242,-1.512,0.460,-0.009,-0.040,-0.100,-0.078,0.044,-0.037,0.003,0.044,0.329,0.337,-0.001,0.345,-0.078,0.045,-0.036,0,0,0,0,0,0.725,0.000,0.000,1.000,1.000
158330,2.247,-1.511,0.451,-0.010,-0.043,-0.099,-0.078,0.044,-0.038,0.003,0.044,0.345,0.337,-0.001,0.329,-0.078,0.044,-0.037,0,0,0,0,0,0.725,0.000,0.000,1.000,1.000
158341,2.248,-1.538,0.452,-0.017,-0.048,-0.098,-0.078,0.043,-0.039,0.003,0.044,0.345,0.338,-0.001,0.329,-0.078,0.044,-0.038,0,0,0,0,0,0.725,0.000,0.000,1.000,1.000
158352,2.243,-1.542,0.455,-0.021,-0.048,-0.098,-0.078,0.043,-0.040,0.003,0.044,0.313,0.339,-0.001,0.329,-0.078,0.043,-0.039,0,0,0,0,0,0.725,0.000,0.000,1.000,1.000
158363,2.256,-1.554,0.456,-0.025,-0.048,-0.097,-0.079,0.042,-0.041,0.003,0.044,0.361,0.340,-0.001,0.329,-0.078,0.043,-0.040,0,0,0,0,0,0.725,0.000,0.000,1.000,1.000
158374,2.254,-1.550,0.438,-0.028,-0.048,-0.098,-0.079,0.042,-0.042,0.003,0.044,0.345,0.341,-0.001,0.345,-0.079,0.042,-0.041,0,0,0,0,0,0.725,0.000,0.000,1.000,1.000
158385,2.260,-1.563,0.446,-0.031,-0.049,-0.097,-0.079,0.041,-0.043,0.003,0.044,0.345,0.342,-0.001,0.345,-0.079,0.042,-0.042,0,0,0,0,0,0.725,0.000,0.000,1.000,1.000
158396,2.256,-1.554,0.445,-0.032,-0.051,-0.097,-0.080,0.041,-0.044,0.003,0.044,0.329,0.343,-0.001,0.329,-0.079,0.041,-0.043,0,0,0,0,0,0.725,0.000,0.000,1.000,1.000
158407,2.254,-1.574,0.439,-0.034,-0.051,-0.095,-0.080,0.040,-0.045,0.003,0.044,0.329,0.344,-0.001,0.329,-0.080,0.041,-0.044,0,0,0,0,0,0.725,0.000,0.000,1.000,1.000
158418,2.252,-1.582,0.444,-0.037,-0.050,-0.095,-0.080,0.040,-0.045,0.003,0.044,0.345,0.345,-0.001,0.329,-0.080,0.040,-0.045,0,0,0,0,0,0.725,0.000,0.000,1.000,1.000
158429,2.243,-1.593,0.437,-0.039,-0.046,-0.093,-0.081,0.039,-0.046,0.003,0.044,0.329,0.346,-0.001,0.345,-0.080,0.040,-0.045,0,0,0,0,0,0.725,0.000,0.000,1.000,1.000
158440,2.265,-1.597,0.449,-0.041,-0.045,-0.090,-0.081,0.039,-0.047,0.003,0.044,0.345,0.347,-0.001,0.345,-0.081,0.039,-0.046,0,0,0,0,0,0.725,0.000,0.000,1.000,1.000
158451,2.281,-1.588,0.464,-0.042,-0.046,-0.090,-0.082,0.038,-0.048,0.003,0.044,0.345,0.348,-0.001,0.329,-0.081,0.039,-0.047,0,0,0,0,0,0.725,0.000,0.000,1.000,1.000
158462,2.276,-1.597,0.455,-0.042,-0.043,-0.089,-0.082,0.038,-0.049,0.003,0.044,0.329,0.349,-0.001,0.345,-0.082,0.038,-0.048,0,0,0,0,0,0.725,0.000,0.000,1.000,1.000
158473,2.286,-1.600,0.462,-0.044,-0.042,-0.088,-0.082,0.038,-0.050,0.003,0.044,0.345,0.350,-0.001,0.329,-0.082,0.038,-0.049,0,0,0,0,0,0.725,0.000,0.000,1.000,1.000
158484,2.279,-1.627,0.454,-0.047,-0.040,-0.087,-0.083,0.037,-0.051,0.003,0.044,0.345,0.351,-0.002,0.345,-0.082,0.038,-0.050,0,0,0,0,0,0.725,0.000,0.000,1.000,1.000
158495,2.290,-1.627,0.450,-0.050,-0.035,-0.087,-0.083,0.037,-0.052,0.003,0.044,0.329,0.352,-0.002,0.329,-0.083,0.037,-0.051,0,0,0,0,0,0.725,0.000,0.000,1.000,1.000
158506,2.293,-1.628,0.455,-0.052,-0.031,-0.086,-0.084,0.036,-0.053,0.003,0.044,0.345,0.353,-0.002,0.329,-0.083,0.037,-0.052,0,0,0,0,0,0.725,0.000,0.000,1.000,1.000
158517,2.292,-1.637,0.451,-0.054,-0.026,-0.086,-0.084,0.036,-0.053,0.003,0.044,0.345,0.354,-0.002,0.329,-0.084,0.036,-0.053,0,0,0,0,0,0.725,0.000,0.000,1.000,1.000
158528,2.320,-1.647,0.449,-0.053,-0.022,-0.087,-0.085,0.036,-0.054,0.003,0.044,0.345,0.355,-0.002,0.345,-0.084,0.036,-0.053,0,0,0,0,0,0.725,0.000,0.000,1.000,1.000
158539,2.311,-1.640,0.443,-0.050,-0.021,-0.087,-0.085,0.036,-0.055,0.003,0.044,0.345,0.356,-0.002,0.361,-0.085,0.036,-0.054,0,0,0,0,0,0.725,0.000,0.000,1.000,1.000
158550,2.334,-1.649,0.446,-0.050,-0.018,-0.084,-0.086,0.036,-0.056,0.003,0.044,0.329,0.357,-0.002,0.345,-0.085,0.036,-0.055,0,0,0,0,0,0.725,0.000,0.000,1.000,1.000
158561,2.326,-1.640,0.439,-0.048,-0.021,-0.084,-0.086,0.035,-0.057,0.003,0.044,0.345,0.358,-0.002,0.361,-0.086,0.036,-0.056,0,0,0,0,0,0.725,0.000,0.000,1.000,1.000
158572,2.332,-1.661,0.444,-0.047,-0.020,-0.084,-0.087,0.035,-0.058,0.003,0.044,0.345,0.359,-0.002,0.329,-0.086,0.035,-0.057,0,0,0,0,0,0.725,0.000,0.000,1.000,1.000
158583,2.337,-1.664,0.448,-0.042,-0.018,-0.083,-0.087,0.035,-0.059,0.003,0.044,0.345,0.360,-0.002,0.345,-0.087,0.035,-0.058,0,0,0,0,0,0.725,0.000,0.000,1.000,1.000
158594,2.338,-1.665,0.455,-0.041,-0.016,-0.083,-0.088,0.035,-0.059,0.003,0.044,0.345,0.361,-0.002,0.345,-0.087,0.035,-0.059,0,0,0,0,0,0.725,0.000,0.000,1.000,1.000
158605,2.354,-1.658,0.445,-0.034,-0.018,-0.082,-0.088,0.035,-0.060,0.003,0.044,0.345,0.362,-0.002,0.345,-0.088,0.035,-0.059,0,0,0,0,0,0.725,0.000,0.000,1.000,1.000
158616,2.343,-1.667,0.450,-0.030,-0.018,-0.082,-0.088,0.035,-0.061,0.003,0.044,0.361,0.363,-0.002,0.345,-0.088,0.035,-0.060,0,0,0,0,0,0.725,0.000,0.000,1.000,1.000
158627,2.374,-1.672,0.463,-0.027,-0.017,-0.082,-0.089,0.034,-0.062,0.003,0.044,0.345,0.364,-0.002,0.345,-0.088,0.035,-0.061,0,0,0,0,0,0.725,0.000,0.000,1.000,1.000
