Time, Accel X [mg],Accel Y [mg],Accel Z [mg],dRoll [deg/s],dPitch [deg/s],dHeading [deg/s],Roll [deg],Pitch [deg],Yaw [deg],Frequency Reader Frequency [Hz], Calibrated Velocity [m/s],Pressure Sensor Depth [m],State Estimator X [m],State Estimator Y [m],State Estimator Z [m],State Estimator Roll [rad],State Estimator Pitch [rad],State Estimator Yaw [rad],Motor A, Motor B, Motor C, Motor D, Motor E,Servo Angle [rad],Waypoint X [m], Waypoint Y [m], Waypoint Z [m], Waiting [bool]
184584,-1.167,0.682,-9.739,-0.034,0.005,0.042,-0.000,0.000,0.000,0.003,0.044,0.377,0.001,0.000,0.361,0.000,0.000,0.000,0,0,242,0,242,0.725,0.000,0.000,1.000,0.000
184595,-1.184,0.694,-9.716,-0.036,0.001,0.042,-0.001,0.000,0.001,0.003,0.044,0.345,0.002,0.000,0.345,-0.000,0.000,0.000,0,0,242,0,242,1.892,0.000,0.000,1.000,0.000
184606,-1.187,0.726,-9.213,-0.039,-0.013,0.044,-0.001,-0.000,0.001,0.003,0.044,0.345,0.003,0.000,0.345,-0.001,0.000,0.001,0,0,242,0,242,1.892,0.000,0.000,1.000,0.000
184617,-1.083,0.669,-9.196,-0.026,0.001,0.051,-0.001,-0.000,0.002,0.003,0.044,0.361,0.004,0.000,0.361,-0.001,-0.000,0.001,0,0,242,0,242,1.892,0.000,0.000,1.000,0.000
184628,-1.219,0.701,-9.479,-0.023,-0.021,0.060,-0.002,-0.000,0.002,0.003,0.044,0.345,0.004,0.000,0.361,-0.001,-0.000,0.002,0,0,242,0,242,1.892,0.000,0.000,1.000,0.000
184639,-1.163,0.755,-9.164,-0.033,-0.040,0.057,-0.002,-0.001,0.003,0.003,0.044,0.361,0.005,0.000,0.361,-0.002,-0.000,0.002,0,0,242,0,242,1.892,0.000,0.000,1.000,0.000
184650,-1.289,0.711,-9.363,-0.027,-0.037,0.057,-0.002,-0.001,0.004,0.003,0.044,0.361,0.006,0.000,0.345,-0.002,-0.001,0.003,0,0,242,0,242,1.892,0.000,0.000,1.000,0.000
184661,-1.155,0.858,-9.326,-0.036,-0.039,0.046,-0.003,-0.002,0.004,0.003,0.044,0.361,0.007,0.000,0.345,-0.002,-0.001,0.004,0,0,242,0,242,1.892,0.000,0.000,1.000,0.000
184672,-1.058,1.194,-9.452,-0.063,-0.055,0.060,-0.003,-0.002,0.005,0.003,0.044,0.361,0.008,0.000,0.345,-0.003,-0.002,0.004,0,0,242,0,242,1.892,0.000,0.000,1.000,0.000
184683,-1.327,0.998,-9.241,-0.096,-0.066,0.057,-0.004,-0.003,0.005,0.003,0.044,0.313,0.009,0.000,0.345,-0.003,-0.002,0.005,0,0,242,0,242,1.892,0.000,0.000,1.000,0.000
184694,-1.256,1.364,-9.302,-0.149,-0.059,0.045,-0.006,-0.003,0.006,0.003,0.044,0.361,0.010,0.000,0.345,-0.004,-0.003,0.005,0,0,242,0,242,1.892,0.000,0.000,1.000,0.000
184705,-1.266,1.175,-9.482,-0.225,-0.064,0.042,-0.008,-0.004,0.006,0.003,0.044,0.345,0.011,0.000,0.345,-0.006,-0.003,0.006,0,0,242,0,242,1.892,0.000,0.000,1.000,0.000
184716,-1.158,1.036,-9.438,-0.246,-0.065,0.046,-0.010,-0.005,0.006,0.003,0.044,0.361,0.012,0.000,0.345,-0.008,-0.004,0.006,0,0,242,0,242,1.892,0.000,0.000,1.000,0.000
184727,-1.389,0.973,-9.709,-0.252,-0.048,0.043,-0.013,-0.005,0.007,0.003,0.044,0.345,0.013,0.000,0.345,-0.010,-0.005,0.006,0,0,242,0,242,1.892,0.000,0.000,1.000,0.000
184738,-1.119,0.794,-9.283,-0.260,-0.057,0.049,-0.015,-0.006,0.007,0.003,0.044,0.345,0.014,0.000,0.361,-0.013,-0.005,0.007,0,0,242,0,242,1.892,0.000,0.000,1.000,0.000
184749,-1.429,0.998,-9.706,-0.260,-0.054,0.048,-0.018,-0.006,0.008,0.003,0.044,0.345,0.015,0.000,0.361,-0.015,-0.006,0.007,0,0,242,0,242,1.892,0.000,0.000,1.000,0.000
184760,-1.320,0.837,-9.426,-0.278,-0.051,0.046,-0.021,-0.007,0.008,0.003,0.044,0.361,0.016,0.000,0.345,-0.018,-0.006,0.008,0,0,242,0,242,1.892,0.000,0.000,1.000,0.000
184771,-1.364,1.047,-9.483,-0.298,-0.065,0.040,-0.024,-0.007,0.009,0.003,0.044,0.361,0.017,0.000,0.394,-0.021,-0.007,0.008,0,0,242,0,242,1.892,0.000,0.000,1.000,0.000
184782,-1.478,0.922,-9.479,-0.314,-0.059,0.033,-0.027,-0.008,0.009,0.003,0.044,0.361,0.018,0.000,0.377,-0.024,-0.007,0.009,0,0,242,0,242,1.892,0.000,0.000,1.000,0.000
184793,-1.449,0.873,-9.497,-0.341,-0.083,0.009,-0.030,-0.009,0.009,0.003,0.044,0.361,0.019,0.000,0.361,-0.027,-0.008,0.009,0,0,242,0,242,1.892,0.000,0.000,1.000,0.000
184804,-1.457,0.825,-9.592,-0.331,-0.082,0.000,-0.034,-0.010,0.009,0.003,0.044,0.361,0.020,0.000,0.361,-0.030,-0.009,0.009,0,0,242,0,242,1.892,0.000,0.000,1.000,0.000
184815,-1.350,1.022,-9.470,-0.336,-0.111,-0.012,-0.037,-0.011,0.009,0.003,0.044,0.361,0.021,0.000,0.361,-0.034,-0.010,0.009,0,0,242,0,242,1.892,0.000,0.000,1.000,0.000
184826,-1.563,0.879,-9.503,-0.325,-0.099,-0.018,-0.040,-0.012,0.009,0.003,0.044,0.377,0.021,0.000,0.377,-0.037,-0.011,0.009,0,0,242,0,242,1.892,0.000,0.000,1.000,0.000
184837,-1.311,1.165,-9.661,-0.320,-0.112,-0.028,-0.043,-0.013,0.009,0.003,0.044,0.361,0.022,0.000,0.377,-0.040,-0.012,0.009,0,0,242,0,242,1.892,0.000,0.000,1.000,0.000
184848,-1.407,1.146,-9.500,-0.313,-0.125,-0.031,-0.047,-0.014,0.008,0.003,0.044,0.361,0.023,0.000,0.361,-0.043,-0.013,0.009,0,0,242,0,242,1.892,0.000,0.000,1.000,0.000
184859,-1.467,1.099,-9.497,-0.300,-0.115,-0.038,-0.050,-0.015,0.008,0.003,0.044,0.361,0.024,0.000,0.377,-0.047,-0.014,0.008,0,0,242,0,242,1.892,0.000,0.000,1.000,0.000
184870,-1.371,1.475,-9.563,-0.285,-0.139,-0.053,-0.052,-0.017,0.007,0.003,0.044,0.377,0.025,0.000,0.377,-0.050,-0.015,0.008,0,0,242,0,242,1.892,0.000,0.000,1.000,0.000
184881,-1.201,1.606,-9.259,-0.207,-0.133,-0.056,-0.055,-0.018,0.007,0.003,0.044,0.377,0.026,0.000,0.361,-0.052,-0.017,0.007,0,0,242,0,242,1.892,0.000,0.000,1.000,0.000
184892,-1.518,1.268,-9.349,-0.169,-0.147,-0.060,-0.056,-0.019,0.006,0.003,0.044,0.377,0.027,0.000,0.361,-0.055,-0.018,0.007,0,0,242,0,242,1.892,0.000,0.000,1.000,0.000
184903,-1.423,1.113,-9.257,-0.157,-0.131,-0.066,-0.058,-0.021,0.005,0.003,0.044,0.377,0.028,0.000,0.377,-0.056,-0.019,0.006,0,0,242,0,242,0.725,0.000,0.000,1.000,0.000
184914,-1.239,1.524,-9.434,-0.138,-0.144,-0.068,-0.059,-0.022,0.005,0.003,0.044,0.394,0.029,0.000,0.361,-0.058,-0.021,0.005,0,0,242,0,242,0.725,0.000,0.000,1.000,0.000
184925,-1.571,1.093,-9.058,-0.125,-0.145,-0.067,-0.060,-0.024,0.004,0.003,0.044,0.377,0.030,0.000,0.394,-0.059,-0.022,0.005,0,0,242,0,242,0.725,0.000,0.000,1.000,0.000
184936,-1.423,1.425,-9.534,-0.107,-0.150,-0.072,-0.061,-0.025,0.003,0.003,0.044,0.410,0.031,0.000,0.377,-0.060,-0.024,0.004,0,0,242,0,242,0.725,0.000,0.000,1.000,0.000
184947,-1.176,1.480,-9.255,-0.102,-0.144,-0.062,-0.063,-0.027,0.003,0.003,0.044,0.377,0.032,0.000,0.377,-0.061,-0.025,0.003,0,0,242,0,242,0.725,0.000,0.000,1.000,0.000
184958,-1.499,1.393,-9.320,-0.089,-0.126,-0.046,-0.063,-0.028,0.002,0.003,0.044,0.410,0.033,0.000,0.394,-0.063,-0.027,0.003,0,0,242,0,242,0.725,0.000,0.000,1.000,0.000
184969,-1.411,1.545,-9.348,-0.081,-0.106,-0.020,-0.064,-0.029,0.002,0.003,0.044,0.377,0.034,0.000,0.377,-0.063,-0.028,0.002,0,0,242,0,242,0.725,0.000,0.000,1.000,0.000
184980,-1.344,1.539,-9.392,-0.077,-0.087,0.001,-0.065,-0.030,0.002,0.003,0.044,0.377,0.035,0.000,0.394,-0.064,-0.029,0.002,0,0,242,0,242,0.725,0.000,0.000,1.000,0.000
184991,-1.277,1.589,-9.555,-0.061,-0.084,0.021,-0.066,-0.031,0.002,0.003,0.044,0.377,0.036,0.000,0.394,-0.065,-0.030,0.002,0,0,242,0,242,0.725,0.000,0.000,1.000,0.000
185002,-1.456,1.487,-9.397,-0.055,-0.042,0.042,-0.066,-0.031,0.003,0.003,0.044,0.394,0.037,0.000,0.410,-0.066,-0.031,0.002,0,0,242,0,242,0.725,0.000,0.000,1.000,0.000
185013,-1.218,1.616,-9.501,-0.042,-0.032,0.062,-0.067,-0.031,0.003,0.003,0.044,0.394,0.038,0.000,0.394,-0.066,-0.031,0.003,0,0,242,0,242,0.725,0.000,0.000,1.000,0.000
185024,-1.397,1.601,-9.470,-0.027,-0.016,0.084,-0.067,-0.031,0.004,0.003,0.044,0.377,0.039,0.000,0.377,-0.067,-0.031,0.003,0,0,242,0,242,0.725,0.000,0.000,1.000,0.000
185035,-1.415,1.415,-9.327,-0.023,0.015,0.103,-0.067,-0.031,0.005,0.003,0.044,0.410,0.040,0.000,0.377,-0.067,-0.031,0.004,0,0,242,0,242,0.725,0.000,0.000,1.000,0.000
185046,-1.292,1.614,-9.558,-0.006,0.015,0.114,-0.067,-0.031,0.006,0.003,0.044,0.394,0.041,0.000,0.410,-0.067,-0.031,0.005,0,0,242,0,242,0.725,0.000,0.000,1.000,0.000
185057,-1.387,1.486,-9.475,0.018,0.046,0.142,-0.067,-0.031,0.008,0.003,0.044,0.377,0.042,0.000,0.410,-0.067,-0.031,0.006,0,0,242,0,242,1.892,0.000,0.000,1.000,0.000
185068,-1.393,1.511,-9.523,0.030,0.044,0.148,-0.067,-0.030,0.009,0.003,0.044,0.410,0.042,0.000,0.394,-0.067,-0.031,0.008,0,0,242,0,242,1.892,0.000,0.000,1.000,0.000
185079,-1.480,1.390,-9.264,0.038,0.064,0.158,-0.066,-0.030,0.011,0.003,0.044,0.394,0.043,0.000,0.410,-0.067,-0.030,0.009,0,0,242,0,242,1.892,0.000,0.000,1.000,0.000
185090,-1.332,1.498,-9.544,0.057,0.065,0.165,-0.066,-0.029,0.012,0.003,0.044,0.394,0.044,0.000,0.394,-0.066,-0.030,0.011,0,0,242,0,242,1.892,0.000,0.000,1.000,0.000
185101,-1.539,1.360,-9.342,0.063,0.059,0.165,-0.065,-0.028,0.014,0.003,0.044,0.394,0.045,0.000,0.394,-0.066,-0.029,0.012,0,0,242,0,242,1.892,0.000,0.000,1.000,0.000
185112,-1.603,1.320,-9.221,0.066,0.062,0.154,-0.064,-0.028,0.016,0.003,0.044,0.410,0.046,0.000,0.394,-0.065,-0.028,0.014,0,0,242,0,242,1.892,0.000,0.000,1.000,0.000
185123,-1.467,1.458,-9.465,0.074,0.038,0.138,-0.064,-0.027,0.017,0.003,0.044,0.410,0.047,0.000,0.394,-0.064,-0.028,0.016,0,0,242,0,242,1.892,0.000,0.000,1.000,0.000
185134,-1.564,1.272,-9.121,0.069,0.031,0.123,-0.063,-0.027,0.018,0.003,0.044,0.410,0.048,0.000,0.410,-0.064,-0.027,0.017,0,0,242,0,242,1.892,0.000,0.000,1.000,0.000
185145,-1.645,1.265,-9.356,0.084,-0.031,0.075,-0.062,-0.027,0.019,0.003,0.044,0.410,0.049,0.000,0.426,-0.063,-0.027,0.018,0,0,242,0,242,1.892,0.000,0.000,1.000,0.000
185156,-1.625,1.117,-9.141,0.089,-0.042,0.048,-0.061,-0.028,0.020,0.003,0.044,0.426,0.050,0.000,0.394,-0.062,-0.027,0.019,0,0,242,0,242,1.892,0.000,0.000,1.000,0.000
185167,-1.482,1.261,-9.487,0.111,-0.070,0.024,-0.060,-0.028,0.020,0.003,0.044,0.426,0.051,0.000,0.394,-0.061,-0.028,0.020,0,0,242,0,242,1.892,0.000,0.000,1.000,0.000
185178,-1.608,1.255,-9.356,0.122,-0.097,0.004,-0.059,-0.029,0.020,0.003,0.044,0.410,0.052,0.000,0.410,-0.060,-0.028,0.020,0,0,242,0,242,1.892,0.000,0.000,1.000,0.000
185189,-1.551,1.239,-9.336,0.129,-0.095,-0.011,-0.058,-0.030,0.020,0.003,0.044,0.442,0.053,0.000,0.426,-0.059,-0.029,0.020,0,0,242,0,242,1.892,0.000,0.000,1.000,0.000
185200,-1.403,1.363,-9.489,0.137,-0.117,-0.024,-0.056,-0.032,0.019,0.003,0.044,0.426,0.054,0.000,0.410,-0.058,-0.030,0.020,0,0,242,0,242,1.892,0.000,0.000,1.000,0.000
185211,-1.615,1.205,-9.330,0.133,-0.120,-0.029,-0.055,-0.033,0.019,0.003,0.044,0.410,0.055,0.000,0.410,-0.056,-0.032,0.019,0,0,242,0,242,1.892,0.000,0.000,1.000,0.000
185222,-1.515,1.316,-9.539,0.141,-0.115,-0.037,-0.053,-0.034,0.019,0.003,0.044,0.410,0.056,0.000,0.410,-0.055,-0.033,0.019,0,0,242,0,242,1.892,0.000,0.000,1.000,0.000
185233,-1.646,1.122,-9.393,0.152,-0.111,-0.039,-0.052,-0.035,0.018,0.003,0.044,0.442,0.057,0.000,0.426,-0.053,-0.034,0.019,0,0,242,0,242,1.892,0.000,0.000,1.000,0.000
185244,-1.440,1.420,-9.607,0.159,-0.115,-0.043,-0.050,-0.036,0.018,0.003,0.044,0.426,0.058,0.001,0.426,-0.052,-0.035,0.018,0,0,242,0,242,1.892,0.000,0.000,1.000,0.000
185255,-1.524,1.144,-9.386,0.162,-0.114,-0.042,-0.049,-0.037,0.018,0.003,0.044,0.426,0.059,0.001,0.442,-0.050,-0.036,0.018,0,0,242,0,242,1.892,0.000,0.000,1.000,0.000
185266,-1.701,1.110,-9.440,0.165,-0.110,-0.048,-0.047,-0.038,0.017,0.003,0.044,0.442,0.059,0.001,0.426,-0.049,-0.037,0.018,0,0,242,0,242,1.892,0.000,0.000,1.000,0.000
185277,-1.421,1.351,-9.584,0.170,-0.116,-0.048,-0.045,-0.040,0.017,0.003,0.044,0.442,0.060,0.001,0.442,-0.047,-0.038,0.017,0,0,242,0,242,1.892,0.000,0.000,1.000,0.000
185288,-1.619,1.110,-9.500,0.176,-0.108,-0.048,-0.044,-0.041,0.016,0.003,0.044,0.442,0.061,0.001,0.458,-0.045,-0.040,0.017,0,0,242,0,242,1.892,0.000,0.000,1.000,0.000
185299,-1.586,1.200,-9.527,0.176,-0.108,-0.046,-0.042,-0.042,0.016,0.003,0.044,0.458,0.062,0.001,0.458,-0.044,-0.041,0.016,0,0,242,0,242,1.892,0.000,0.000,1.000,0.000
185310,-1.473,1.324,-9.648,0.185,-0.104,-0.045,-0.040,-0.043,0.015,0.003,0.044,0.458,0.063,0.001,0.442,-0.042,-0.042,0.016,0,0,242,0,242,1.892,0.000,0.000,1.000,0.000
185321,-1.535,1.204,-9.590,0.178,-0.084,-0.029,-0.038,-0.044,0.015,0.003,0.044,0.442,0.064,0.001,0.458,-0.040,-0.043,0.015,0,0,242,0,242,1.892,0.000,0.000,1.000,0.000
185332,-1.574,1.241,-9.673,0.178,-0.079,-0.027,-0.036,-0.044,0.015,0.003,0.044,0.442,0.065,0.001,0.458,-0.038,-0.044,0.015,0,0,242,0,242,1.892,0.000,0.000,1.000,0.000
185343,-1.619,1.036,-9.411,0.170,-0.061,-0.017,-0.035,-0.045,0.014,0.003,0.044,0.442,0.066,0.001,0.458,-0.036,-0.044,0.015,0,0,242,0,242,1.892,0.000,0.000,1.000,0.000
185354,-1.498,1.212,-9.648,0.168,-0.057,-0.009,-0.033,-0.046,0.014,0.003,0.044,0.458,0.067,0.001,0.458,-0.035,-0.045,0.014,0,0,242,0,242,1.892,0.000,0.000,1.000,0.000
185365,-1.646,1.121,-9.607,0.165,-0.050,-0.004,-0.031,-0.046,0.014,0.003,0.044,0.458,0.068,0.001,0.458,-0.033,-0.046,0.014,0,0,242,0,242,1.892,0.000,0.000,1.000,0.000
185376,-1.628,0.993,-9.466,0.159,-0.034,0.005,-0.030,-0.046,0.014,0.003,0.044,0.539,0.069,0.001,0.458,-0.031,-0.046,0.014,0,0,242,0,242,1.892,0.000,0.000,1.000,0.000
185387,-1.539,1.135,-9.683,0.166,-0.033,0.010,-0.028,-0.047,0.014,0.003,0.044,0.458,0.070,0.001,0.458,-0.030,-0.046,0.014,0,0,242,0,242,1.892,0.000,0.000,1.000,0.000
185398,-1.676,0.955,-9.458,0.157,-0.027,0.015,-0.027,-0.047,0.015,0.003,0.044,0.458,0.071,0.001,0.458,-0.028,-0.047,0.014,0,0,242,0,242,1.892,0.000,0.000,1.000,0.000
185409,-1.567,1.047,-9.676,0.163,-0.023,0.017,-0.025,-0.047,0.015,0.003,0.044,0.458,0.072,0.001,0.458,-0.027,-0.047,0.015,0,0,242,0,242,1.892,0.000,0.000,1.000,0.000
185420,-1.702,0.828,-9.403,0.161,-0.011,0.020,-0.023,-0.047,0.015,0.003,0.044,0.490,0.073,0.001,0.442,-0.025,-0.047,0.015,0,0,242,0,242,1.892,0.000,0.000,1.000,0.000
185431,-1.601,1.004,-9.652,0.167,-0.010,0.021,-0.022,-0.047,0.015,0.003,0.044,0.490,0.074,0.001,0.474,-0.023,-0.047,0.015,0,0,242,0,242,1.892,0.000,0.000,1.000,0.000
185442,-1.591,0.994,-9.630,0.166,-0.013,0.021,-0.020,-0.048,0.015,0.003,0.044,0.474,0.075,0.001,0.474,-0.022,-0.047,0.015,0,0,242,0,242,1.892,0.000,0.000,1.000,0.000
185453,-1.693,0.825,-9.460,0.161,0.001,0.027,-0.018,-0.048,0.016,0.003,0.044,0.474,0.076,0.001,0.474,-0.020,-0.048,0.015,0,0,242,0,242,1.892,0.000,0.000,1.000,0.000
185464,-1.548,1.015,-9.709,0.166,0.002,0.028,-0.017,-0.048,0.016,0.003,0.044,0.490,0.077,0.001,0.490,-0.018,-0.048,0.016,0,0,242,0,242,1.892,0.000,0.000,1.000,0.000
185475,-1.612,0.916,-9.532,0.156,0.002,0.034,-0.015,-0.048,0.016,0.003,0.044,0.474,0.077,0.001,0.490,-0.017,-0.048,0.016,0,0,242,0,242,1.892,0.000,0.000,1.000,0.000
185486,-1.664,0.830,-9.557,0.154,0.022,0.040,-0.014,-0.047,0.017,0.003,0.044,0.506,0.078,0.001,0.490,-0.015,-0.048,0.016,0,0,242,0,242,1.892,0.000,0.000,1.000,0.000
185497,-1.667,0.781,-9.445,0.156,0.016,0.048,-0.012,-0.047,0.017,0.003,0.044,0.506,0.079,0.001,0.474,-0.014,-0.047,0.017,0,0,242,0,242,1.892,0.000,0.000,1.000,0.000
185508,-1.624,0.815,-9.610,0.148,0.033,0.051,-0.011,-0.047,0.018,0.003,0.044,0.474,0.080,0.001,0.474,-0.012,-0.047,0.017,0,0,242,0,242,1.892,0.000,0.000,1.000,0.000
185519,-1.563,0.906,-9.698,0.148,0.027,0.051,-0.009,-0.047,0.018,0.003,0.044,0.506,0.081,0.001,0.490,-0.011,-0.047,0.018,0,0,242,0,242,1.892,0.000,0.000,1.000,0.000
185530,-1.682,0.662,-9.432,0.143,0.037,0.055,-0.008,-0.046,0.019,0.003,0.044,0.523,0.082,0.001,0.506,-0.009,-0.047,0.018,0,0,242,0,242,1.892,0.000,0.000,1.000,0.000
185541,-1.577,0.840,-9.668,0.148,0.038,0.056,-0.006,-0.046,0.019,0.003,0.044,0.523,0.083,0.001,0.506,-0.008,-0.046,0.019,0,0,242,0,242,1.892,0.000,0.000,1.000,0.000
185552,-1.580,0.823,-9.634,0.146,0.033,0.056,-0.005,-0.045,0.020,0.003,0.044,0.490,0.084,0.001,0.506,-0.006,-0.046,0.019,0,0,242,0,242,1.892,0.000,0.000,1.000,0.000
185563,-1.667,0.647,-9.501,0.140,0.044,0.060,-0.003,-0.045,0.020,0.003,0.044,0.506,0.085,0.001,0.490,-0.005,-0.045,0.020,0,0,242,0,242,1.892,0.000,0.000,1.000,0.000
185574,-1.528,0.863,-9.721,0.144,0.039,0.062,-0.002,-0.045,0.021,0.003,0.044,0.523,0.086,0.001,0.506,-0.003,-0.045,0.020,0,0,242,0,242,1.892,0.000,0.000,1.000,0.000
185585,-1.580,0.680,-9.594,0.134,0.042,0.065,-0.001,-0.044,0.022,0.003,0.044,0.506,0.087,0.001,0.506,-0.002,-0.045,0.021,0,0,242,0,242,1.892,0.000,0.000,1.000,0.000
185596,-1.504,0.819,-9.739,0.133,0.045,0.071,0.001,-0.044,0.022,0.003,0.044,0.506,0.088,0.001,0.523,-0.001,-0.044,0.022,0,0,242,0,242,1.892,0.000,0.000,1.000,0.000
185607,-1.634,0.626,-9.512,0.123,0.051,0.076,0.002,-0.043,0.023,0.003,0.044,0.506,0.089,0.001,0.506,0.001,-0.044,0.022,0,0,242,0,242,1.892,0.000,0.000,1.000,0.000
185618,-1.559,0.709,-9.662,0.123,0.057,0.079,0.003,-0.043,0.024,0.003,0.044,0.523,0.090,0.001,0.506,0.002,-0.043,0.023,0,0,242,0,242,1.892,0.000,0.000,1.000,0.000
185629,-1.533,0.745,-9.704,0.123,0.050,0.079,0.004,-0.042,0.025,0.003,0.044,0.523,0.091,0.001,0.506,0.003,-0.043,0.024,0,0,242,0,242,1.892,0.000,0.000,1.000,0.000
185640,-1.633,0.530,-9.460,0.117,0.060,0.082,0.006,-0.042,0.026,0.003,0.044,0.523,0.092,0.001,0.523,0.004,-0.042,0.025,0,0,242,0,242,1.892,0.000,0.000,1.000,0.000
185651,-1.528,0.735,-9.701,0.123,0.060,0.082,0.007,-0.041,0.026,0.003,0.044,0.506,0.093,0.001,0.523,0.006,-0.042,0.026,0,0,242,0,242,1.892,0.000,0.000,1.000,0.000
185662,-1.537,0.666,-9.616,0.120,0.055,0.081,0.008,-0.040,0.027,0.003,0.044,0.539,0.094,0.001,0.523,0.007,-0.041,0.026,0,0,242,0,242,1.892,0.000,0.000,1.000,0.000
185673,-1.600,0.549,-9.543,0.115,0.064,0.086,0.009,-0.040,0.028,0.003,0.044,0.539,0.094,0.001,0.555,0.008,-0.040,0.027,0,0,242,0,242,1.892,0.000,0.000,1.000,0.000
185684,-1.558,0.608,-9.568,0.111,0.059,0.088,0.010,-0.039,0.029,0.003,0.044,0.539,0.095,0.001,0.523,0.009,-0.040,0.028,0,0,242,0,242,1.892,0.000,0.000,1.000,0.000
185695,-1.547,0.614,-9.658,0.110,0.066,0.093,0.011,-0.039,0.030,0.003,0.044,0.555,0.096,0.001,0.539,0.010,-0.039,0.029,0,0,242,0,242,1.892,0.000,0.000,1.000,0.000
185706,-1.448,0.723,-9.746,0.111,0.057,0.093,0.012,-0.038,0.031,0.003,0.044,0.555,0.097,0.001,0.539,0.011,-0.039,0.030,0,0,242,0,242,1.892,0.000,0.000,1.000,0.000
185717,-1.563,0.498,-9.515,0.101,0.064,0.097,0.014,-0.037,0.032,0.003,0.044,0.523,0.098,0.001,0.539,0.012,-0.038,0.031,0,0,242,0,242,1.892,0.000,0.000,1.000,0.000
185728,-1.497,0.623,-9.721,0.104,0.067,0.099,0.015,-0.037,0.033,0.003,0.044,0.539,0.099,0.001,0.539,0.014,-0.037,0.032,0,0,242,0,242,1.892,0.000,0.000,1.000,0.000
185739,-1.450,0.645,-9.695,0.102,0.057,0.098,0.016,-0.036,0.034,0.003,0.044,0.539,0.100,0.001,0.539,0.015,-0.037,0.033,0,0,242,0,242,1.892,0.000,0.000,1.000,0.000
185750,-1.553,0.427,-9.482,0.096,0.065,0.100,0.017,-0.035,0.035,0.003,0.044,0.555,0.100,0.001,0.555,0.016,-0.036,0.034,0,0,242,0,242,1.892,0.000,0.000,1.000,0.000
185761,-1.456,0.647,-9.753,0.102,0.061,0.100,0.018,-0.035,0.036,0.003,0.044,0.539,0.101,0.001,0.539,0.017,-0.035,0.035,0,0,242,0,242,1.892,0.000,0.000,1.000,0.000
185772,-1.537,0.446,-9.558,0.091,0.062,0.103,0.018,-0.034,0.037,0.003,0.044,0.555,0.102,0.001,0.555,0.018,-0.035,0.036,0,0,242,0,242,1.892,0.000,0.000,1.000,0.000
185783,-1.396,0.642,-9.775,0.096,0.056,0.103,0.019,-0.034,0.038,0.003,0.044,0.555,0.102,0.001,0.555,0.018,-0.034,0.037,0,0,242,0,242,1.892,0.000,0.000,1.000,0.000
185794,-1.468,0.494,-9.537,0.085,0.053,0.104,0.020,-0.033,0.039,0.003,0.044,0.571,0.103,0.002,0.571,0.019,-0.034,0.038,0,0,242,0,242,1.892,0.000,0.000,1.000,0.000
185805,-1.490,0.518,-9.684,0.083,0.060,0.108,0.021,-0.033,0.040,0.003,0.044,0.587,0.104,0.002,0.555,0.020,-0.033,0.039,0,0,242,0,242,1.892,0.000,0.000,1.000,0.000
185816,-1.353,0.621,-9.765,0.087,0.054,0.108,0.022,-0.032,0.041,0.003,0.044,0.555,0.105,0.002,0.571,0.021,-0.033,0.040,0,0,242,0,242,1.892,0.000,0.000,1.000,0.000
185827,-1.476,0.427,-9.494,0.076,0.055,0.110,0.023,-0.031,0.042,0.003,0.044,0.571,0.106,0.002,0.571,0.022,-0.032,0.041,0,0,242,0,242,1.892,0.000,0.000,1.000,0.000
185838,-1.449,0.555,-9.747,0.077,0.057,0.112,0.024,-0.031,0.043,0.003,0.044,0.571,0.107,0.002,0.587,0.023,-0.031,0.042,0,0,242,0,242,1.892,0.000,0.000,1.000,0.000
185849,-1.346,0.603,-9.714,0.074,0.050,0.111,0.024,-0.030,0.044,0.003,0.044,0.571,0.108,0.002,0.587,0.024,-0.031,0.043,0,0,242,0,242,1.892,0.000,0.000,1.000,0.000
185860,-1.408,0.548,-9.795,0.073,0.051,0.115,0.025,-0.030,0.045,0.003,0.044,0.571,0.109,0.002,0.587,0.024,-0.030,0.044,0,0,242,0,242,1.892,0.000,0.000,1.000,0.000
185871,-1.346,0.553,-9.649,0.067,0.044,0.112,0.026,-0.029,0.047,0.003,0.044,0.587,0.110,0.002,0.587,0.025,-0.030,0.045,0,0,242,0,242,1.892,0.000,0.000,1.000,0.000
185882,-1.466,0.380,-9.568,0.061,0.051,0.114,0.026,-0.029,0.048,0.003,0.044,0.571,0.111,0.002,0.587,0.026,-0.029,0.047,0,0,242,0,242,1.892,0.000,0.000,1.000,0.000
185893,-1.340,0.556,-9.802,0.072,0.046,0.116,0.027,-0.028,0.049,0.003,0.044,0.587,0.112,0.002,0.587,0.026,-0.029,0.048,0,0,242,0,242,1.892,0.000,0.000,1.000,0.000
185904,-1.359,0.488,-9.558,0.061,0.040,0.116,0.028,-0.028,0.050,0.003,0.044,0.587,0.113,0.002,0.603,0.027,-0.028,0.049,0,0,242,0,242,1.892,0.000,0.000,1.000,0.000
185915,-1.452,0.429,-9.652,0.058,0.048,0.117,0.028,-0.028,0.051,0.003,0.044,0.587,0.114,0.002,0.603,0.028,-0.028,0.050,0,0,242,0,242,1.892,0.000,0.000,1.000,0.000
185926,-1.314,0.587,-9.842,0.066,0.043,0.117,0.029,-0.027,0.052,0.003,0.044,0.603,0.115,0.002,0.587,0.028,-0.028,0.051,0,0,242,0,242,1.892,0.000,0.000,1.000,0.000
185937,-1.346,0.412,-9.460,0.054,0.039,0.119,0.029,-0.027,0.054,0.003,0.044,0.603,0.116,0.002,0.603,0.029,-0.027,0.052,0,0,242,0,242,1.892,0.000,0.000,1.000,0.000
185948,-1.280,0.581,-9.831,0.058,0.039,0.120,0.030,-0.026,0.055,0.003,0.044,0.619,0.117,0.002,0.587,0.029,-0.027,0.054,0,0,242,0,242,1.892,0.000,0.000,1.000,0.000
185959,-1.350,0.389,-9.445,0.049,0.037,0.121,0.030,-0.026,0.056,0.003,0.044,0.603,0.118,0.002,0.603,0.030,-0.026,0.055,0,0,242,0,242,1.892,0.000,0.000,1.000,0.000
185970,-1.405,0.446,-9.771,0.054,0.043,0.125,0.031,-0.026,0.057,0.003,0.044,0.635,0.119,0.002,0.603,0.030,-0.026,0.056,0,0,242,0,242,1.892,0.000,0.000,1.000,0.000
185981,-1.277,0.580,-9.792,0.056,0.034,0.122,0.032,-0.025,0.058,0.003,0.044,0.619,0.120,0.002,0.619,0.031,-0.026,0.057,0,0,242,0,242,1.892,0.000,0.000,1.000,0.000
185992,-1.336,0.377,-9.467,0.045,0.032,0.122,0.032,-0.025,0.060,0.003,0.044,0.619,0.120,0.002,0.635,0.032,-0.025,0.058,0,0,242,0,242,1.892,0.000,0.000,1.000,0.000
186003,-1.377,0.440,-9.800,0.052,0.037,0.123,0.032,-0.025,0.061,0.003,0.044,0.635,0.121,0.002,0.619,0.032,-0.025,0.060,0,0,242,0,242,1.892,0.000,0.000,1.000,0.000
186014,-1.275,0.567,-9.729,0.051,0.028,0.123,0.033,-0.024,0.062,0.003,0.044,0.619,0.122,0.002,0.619,0.032,-0.025,0.061,0,0,242,0,242,1.892,0.000,0.000,1.000,0.000
186025,-1.328,0.415,-9.532,0.043,0.028,0.123,0.033,-0.024,0.063,0.003,0.044,0.652,0.123,0.003,0.652,0.033,-0.024,0.062,0,0,242,0,242,1.892,0.000,0.000,1.000,0.000
186036,-1.251,0.517,-9.678,0.046,0.021,0.126,0.034,-0.024,0.065,0.003,0.044,0.603,0.124,0.003,0.619,0.033,-0.024,0.063,0,0,242,0,242,1.892,0.000,0.000,1.000,0.000
186047,-1.324,0.455,-9.597,0.036,0.022,0.127,0.034,-0.024,0.066,0.003,0.044,0.635,0.125,0.003,0.652,0.034,-0.024,0.065,0,0,242,0,242,1.892,0.000,0.000,1.000,0.000
186058,-1.338,0.404,-9.805,0.039,0.026,0.131,0.035,-0.023,0.067,0.003,0.044,0.652,0.126,0.003,0.635,0.034,-0.024,0.066,0,0,242,0,242,1.892,0.000,0.000,1.000,0.000
186069,-1.274,0.470,-9.653,0.035,0.021,0.131,0.035,-0.023,0.069,0.003,0.044,0.635,0.127,0.003,0.635,0.035,-0.023,0.067,0,0,242,0,242,1.892,0.000,0.000,1.000,0.000
186080,-1.311,0.438,-9.639,0.034,0.020,0.131,0.035,-0.023,0.070,0.003,0.044,0.668,0.128,0.003,0.668,0.035,-0.023,0.069,0,0,242,0,242,1.892,0.000,0.000,1.000,0.000
186091,-1.330,0.378,-9.745,0.035,0.021,0.133,0.036,-0.023,0.071,0.003,0.044,0.652,0.129,0.003,0.635,0.035,-0.023,0.070,0,0,242,0,242,1.892,0.000,0.000,1.000,0.000
186102,-1.280,0.468,-9.668,0.032,0.018,0.132,0.036,-0.022,0.072,0.003,0.044,0.652,0.130,0.003,0.652,0.036,-0.023,0.071,0,0,242,0,242,1.892,0.000,0.000,1.000,0.000
186113,-1.290,0.446,-9.685,0.032,0.015,0.131,0.036,-0.022,0.074,0.003,0.044,0.652,0.131,0.003,0.635,0.036,-0.022,0.072,0,0,242,0,242,1.892,0.000,0.000,1.000,0.000
186124,-1.280,0.482,-9.700,0.028,0.016,0.132,0.037,-0.022,0.075,0.003,0.044,0.684,0.132,0.003,0.635,0.036,-0.022,0.074,0,0,242,0,242,1.892,0.000,0.000,1.000,0.000
186135,-1.257,0.470,-9.718,0.025,0.013,0.132,0.037,-0.022,0.076,0.003,0.044,0.668,0.133,0.003,0.684,0.037,-0.022,0.075,0,0,242,0,242,1.892,0.000,0.000,1.000,0.000
186146,-1.323,0.346,-9.639,0.023,0.015,0.136,0.037,-0.022,0.078,0.003,0.044,0.684,0.134,0.003,0.668,0.037,-0.022,0.076,0,0,242,0,242,1.892,0.000,0.000,1.000,0.000
186157,-1.274,0.481,-9.755,0.023,0.012,0.134,0.037,-0.022,0.079,0.003,0.044,0.684,0.135,0.003,0.668,0.037,-0.022,0.078,0,0,242,0,242,1.892,0.000,0.000,1.000,0.000
186168,-1.261,0.453,-9.709,0.021,0.010,0.134,0.038,-0.022,0.080,0.003,0.044,0.684,0.136,0.003,0.684,0.037,-0.022,0.079,0,0,242,0,242,1.892,0.000,0.000,1.000,0.000
186179,-1.315,0.346,-9.610,0.017,0.013,0.137,0.038,-0.022,0.082,0.003,0.044,0.684,0.137,0.003,0.668,0.038,-0.022,0.080,0,0,242,0,242,1.892,0.000,0.000,1.000,0.000
186190,-1.272,0.471,-9.792,0.019,0.010,0.134,0.038,-0.022,0.083,0.003,0.044,0.684,0.137,0.004,0.684,0.038,-0.022,0.082,0,0,242,0,242,1.892,0.000,0.000,1.000,0.000
186201,-1.259,0.447,-9.666,0.018,0.005,0.134,0.038,-0.022,0.085,0.003,0.044,0.684,0.138,0.004,0.700,0.038,-0.022,0.083,0,0,242,0,242,1.892,0.000,0.000,1.000,0.000
186212,-1.247,0.480,-9.807,0.017,0.005,0.136,0.038,-0.022,0.086,1.420,0.088,0.700,0.140,0.004,0.700,0.038,-0.022,0.085,0,0,242,0,242,1.892,0.000,0.000,1.000,0.000
186223,-1.241,0.457,-9.603,0.014,0.000,0.136,0.038,-0.022,0.087,1.420,0.088,0.700,0.142,0.004,0.684,0.038,-0.022,0.086,0,0,242,0,242,1.892,0.000,0.000,1.000,0.000
186234,-1.329,0.337,-9.659,0.013,0.005,0.137,0.039,-0.022,0.089,1.420,0.088,0.700,0.143,0.004,0.700,0.038,-0.022,0.087,0,0,242,0,242,1.892,0.000,0.000,1.000,0.000
186245,-1.225,0.492,-9.843,0.011,-0.001,0.137,0.039,-0.022,0.090,1.420,0.088,0.684,0.145,0.004,0.684,0.039,-0.022,0.089,0,0,242,0,242,1.892,0.000,0.000,1.000,0.000
186256,-1.237,0.479,-9.578,0.008,-0.006,0.137,0.039,-0.022,0.091,1.420,0.088,0.700,0.147,0.004,0.700,0.039,-0.022,0.090,0,0,242,0,242,1.892,0.000,0.000,1.000,0.000
186267,-1.347,0.348,-9.695,0.008,-0.002,0.139,0.039,-0.022,0.093,1.420,0.088,0.716,0.149,0.005,0.716,0.039,-0.022,0.091,0,0,242,0,242,1.892,0.000,0.000,1.000,0.000
186278,-1.235,0.507,-9.812,0.005,-0.005,0.139,0.039,-0.022,0.094,1.420,0.088,0.716,0.151,0.005,0.700,0.039,-0.022,0.093,0,0,242,0,242,1.892,0.000,0.000,1.000,0.000
186289,-1.243,0.476,-9.554,0.005,-0.010,0.138,0.039,-0.022,0.095,1.420,0.088,0.716,0.153,0.005,0.716,0.039,-0.022,0.094,0,0,242,0,242,1.892,0.000,0.000,1.000,0.000
186300,-1.247,0.494,-9.762,0.002,-0.011,0.140,0.039,-0.022,0.097,1.420,0.088,0.716,0.154,0.005,0.716,0.039,-0.022,0.095,0,0,242,0,242,1.892,0.000,0.000,1.000,0.000
186311,-1.265,0.483,-9.567,0.003,-0.013,0.139,0.039,-0.022,0.098,1.420,0.088,0.732,0.156,0.005,0.716,0.039,-0.022,0.097,0,0,242,0,242,1.892,0.000,0.000,1.000,0.000
186322,-1.316,0.365,-9.775,0.002,-0.009,0.140,0.039,-0.022,0.100,1.420,0.088,0.732,0.158,0.005,0.732,0.039,-0.022,0.098,0,0,242,0,242,1.892,0.000,0.000,1.000,0.000
186333,-1.245,0.483,-9.731,0.003,-0.012,0.138,0.039,-0.022,0.101,1.420,0.088,0.732,0.160,0.006,0.732,0.039,-0.022,0.100,0,0,242,0,242,1.892,0.000,0.000,1.000,0.000
186344,-1.268,0.493,-9.599,0.003,-0.015,0.139,0.039,-0.022,0.102,1.420,0.088,0.748,0.162,0.006,0.732,0.039,-0.022,0.101,0,0,242,0,242,1.892,0.000,0.000,1.000,0.000
186355,-1.306,0.377,-9.788,0.003,-0.011,0.142,0.039,-0.022,0.104,1.420,0.088,0.732,0.164,0.006,0.732,0.039,-0.022,0.102,0,0,242,0,242,1.892,0.000,0.000,1.000,0.000
186366,-1.256,0.495,-9.680,0.002,-0.013,0.143,0.039,-0.022,0.105,1.420,0.088,0.732,0.166,0.006,0.765,0.039,-0.022,0.104,0,0,238,0,238,1.892,0.000,0.000,1.000,0.000
186377,-1.271,0.518,-9.671,0.003,-0.015,0.143,0.039,-0.023,0.107,1.420,0.088,0.732,0.168,0.006,0.732,0.039,-0.022,0.105,0,0,242,0,242,1.892,0.000,0.000,1.000,0.000
186388,-1.286,0.494,-9.686,0.003,-0.010,0.145,0.039,-0.023,0.108,1.420,0.088,0.732,0.170,0.007,0.765,0.039,-0.023,0.107,0,0,238,0,238,1.892,0.000,0.000,1.000,0.000
186399,-1.266,0.532,-9.731,0.005,-0.013,0.145,0.039,-0.023,0.110,1.420,0.088,0.748,0.171,0.007,0.748,0.039,-0.023,0.108,0,0,242,0,242,1.892,0.000,0.000,1.000,0.000
186410,-1.297,0.389,-9.671,0.003,-0.011,0.148,0.039,-0.023,0.111,1.420,0.088,0.765,0.173,0.007,0.748,0.039,-0.023,0.110,0,0,242,0,242,1.892,0.000,0.000,1.000,0.000
186421,-1.293,0.510,-9.762,0.005,-0.011,0.148,0.039,-0.023,0.113,1.420,0.088,0.781,0.175,0.007,0.765,0.039,-0.023,0.111,0,0,238,0,238,1.892,0.000,0.000,1.000,0.000
186432,-1.247,0.544,-9.752,0.006,-0.013,0.148,0.039,-0.023,0.114,1.420,0.088,0.765,0.177,0.007,0.781,0.039,-0.023,0.113,0,0,224,0,224,1.892,0.000,0.000,1.000,0.000
186443,-1.314,0.391,-9.628,0.006,-0.009,0.150,0.039,-0.023,0.116,1.420,0.088,0.781,0.179,0.008,0.748,0.039,-0.023,0.114,0,0,242,0,242,1.892,0.000,0.000,1.000,0.000
186454,-1.284,0.504,-9.840,0.008,-0.007,0.150,0.039,-0.023,0.117,1.420,0.088,0.765,0.181,0.008,0.797,0.039,-0.023,0.116,0,0,210,0,210,1.892,0.000,0.000,1.000,0.000
186465,-1.261,0.548,-9.722,0.008,-0.011,0.150,0.039,-0.023,0.119,1.420,0.088,0.781,0.183,0.008,0.781,0.039,-0.023,0.117,0,0,224,0,224,1.892,0.000,0.000,1.000,0.000
186476,-1.272,0.525,-9.907,0.007,-0.001,0.151,0.039,-0.023,0.120,1.420,0.088,0.781,0.185,0.008,0.781,0.039,-0.023,0.119,0,0,224,0,224,1.892,0.000,0.000,1.000,0.000
186487,-1.281,0.534,-9.690,0.008,-0.007,0.150,0.039,-0.023,0.122,1.420,0.088,0.748,0.187,0.009,0.781,0.039,-0.023,0.120,0,0,224,0,224,1.892,0.000,0.000,1.000,0.000
186498,-1.308,0.394,-9.749,0.006,0.002,0.151,0.039,-0.023,0.123,1.420,0.088,0.781,0.188,0.009,0.765,0.039,-0.023,0.122,0,0,238,0,238,1.892,0.000,0.000,1.000,0.000
186509,-1.261,0.560,-9.852,0.008,0.002,0.150,0.039,-0.023,0.125,1.420,0.088,0.797,0.190,0.009,0.797,0.039,-0.023,0.123,0,0,210,0,210,1.892,0.000,0.000,1.000,0.000
186520,-1.345,0.471,-9.709,0.008,0.000,0.148,0.039,-0.023,0.126,1.420,0.088,0.797,0.192,0.009,0.781,0.039,-0.023,0.125,0,0,224,0,224,1.892,0.000,0.000,1.000,0.000
186531,-1.234,0.443,-9.866,0.008,0.005,0.150,0.039,-0.023,0.128,1.420,0.088,0.797,0.194,0.010,0.797,0.039,-0.023,0.126,0,0,210,0,210,1.892,0.000,0.000,1.000,0.000
186542,-1.295,0.573,-9.804,0.007,0.002,0.145,0.039,-0.023,0.129,1.420,0.088,0.813,0.196,0.010,0.829,0.039,-0.023,0.128,0,0,182,0,182,1.892,0.000,0.000,1.000,0.000
186553,-1.312,0.426,-9.795,0.008,0.005,0.147,0.039,-0.023,0.131,1.420,0.088,0.813,0.198,0.010,0.813,0.039,-0.023,0.129,0,0,197,0,197,1.892,0.000,0.000,1.000,0.000
186564,-1.327,0.499,-9.886,0.008,0.006,0.144,0.039,-0.023,0.132,1.420,0.088,0.813,0.200,0.010,0.829,0.039,-0.023,0.131,0,0,182,0,182,1.892,0.000,0.000,1.000,0.000
186575,-1.223,0.467,-9.814,0.006,0.005,0.142,0.039,-0.023,0.133,1.420,0.088,0.813,0.201,0.010,0.813,0.039,-0.023,0.132,0,0,197,0,197,1.892,0.000,0.000,1.000,0.000
186586,-1.317,0.535,-9.879,0.006,0.005,0.139,0.039,-0.023,0.135,1.420,0.088,0.781,0.203,0.011,0.829,0.039,-0.023,0.133,0,0,182,0,182,1.892,0.000,0.000,1.000,0.000
186597,-1.229,0.473,-9.782,0.007,0.006,0.139,0.039,-0.023,0.136,1.420,0.088,0.813,0.205,0.011,0.813,0.039,-0.023,0.135,0,0,197,0,197,1.892,0.000,0.000,1.000,0.000
186608,-1.296,0.520,-9.838,0.008,0.007,0.138,0.039,-0.023,0.138,1.420,0.088,0.845,0.207,0.011,0.813,0.039,-0.023,0.136,0,0,197,0,197,1.892,0.000,0.000,1.000,0.000
186619,-1.253,0.488,-9.847,0.006,0.004,0.137,0.039,-0.023,0.139,1.420,0.088,0.829,0.209,0.011,0.813,0.039,-0.023,0.138,0,0,197,0,197,1.892,0.000,0.000,1.000,0.000
186630,-1.267,0.518,-9.802,0.005,0.005,0.133,0.039,-0.023,0.140,1.420,0.088,0.813,0.211,0.012,0.813,0.039,-0.023,0.139,0,0,197,0,197,1.892,0.000,0.000,1.000,0.000
186641,-1.268,0.481,-9.874,0.007,0.001,0.134,0.039,-0.023,0.142,1.420,0.088,0.845,0.213,0.012,0.829,0.039,-0.023,0.140,0,0,182,0,182,1.892,0.000,0.000,1.000,0.000
186652,-1.230,0.523,-9.917,0.006,0.004,0.131,0.039,-0.023,0.143,1.420,0.088,0.829,0.215,0.012,0.845,0.039,-0.023,0.142,0,0,168,0,168,1.892,0.000,0.000,1.000,0.000
186663,-1.226,0.528,-9.806,0.005,0.002,0.127,0.039,-0.023,0.144,1.420,0.088,0.829,0.217,0.013,0.845,0.039,-0.023,0.143,0,0,168,0,168,1.892,0.000,0.000,1.000,0.000
186674,-1.293,0.474,-9.925,0.001,-0.001,0.130,0.039,-0.023,0.145,1.420,0.088,0.845,0.218,0.013,0.829,0.039,-0.023,0.144,0,0,182,0,182,1.892,0.000,0.000,1.000,0.000
186685,-1.217,0.535,-9.841,-0.000,0.002,0.125,0.039,-0.023,0.147,1.420,0.088,0.861,0.220,0.013,0.877,0.039,-0.023,0.145,0,0,140,0,140,1.892,0.000,0.000,1.000,0.000
186696,-1.315,0.477,-9.934,-0.001,-0.004,0.128,0.039,-0.023,0.148,1.420,0.088,0.845,0.222,0.013,0.861,0.039,-0.023,0.147,0,0,154,0,154,1.892,0.000,0.000,1.000,0.000
186707,-1.187,0.518,-9.814,-0.003,0.002,0.122,0.039,-0.023,0.149,1.420,0.088,0.845,0.224,0.014,0.845,0.039,-0.023,0.148,0,0,168,0,168,1.892,0.000,0.000,1.000,0.000
186718,-1.323,0.474,-9.950,-0.004,-0.001,0.123,0.039,-0.023,0.150,1.420,0.088,0.845,0.226,0.014,0.877,0.039,-0.023,0.149,0,0,140,0,140,1.892,0.000,0.000,1.000,0.000
186729,-1.188,0.525,-9.792,-0.005,0.001,0.120,0.039,-0.023,0.152,1.420,0.088,0.877,0.228,0.014,0.861,0.039,-0.023,0.150,0,0,154,0,154,1.892,0.000,0.000,1.000,0.000
186740,-1.314,0.484,-9.899,-0.006,-0.001,0.122,0.039,-0.023,0.153,1.420,0.088,0.861,0.229,0.014,0.845,0.039,-0.023,0.152,0,0,168,0,168,1.892,0.000,0.000,1.000,0.000
186751,-1.308,0.494,-9.948,-0.006,-0.004,0.119,0.039,-0.023,0.154,1.420,0.088,0.861,0.230,0.015,0.877,0.039,-0.023,0.153,0,0,140,0,140,1.892,0.000,0.000,1.000,0.000
186762,-1.194,0.554,-9.846,-0.011,-0.001,0.114,0.039,-0.023,0.155,1.420,0.088,0.877,0.232,0.015,0.894,0.039,-0.023,0.154,0,0,126,0,126,1.892,0.000,0.000,1.000,0.000
186773,-1.267,0.479,-9.935,-0.011,-0.002,0.115,0.038,-0.023,0.156,1.420,0.088,0.861,0.234,0.015,0.861,0.039,-0.023,0.155,0,0,154,0,154,1.892,0.000,0.000,1.000,0.000
186784,-1.269,0.573,-9.978,-0.014,-0.002,0.111,0.038,-0.023,0.157,1.420,0.088,0.894,0.235,0.015,0.877,0.038,-0.023,0.156,0,0,140,0,140,1.892,0.000,0.000,1.000,0.000
186795,-1.231,0.496,-9.865,-0.019,-0.007,0.114,0.038,-0.023,0.159,1.420,0.088,0.894,0.237,0.016,0.877,0.038,-0.023,0.157,0,0,140,0,140,1.892,0.000,0.000,1.000,0.000
186806,-1.271,0.542,-9.879,-0.019,-0.004,0.110,0.038,-0.023,0.160,1.420,0.088,0.894,0.239,0.016,0.877,0.038,-0.023,0.159,0,0,140,0,140,1.892,0.000,0.000,1.000,0.000
186817,-1.194,0.538,-9.843,-0.021,-0.001,0.110,0.038,-0.023,0.161,1.420,0.088,0.894,0.240,0.016,0.894,0.038,-0.023,0.160,0,0,126,0,126,1.892,0.000,0.000,1.000,0.000
186828,-1.316,0.499,-9.994,-0.021,-0.005,0.110,0.037,-0.023,0.162,1.420,0.088,0.894,0.242,0.017,0.910,0.038,-0.023,0.161,208,208,112,208,112,1.892,0.000,0.000,1.000,0.000
186839,-1.268,0.540,-9.941,-0.017,-0.005,0.108,0.037,-0.023,0.163,1.420,0.088,0.894,0.244,0.017,0.894,0.037,-0.023,0.162,0,0,126,0,126,1.892,0.000,0.000,1.000,0.000
186850,-1.259,0.738,-9.915,-0.020,0.001,0.103,0.037,-0.023,0.164,1.420,0.088,0.877,0.246,0.017,0.910,0.037,-0.023,0.163,208,208,112,208,112,1.892,0.000,0.000,1.000,0.000
186861,-1.208,0.560,-9.913,-0.017,-0.004,0.105,0.037,-0.023,0.165,1.420,0.088,0.894,0.248,0.017,0.894,0.037,-0.023,0.164,0,0,126,0,126,1.892,0.000,0.000,1.000,0.000
186872,-1.267,0.705,-9.978,-0.016,-0.002,0.101,0.037,-0.023,0.166,1.420,0.088,0.894,0.250,0.018,0.910,0.037,-0.023,0.165,208,208,112,208,112,1.892,0.000,0.000,1.000,0.000
186883,-1.217,0.943,-9.801,-0.014,0.002,0.098,0.037,-0.023,0.167,1.420,0.088,0.894,0.252,0.018,0.877,0.037,-0.023,0.166,0,0,140,0,140,1.892,0.000,0.000,1.000,0.000
186894,-1.184,0.940,-9.913,-0.001,0.001,0.103,0.037,-0.023,0.168,1.420,0.088,0.910,0.253,0.018,0.910,0.037,-0.023,0.167,208,208,112,208,112,1.892,0.000,0.000,1.000,0.000
186905,-1.269,0.897,-9.932,0.001,0.001,0.100,0.037,-0.023,0.169,1.420,0.088,0.910,0.255,0.019,0.877,0.037,-0.023,0.168,0,0,140,0,140,1.892,0.000,0.000,1.000,0.000
186916,-1.151,1.060,-9.838,0.014,0.006,0.101,0.037,-0.023,0.170,1.420,0.088,0.894,0.257,0.019,0.926,0.037,-0.023,0.169,208,208,99,208,99,1.892,0.000,0.000,1.000,0.000
186927,-1.287,1.131,-10.011,0.043,0.001,0.104,0.037,-0.023,0.171,1.420,0.088,0.910,0.259,0.019,0.926,0.037,-0.023,0.170,208,208,99,208,99,1.892,0.000,0.000,1.000,0.000
186938,-1.050,1.467,-9.774,0.055,0.011,0.100,0.038,-0.023,0.172,1.420,0.088,0.926,0.261,0.020,0.942,0.037,-0.023,0.171,208,208,85,208,85,1.892,0.000,0.000,1.000,0.000
186949,-1.283,1.298,-9.923,0.076,-0.001,0.105,0.038,-0.023,0.173,1.420,0.088,0.942,0.262,0.020,0.894,0.038,-0.023,0.172,0,0,126,0,126,1.892,0.000,0.000,1.000,0.000
186960,-1.229,1.182,-9.899,0.094,0.011,0.105,0.039,-0.023,0.174,1.420,0.088,0.926,0.264,0.020,0.942,0.038,-0.023,0.173,208,208,85,208,85,1.892,0.000,0.000,1.000,0.000
186971,-1.131,1.108,-9.769,0.105,0.002,0.104,0.040,-0.023,0.175,1.420,0.088,0.926,0.266,0.021,0.926,0.039,-0.023,0.174,208,208,99,208,99,1.892,0.000,0.000,1.000,0.000
186982,-1.198,1.327,-9.940,0.123,0.004,0.104,0.042,-0.023,0.176,1.420,0.088,0.958,0.268,0.021,0.926,0.040,-0.023,0.175,208,208,99,208,99,1.892,0.000,0.000,1.000,0.000
186993,-1.206,1.394,-9.787,0.137,0.007,0.105,0.043,-0.023,0.177,1.420,0.088,0.926,0.270,0.021,0.942,0.042,-0.023,0.176,208,208,85,208,85,1.892,0.000,0.000,1.000,0.000
187004,-1.228,1.182,-9.981,0.159,0.013,0.111,0.045,-0.023,0.178,1.420,0.088,0.926,0.272,0.022,0.958,0.043,-0.023,0.177,208,208,70,208,70,1.892,0.000,0.000,1.000,0.000
187015,-1.251,1.316,-9.999,0.183,0.007,0.110,0.046,-0.023,0.180,1.420,0.088,0.942,0.273,0.022,0.942,0.045,-0.023,0.178,208,208,85,208,85,1.892,0.000,0.000,1.000,0.000
187026,-1.195,1.262,-9.824,0.189,0.010,0.110,0.048,-0.023,0.181,1.420,0.088,0.942,0.275,0.022,0.942,0.046,-0.023,0.180,208,208,85,208,85,1.892,0.000,0.000,1.000,0.000
187037,-1.241,1.163,-10.062,0.206,0.012,0.111,0.050,-0.023,0.182,1.420,0.088,0.958,0.277,0.023,0.942,0.048,-0.023,0.181,208,208,85,208,85,1.892,0.000,0.000,1.000,0.000
187048,-1.119,1.226,-9.807,0.212,0.011,0.110,0.053,-0.023,0.183,1.420,0.088,0.942,0.279,0.023,0.958,0.050,-0.023,0.182,208,208,70,208,70,1.892,0.000,0.000,1.000,0.000
187059,-1.318,1.163,-10.194,0.233,0.011,0.112,0.055,-0.022,0.184,1.420,0.088,0.942,0.281,0.023,0.958,0.053,-0.023,0.183,208,208,70,208,70,1.892,0.000,0.000,1.000,0.000
187070,-1.031,1.099,-9.869,0.232,0.006,0.114,0.057,-0.022,0.185,1.420,0.088,0.942,0.283,0.024,0.942,0.055,-0.022,0.184,208,208,85,208,85,1.892,0.000,0.000,1.000,0.000
187081,-1.269,1.188,-10.127,0.250,0.006,0.119,0.060,-0.022,0.186,1.420,0.088,0.942,0.284,0.024,0.958,0.057,-0.022,0.185,208,208,70,208,70,1.892,0.000,0.000,1.000,0.000
187092,-1.018,1.083,-9.862,0.253,0.005,0.125,0.062,-0.022,0.188,1.420,0.088,0.926,0.286,0.024,0.974,0.060,-0.022,0.186,208,208,56,208,56,1.892,0.000,0.000,1.000,0.000
187103,-1.105,0.853,-9.978,0.277,0.010,0.137,0.065,-0.022,0.189,1.420,0.088,0.974,0.288,0.025,0.958,0.062,-0.022,0.188,208,208,70,208,70,1.892,0.000,0.000,1.000,0.000
187114,-1.216,0.958,-10.042,0.294,0.000,0.140,0.068,-0.022,0.190,1.420,0.088,0.958,0.290,0.025,0.942,0.065,-0.022,0.189,208,208,85,208,85,1.892,0.000,0.000,1.000,0.000
187125,-1.228,0.660,-9.889,0.297,0.011,0.140,0.071,-0.022,0.192,1.420,0.088,0.958,0.292,0.025,0.958,0.068,-0.022,0.190,208,208,70,208,70,1.892,0.000,0.000,1.000,0.000
187136,-1.232,0.792,-10.007,0.306,0.004,0.136,0.074,-0.022,0.193,1.420,0.088,0.974,0.294,0.026,0.958,0.071,-0.022,0.192,208,208,70,208,70,1.892,0.000,0.000,1.000,0.000
187147,-1.348,0.474,-9.991,0.303,-0.004,0.125,0.077,-0.022,0.194,1.420,0.088,0.942,0.295,0.026,0.958,0.074,-0.022,0.193,208,208,70,208,70,1.892,0.000,0.000,1.000,0.000
187158,-1.128,0.747,-9.919,0.299,-0.006,0.120,0.080,-0.022,0.196,1.420,0.088,0.958,0.297,0.026,0.974,0.077,-0.022,0.194,208,208,56,208,56,1.892,0.000,0.000,1.000,0.000
187169,-1.332,0.542,-10.037,0.305,0.005,0.116,0.083,-0.022,0.197,1.420,0.088,0.974,0.299,0.027,0.958,0.080,-0.022,0.196,208,208,70,208,70,1.892,0.000,0.000,1.000,0.000
187180,-1.164,0.581,-9.867,0.302,0.006,0.121,0.086,-0.022,0.198,1.420,0.088,0.958,0.301,0.027,0.990,0.083,-0.022,0.197,208,208,42,208,42,1.892,0.000,0.000,1.000,0.000
187191,-1.250,0.419,-9.873,0.294,0.000,0.117,0.089,-0.022,0.199,1.420,0.088,0.958,0.303,0.027,0.974,0.086,-0.022,0.198,208,208,56,208,56,1.892,0.000,0.000,1.000,0.000
187202,-1.255,0.465,-10.009,0.298,0.007,0.109,0.092,-0.022,0.200,1.420,0.088,0.974,0.305,0.028,0.958,0.089,-0.022,0.199,208,208,70,208,70,1.892,0.000,0.000,1.000,0.000
187213,-1.202,0.172,-9.832,0.284,0.011,0.115,0.095,-0.022,0.201,1.420,0.088,0.990,0.306,0.028,0.974,0.092,-0.022,0.200,208,208,56,208,56,1.892,0.000,0.000,1.000,0.000
187224,-1.365,0.413,-10.171,0.288,0.018,0.109,0.098,-0.022,0.202,1.420,0.088,0.958,0.308,0.029,0.926,0.095,-0.022,0.201,208,208,99,208,99,1.892,0.000,0.000,1.000,0.000
187235,-1.163,0.108,-9.869,0.276,0.021,0.111,0.100,-0.022,0.204,1.420,0.088,0.958,0.310,0.029,0.974,0.098,-0.022,0.202,208,208,56,208,56,1.892,0.000,0.000,1.000,0.000
187246,-1.367,0.303,-10.054,0.280,0.020,0.104,0.103,-0.022,0.205,1.420,0.088,1.023,0.312,0.029,0.958,0.100,-0.022,0.204,208,208,70,208,70,1.892,0.000,0.000,1.000,0.000
187257,-1.111,0.096,-9.947,0.260,0.013,0.105,0.106,-0.022,0.206,1.420,0.088,0.990,0.314,0.030,0.974,0.103,-0.022,0.205,208,208,56,208,56,1.892,0.000,0.000,1.000,0.000
187268,-1.322,0.280,-9.883,0.259,0.022,0.104,0.108,-0.021,0.207,1.420,0.088,0.958,0.316,0.030,0.958,0.106,-0.022,0.206,208,208,70,208,70,1.892,0.000,0.000,1.000,0.000
187279,-1.328,0.171,-9.944,0.250,0.026,0.103,0.111,-0.021,0.208,1.420,0.088,0.974,0.317,0.031,0.990,0.108,-0.021,0.207,208,208,42,208,42,1.892,0.000,0.000,1.000,0.000
187290,-1.232,-0.022,-10.094,0.236,0.020,0.100,0.113,-0.021,0.209,1.420,0.088,0.974,0.319,0.031,0.990,0.111,-0.021,0.208,208,208,42,208,42,1.892,0.000,0.000,1.000,0.000
187301,-1.171,0.041,-9.808,0.221,0.015,0.100,0.116,-0.021,0.210,1.420,0.088,0.990,0.321,0.031,0.990,0.113,-0.021,0.209,208,208,42,208,42,1.892,0.000,0.000,1.000,0.000
187312,-1.251,0.023,-9.980,0.217,0.021,0.093,0.118,-0.020,0.211,1.420,0.088,0.958,0.323,0.032,0.990,0.116,-0.021,0.210,208,208,42,208,42,1.892,0.000,0.000,1.000,0.000
187323,-1.174,-0.026,-9.849,0.205,0.015,0.098,0.120,-0.020,0.212,1.420,0.088,0.974,0.324,0.032,0.974,0.118,-0.020,0.211,208,208,56,208,56,1.892,0.000,0.000,1.000,0.000
187334,-1.334,0.007,-9.953,0.203,0.022,0.089,0.122,-0.020,0.212,1.420,0.088,1.006,0.326,0.032,1.006,0.120,-0.020,0.212,208,208,40,208,40,1.892,0.000,0.000,1.000,0.000
187345,-1.104,-0.123,-9.779,0.190,0.020,0.095,0.124,-0.020,0.213,0.684,0.065,1.023,0.328,0.033,0.958,0.122,-0.020,0.212,208,208,70,208,70,1.892,0.000,0.000,1.000,0.000
187356,-1.311,-0.032,-9.976,0.190,0.022,0.083,0.126,-0.020,0.214,0.684,0.065,0.990,0.329,0.033,1.006,0.124,-0.020,0.213,208,208,40,208,40,1.892,0.000,0.000,1.000,0.000
187367,-1.309,-0.089,-9.909,0.173,0.023,0.078,0.127,-0.019,0.215,0.684,0.065,0.990,0.330,0.033,0.990,0.126,-0.020,0.214,208,208,42,208,42,1.892,0.000,0.000,1.000,0.000
187378,-1.169,-0.219,-9.800,0.156,0.020,0.077,0.129,-0.019,0.216,0.684,0.065,1.006,0.332,0.034,0.974,0.127,-0.019,0.215,208,208,56,208,56,1.892,0.000,0.000,1.000,0.000
187389,-1.328,-0.085,-9.962,0.152,0.020,0.070,0.130,-0.019,0.217,0.684,0.065,1.023,0.333,0.034,0.990,0.129,-0.019,0.216,208,208,42,208,42,1.892,0.000,0.000,1.000,0.000
187400,-1.097,-0.214,-9.812,0.137,0.021,0.072,0.132,-0.019,0.217,0.684,0.065,1.006,0.335,0.034,1.006,0.130,-0.019,0.217,208,208,40,208,40,1.892,0.000,0.000,1.000,0.000
187411,-1.212,-0.158,-9.875,0.138,0.018,0.073,0.133,-0.019,0.218,0.684,0.065,0.990,0.336,0.035,0.990,0.132,-0.019,0.217,208,208,42,208,42,1.892,0.000,0.000,1.000,0.000
187422,-1.198,-0.205,-9.830,0.127,0.026,0.071,0.134,-0.018,0.219,0.684,0.065,1.023,0.337,0.035,0.974,0.133,-0.019,0.218,208,208,56,208,56,1.892,0.000,0.000,1.000,0.000
187433,-1.187,-0.178,-9.831,0.127,0.023,0.072,0.136,-0.018,0.219,0.684,0.065,0.990,0.339,0.035,0.990,0.134,-0.018,0.219,208,208,42,208,42,1.892,0.000,0.000,1.000,0.000
187444,-1.312,-0.279,-9.936,0.118,0.023,0.065,0.137,-0.018,0.220,0.684,0.065,1.006,0.340,0.035,0.990,0.136,-0.018,0.219,208,208,42,208,42,1.892,0.000,0.000,1.000,0.000
187455,-1.332,-0.235,-9.878,0.112,0.021,0.057,0.138,-0.018,0.221,0.684,0.065,1.023,0.341,0.036,1.006,0.137,-0.018,0.220,208,208,40,208,40,1.892,0.000,0.000,1.000,0.000
187466,-1.037,-0.274,-9.823,0.098,0.020,0.062,0.139,-0.018,0.221,0.684,0.065,1.023,0.343,0.036,1.006,0.138,-0.018,0.221,208,208,40,208,40,1.892,0.000,0.000,1.000,0.000
187477,-1.348,-0.247,-9.919,0.096,0.023,0.057,0.140,-0.017,0.222,0.684,0.065,1.023,0.344,0.036,1.006,0.139,-0.018,0.221,208,208,40,208,40,1.892,0.000,0.000,1.000,0.000
187488,-1.061,-0.258,-9.902,0.087,0.013,0.064,0.141,-0.017,0.222,0.684,0.065,1.006,0.345,0.037,1.006,0.140,-0.017,0.222,208,208,40,208,40,1.892,0.000,0.000,1.000,0.000
187499,-1.287,-0.272,-10.013,0.085,0.017,0.061,0.142,-0.017,0.223,0.684,0.065,1.023,0.347,0.037,1.006,0.141,-0.017,0.222,208,208,40,208,40,1.892,0.000,0.000,1.000,0.000
187510,-1.040,-0.352,-9.726,0.072,0.013,0.067,0.142,-0.017,0.224,0.684,0.065,1.023,0.348,0.037,1.023,0.142,-0.017,0.223,208,208,54,208,54,1.892,0.000,0.000,1.000,0.000
187521,-1.236,-0.284,-9.953,0.072,0.017,0.065,0.143,-0.017,0.224,0.684,0.065,1.023,0.349,0.037,1.006,0.142,-0.017,0.224,208,208,40,208,40,1.892,0.000,0.000,1.000,0.000
187532,-1.175,-0.415,-9.683,0.060,0.023,0.066,0.144,-0.016,0.225,0.684,0.065,1.023,0.351,0.038,1.023,0.143,-0.017,0.224,208,208,54,208,54,1.892,0.000,0.000,1.000,0.000
187543,-1.205,-0.513,-9.813,0.067,0.020,0.060,0.144,-0.016,0.226,0.684,0.065,1.023,0.352,0.038,1.006,0.144,-0.016,0.225,208,208,40,208,40,1.892,0.000,0.000,1.000,0.000
187554,-1.120,-0.281,-9.969,0.043,0.016,0.046,0.145,-0.016,0.226,5.555,0.216,1.023,0.354,0.039,1.006,0.144,-0.016,0.226,208,208,40,208,40,1.892,0.000,0.000,1.000,0.000
187565,-1.174,-0.384,-9.800,0.033,0.022,0.046,0.145,-0.016,0.227,5.555,0.216,1.006,0.359,0.040,1.039,0.145,-0.016,0.226,208,208,67,208,67,1.892,0.000,0.000,1.000,0.000
187576,-1.079,-0.302,-9.893,0.034,0.021,0.050,0.145,-0.016,0.227,5.555,0.216,1.039,0.364,0.041,1.006,0.145,-0.016,0.227,208,208,40,208,40,1.892,0.000,0.000,1.000,0.000
187587,-1.237,-0.342,-9.972,0.028,0.023,0.046,0.146,-0.015,0.228,5.555,0.216,1.039,0.368,0.042,1.006,0.145,-0.016,0.227,208,208,40,208,40,1.892,0.000,0.000,1.000,0.000
187598,-1.074,-0.406,-9.863,0.024,0.017,0.050,0.146,-0.015,0.228,5.555,0.216,1.039,0.372,0.043,1.023,0.146,-0.015,0.228,208,208,54,208,54,1.892,0.000,0.000,1.000,0.000
187609,-1.255,-0.294,-10.013,0.022,0.020,0.046,0.146,-0.015,0.228,5.555,0.216,1.006,0.377,0.044,1.006,0.146,-0.015,0.228,208,208,40,208,40,1.892,0.000,0.000,1.000,0.000
187620,-1.064,-0.452,-9.737,0.014,0.023,0.044,0.146,-0.015,0.229,5.555,0.216,1.039,0.381,0.045,1.039,0.146,-0.015,0.228,208,208,67,208,67,1.892,0.000,0.000,1.000,0.000
187631,-1.340,-0.626,-9.691,0.016,0.022,0.035,0.146,-0.015,0.229,5.555,0.216,1.023,0.386,0.046,1.023,0.146,-0.015,0.229,208,208,54,208,54,1.892,0.000,0.000,1.000,0.000
187642,-1.226,-0.285,-10.015,-0.000,0.031,0.024,0.146,-0.014,0.230,5.555,0.216,1.039,0.390,0.047,1.039,0.146,-0.015,0.229,208,208,67,208,67,1.892,0.000,0.000,1.000,0.000
187653,-1.135,-0.482,-9.781,-0.011,0.029,0.026,0.146,-0.014,0.230,5.555,0.216,1.039,0.394,0.048,1.039,0.146,-0.014,0.230,208,208,67,208,67,1.892,0.000,0.000,1.000,0.000
187664,-1.123,-0.316,-10.051,-0.009,0.029,0.020,0.146,-0.014,0.230,5.555,0.216,1.039,0.399,0.049,1.039,0.146,-0.014,0.230,208,208,67,208,67,1.892,0.000,0.000,1.000,0.000
187675,-1.204,-0.403,-9.830,-0.021,0.026,0.018,0.146,-0.014,0.230,5.555,0.216,1.039,0.403,0.050,1.023,0.146,-0.014,0.230,208,208,54,208,54,1.892,0.000,0.000,1.000,0.000
187686,-1.043,-0.371,-9.866,-0.022,0.023,0.015,0.146,-0.013,0.230,5.555,0.216,1.039,0.407,0.051,1.039,0.146,-0.014,0.230,208,208,67,208,67,1.892,0.000,0.000,1.000,0.000
187697,-1.216,-0.337,-9.793,-0.028,0.033,0.012,0.146,-0.013,0.230,5.555,0.216,1.039,0.412,0.052,1.039,0.146,-0.013,0.230,208,208,67,208,67,1.892,0.000,0.000,1.000,0.000
187708,-1.036,-0.444,-9.863,-0.030,0.032,0.012,0.145,-0.013,0.231,5.555,0.216,1.055,0.417,0.053,1.039,0.146,-0.013,0.230,208,208,67,208,67,1.892,0.000,0.000,1.000,0.000
187719,-1.289,-0.328,-9.963,-0.028,0.038,0.007,0.145,-0.012,0.231,5.555,0.216,1.039,0.421,0.054,1.055,0.145,-0.013,0.231,208,208,81,208,81,1.892,0.000,0.000,1.000,0.000
187730,-1.159,-0.286,-10.079,-0.038,0.034,-0.002,0.145,-0.012,0.231,5.555,0.216,1.039,0.425,0.055,1.071,0.145,-0.012,0.231,208,208,95,208,95,1.892,0.000,0.000,1.000,0.000
187741,-1.094,-0.428,-9.719,-0.042,0.034,0.002,0.144,-0.012,0.231,5.555,0.216,1.071,0.430,0.056,1.071,0.145,-0.012,0.231,208,208,95,208,95,1.892,0.000,0.000,1.000,0.000
187752,-1.073,-0.345,-10.030,-0.039,0.042,0.000,0.144,-0.011,0.231,5.495,0.214,1.023,0.434,0.057,1.039,0.144,-0.012,0.231,208,208,67,208,67,1.892,0.000,0.000,1.000,0.000
187763,-1.131,-0.390,-9.779,-0.049,0.045,0.004,0.143,-0.011,0.231,5.495,0.214,1.055,0.439,0.058,1.055,0.144,-0.011,0.231,208,208,81,208,81,1.892,0.000,0.000,1.000,0.000
187774,-1.060,-0.342,-10.061,-0.042,0.039,0.004,0.143,-0.010,0.231,5.495,0.214,1.039,0.443,0.059,1.055,0.143,-0.011,0.231,208,208,81,208,81,1.892,0.000,0.000,1.000,0.000
187785,-1.146,-0.309,-9.883,-0.049,0.042,0.005,0.142,-0.010,0.231,5.495,0.214,1.071,0.447,0.060,1.039,0.143,-0.010,0.231,208,208,67,208,67,1.892,0.000,0.000,1.000,0.000
187796,-0.997,-0.463,-9.802,-0.049,0.042,0.005,0.142,-0.009,0.231,5.495,0.214,1.039,0.452,0.061,1.055,0.142,-0.010,0.231,208,208,81,208,81,1.892,0.000,0.000,1.000,0.000
187807,-1.139,-0.279,-9.909,-0.055,0.048,0.005,0.141,-0.009,0.231,5.495,0.214,1.055,0.456,0.062,1.071,0.142,-0.009,0.231,208,208,95,208,95,1.892,0.000,0.000,1.000,0.000
187818,-1.111,-0.274,-9.951,-0.066,0.043,0.005,0.141,-0.009,0.231,5.495,0.214,1.087,0.460,0.063,1.071,0.141,-0.009,0.231,208,208,95,208,95,1.892,0.000,0.000,1.000,0.000
187829,-1.064,-0.372,-9.774,-0.072,0.042,0.007,0.140,-0.008,0.231,5.495,0.214,1.023,0.465,0.064,1.071,0.141,-0.009,0.231,208,208,95,208,95,1.892,0.000,0.000,1.000,0.000
187840,-1.024,-0.336,-9.986,-0.076,0.043,0.007,0.139,-0.008,0.231,5.495,0.214,1.071,0.469,0.066,1.071,0.140,-0.008,0.231,208,208,95,208,95,1.892,0.000,0.000,1.000,0.000
187851,-0.991,-0.201,-9.802,-0.077,0.037,0.015,0.139,-0.007,0.231,5.495,0.214,1.071,0.473,0.066,1.055,0.139,-0.008,0.231,208,208,81,208,81,1.892,0.000,0.000,1.000,0.000
187862,-1.035,-0.422,-9.917,-0.074,0.035,0.015,0.138,-0.007,0.231,5.495,0.214,1.055,0.478,0.068,1.055,0.139,-0.007,0.231,208,208,81,208,81,1.892,0.000,0.000,1.000,0.000
187873,-1.089,-0.159,-9.813,-0.082,0.033,0.017,0.137,-0.007,0.231,5.495,0.214,1.071,0.482,0.069,1.055,0.138,-0.007,0.231,208,208,81,208,81,1.892,0.000,0.000,1.000,0.000
187884,-1.073,-0.456,-9.995,-0.075,0.026,0.015,0.136,-0.006,0.231,5.495,0.214,1.071,0.484,0.069,1.055,0.137,-0.007,0.231,208,208,81,208,81,1.892,0.000,0.000,1.000,0.000
187895,-1.090,-0.170,-9.923,-0.083,0.027,0.015,0.135,-0.006,0.231,5.495,0.214,1.055,0.488,0.070,1.071,0.136,-0.006,0.231,208,208,95,208,95,1.892,0.000,0.000,1.000,0.000
187906,-1.021,-0.215,-9.832,-0.076,0.027,0.021,0.135,-0.006,0.232,5.495,0.214,1.071,0.493,0.071,1.055,0.135,-0.006,0.231,208,208,81,208,81,1.892,0.000,0.000,1.000,0.000
187917,-0.958,-0.207,-9.930,-0.065,0.020,0.020,0.134,-0.006,0.232,5.495,0.214,1.055,0.496,0.072,1.071,0.135,-0.006,0.232,208,208,95,208,95,1.892,0.000,0.000,1.000,0.000
187928,-1.054,-0.345,-9.835,-0.075,0.020,0.023,0.133,-0.005,0.232,5.953,0.228,1.087,0.501,0.073,1.055,0.134,-0.006,0.232,208,208,81,208,81,1.892,0.000,0.000,1.000,0.000
187939,-1.022,-0.138,-9.976,-0.069,0.013,0.020,0.133,-0.005,0.232,5.953,0.228,1.087,0.506,0.074,1.087,0.133,-0.005,0.232,208,208,110,208,110,1.892,0.000,0.000,1.000,0.000
187950,-1.089,-0.410,-9.939,-0.072,0.015,0.018,0.132,-0.005,0.232,5.953,0.228,1.071,0.510,0.075,1.071,0.133,-0.005,0.232,208,208,95,208,95,1.892,0.000,0.000,1.000,0.000
187961,-1.001,-0.133,-9.861,-0.074,0.013,0.018,0.131,-0.005,0.233,5.953,0.228,1.071,0.515,0.076,1.071,0.132,-0.005,0.232,208,208,95,208,95,1.892,0.000,0.000,1.000,0.000
187972,-0.861,-0.346,-9.958,-0.070,0.012,0.018,0.130,-0.005,0.233,5.953,0.228,1.071,0.520,0.078,1.087,0.131,-0.005,0.233,208,208,110,208,110,1.892,0.000,0.000,1.000,0.000
187983,-1.034,-0.170,-9.793,-0.075,0.010,0.026,0.130,-0.005,0.233,5.953,0.228,1.071,0.524,0.079,1.103,0.130,-0.005,0.233,208,208,124,208,124,1.892,0.000,0.000,1.000,0.000
187994,-0.986,-0.255,-9.757,-0.074,0.004,0.032,0.129,-0.005,0.233,5.953,0.228,1.087,0.529,0.080,1.087,0.130,-0.005,0.233,208,208,110,208,110,1.892,0.000,0.000,1.000,0.000
188005,-0.991,-0.219,-10.195,-0.069,0.000,0.029,0.128,-0.005,0.234,5.953,0.228,1.087,0.534,0.081,1.087,0.129,-0.005,0.233,208,208,110,208,110,1.892,0.000,0.000,1.000,0.000
188016,-0.860,-0.365,-9.725,-0.074,0.000,0.038,0.127,-0.005,0.234,5.953,0.228,1.071,0.538,0.082,1.087,0.128,-0.005,0.234,208,208,110,208,110,1.892,0.000,0.000,1.000,0.000
188027,-1.113,-0.054,-10.099,-0.063,-0.002,0.032,0.127,-0.005,0.234,5.953,0.228,1.071,0.543,0.083,1.071,0.127,-0.005,0.234,208,208,95,208,95,1.892,0.000,0.000,1.000,0.000
188038,-0.876,-0.403,-9.807,-0.069,0.000,0.040,0.126,-0.005,0.235,5.953,0.228,1.103,0.548,0.084,1.071,0.127,-0.005,0.234,208,208,95,208,95,1.892,0.000,0.000,1.000,0.000
188049,-1.143,-0.026,-9.987,-0.059,-0.005,0.031,0.126,-0.005,0.235,5.953,0.228,1.087,0.552,0.085,1.071,0.126,-0.005,0.235,208,208,95,208,95,1.892,0.000,0.000,1.000,0.000
188060,-0.848,-0.325,-9.925,-0.069,-0.006,0.040,0.125,-0.005,0.235,5.953,0.228,1.087,0.557,0.086,1.055,0.126,-0.005,0.235,208,208,81,208,81,1.892,0.000,0.000,1.000,0.000
188071,-0.991,-0.007,-9.942,-0.061,-0.009,0.039,0.124,-0.005,0.236,5.953,0.228,1.071,0.562,0.088,1.071,0.125,-0.005,0.235,208,208,95,208,95,1.892,0.000,0.000,1.000,0.000
188082,-1.004,-0.135,-9.952,-0.054,-0.010,0.045,0.124,-0.005,0.236,5.953,0.228,1.087,0.566,0.089,1.087,0.124,-0.005,0.236,208,208,110,208,110,1.892,0.000,0.000,1.000,0.000
188093,-1.056,-0.257,-9.965,-0.050,-0.012,0.042,0.123,-0.005,0.237,6.945,0.259,1.087,0.572,0.090,1.103,0.124,-0.005,0.236,208,208,124,208,124,1.892,0.000,0.000,1.000,0.000
188104,-0.834,-0.206,-9.806,-0.052,-0.015,0.045,0.123,-0.005,0.237,6.945,0.259,1.087,0.578,0.091,1.103,0.123,-0.005,0.237,208,208,124,208,124,1.892,0.000,0.000,1.000,0.000
188115,-1.120,-0.055,-10.066,-0.043,-0.012,0.042,0.122,-0.005,0.237,6.945,0.259,1.087,0.582,0.092,1.071,0.123,-0.005,0.237,208,208,95,208,95,1.892,0.000,0.000,1.000,0.000
188126,-0.907,-0.229,-9.929,-0.043,-0.016,0.053,0.122,-0.005,0.238,6.945,0.259,1.071,0.588,0.094,1.119,0.122,-0.005,0.237,208,208,138,208,138,1.892,0.000,0.000,1.000,0.000
188137,-1.078,-0.061,-10.045,-0.036,-0.017,0.044,0.122,-0.006,0.238,6.945,0.259,1.087,0.593,0.095,1.071,0.122,-0.005,0.238,208,208,95,208,95,1.892,0.000,0.000,1.000,0.000
188148,-0.815,-0.252,-9.757,-0.038,-0.022,0.054,0.121,-0.006,0.239,6.945,0.259,1.103,0.598,0.096,1.103,0.122,-0.006,0.238,208,208,124,208,124,1.892,0.000,0.000,1.000,0.000
188159,-1.147,-0.079,-10.072,-0.030,-0.023,0.049,0.121,-0.006,0.239,6.945,0.259,1.103,0.604,0.098,1.103,0.121,-0.006,0.239,208,208,124,208,124,1.892,0.000,0.000,1.000,0.000
188170,-1.033,-0.121,-9.939,-0.028,-0.018,0.048,0.121,-0.006,0.240,6.945,0.259,1.103,0.609,0.099,1.119,0.121,-0.006,0.239,208,208,138,208,138,1.892,0.000,0.000,1.000,0.000
188181,-0.997,-0.200,-9.922,-0.033,-0.018,0.050,0.120,-0.006,0.240,6.945,0.259,1.071,0.614,0.100,1.087,0.121,-0.006,0.240,208,208,110,208,110,1.892,0.000,0.000,1.000,0.000
188192,-1.084,-0.116,-10.047,-0.028,-0.017,0.051,0.120,-0.007,0.241,6.945,0.259,1.087,0.620,0.101,1.087,0.120,-0.006,0.240,208,208,110,208,110,1.892,0.000,0.000,1.000,0.000
188203,-1.040,-0.236,-9.831,-0.033,-0.017,0.046,0.120,-0.007,0.241,6.945,0.259,1.087,0.625,0.103,1.087,0.120,-0.007,0.241,208,208,110,208,110,1.892,0.000,0.000,1.000,0.000
188214,-0.835,-0.142,-9.844,-0.032,-0.020,0.053,0.119,-0.007,0.242,6.945,0.259,1.119,0.630,0.104,1.103,0.120,-0.007,0.241,208,208,124,208,124,1.892,0.000,0.000,1.000,0.000
188225,-1.172,-0.166,-9.957,-0.036,-0.015,0.051,0.119,-0.007,0.242,6.945,0.259,1.103,0.635,0.105,1.103,0.119,-0.007,0.242,208,208,124,208,124,1.892,0.000,0.000,1.000,0.000
188236,-0.940,-0.138,-9.934,-0.034,-0.016,0.059,0.119,-0.007,0.243,6.945,0.259,1.087,0.641,0.107,1.087,0.119,-0.007,0.242,208,208,110,208,110,1.892,0.000,0.000,1.000,0.000
188247,-1.156,-0.140,-10.006,-0.036,-0.015,0.056,0.118,-0.007,0.244,6.945,0.259,1.103,0.646,0.108,1.087,0.119,-0.007,0.243,208,208,110,208,110,1.892,0.000,0.000,1.000,0.000
188258,-1.094,-0.035,-10.027,-0.033,-0.007,0.057,0.118,-0.007,0.244,6.172,0.235,1.119,0.651,0.109,1.103,0.118,-0.007,0.244,208,208,124,208,124,1.892,0.000,0.000,1.000,0.000
188269,-0.855,-0.170,-9.744,-0.036,-0.005,0.067,0.118,-0.007,0.245,6.172,0.235,1.087,0.656,0.111,1.087,0.118,-0.007,0.244,208,208,110,208,110,1.892,0.000,0.000,1.000,0.000
188280,-1.080,-0.099,-9.974,-0.032,-0.009,0.070,0.117,-0.007,0.246,6.172,0.235,1.071,0.660,0.112,1.087,0.118,-0.007,0.245,208,208,110,208,110,1.892,0.000,0.000,1.000,0.000
188291,-1.030,-0.191,-9.860,-0.041,-0.017,0.065,0.117,-0.008,0.246,6.172,0.235,1.087,0.666,0.113,1.103,0.117,-0.007,0.246,208,208,124,208,124,1.892,0.000,0.000,1.000,0.000
188302,-1.133,-0.050,-10.014,-0.033,-0.005,0.061,0.116,-0.008,0.247,6.172,0.235,1.103,0.671,0.114,1.103,0.117,-0.008,0.246,208,208,124,208,124,1.892,0.000,0.000,1.000,0.000
188313,-1.031,-0.184,-9.787,-0.036,-0.004,0.062,0.116,-0.008,0.247,6.172,0.235,1.087,0.675,0.115,1.103,0.116,-0.008,0.247,208,208,124,208,124,1.892,0.000,0.000,1.000,0.000
188324,-0.925,-0.107,-9.968,-0.027,-0.002,0.057,0.116,-0.008,0.248,6.172,0.235,1.103,0.680,0.116,1.071,0.116,-0.008,0.247,208,208,95,208,95,1.892,0.000,0.000,1.000,0.000
188335,-1.098,-0.108,-9.753,-0.031,0.000,0.059,0.116,-0.008,0.249,6.172,0.235,1.103,0.685,0.118,1.119,0.116,-0.008,0.248,208,208,138,208,138,1.892,0.000,0.000,1.000,0.000
188346,-1.056,-0.111,-9.776,-0.026,0.005,0.057,0.115,-0.008,0.249,6.172,0.235,1.071,0.689,0.119,1.103,0.116,-0.008,0.249,208,208,124,208,124,1.892,0.000,0.000,1.000,0.000
188357,-0.912,-0.136,-10.001,-0.017,-0.007,0.056,0.115,-0.008,0.250,6.172,0.235,1.087,0.694,0.120,1.087,0.115,-0.008,0.249,208,208,110,208,110,1.892,0.000,0.000,1.000,0.000
188368,-1.151,-0.091,-9.983,-0.021,-0.001,0.060,0.115,-0.008,0.250,6.172,0.235,1.103,0.699,0.121,1.087,0.115,-0.008,0.250,208,208,110,208,110,1.892,0.000,0.000,1.000,0.000
188379,-0.960,-0.275,-9.774,-0.017,-0.006,0.059,0.115,-0.008,0.251,6.172,0.235,1.087,0.704,0.123,1.087,0.115,-0.008,0.250,208,208,110,208,110,1.892,0.000,0.000,1.000,0.000
188390,-1.125,-0.073,-9.939,-0.012,-0.004,0.050,0.115,-0.008,0.251,6.172,0.235,1.119,0.709,0.124,1.087,0.115,-0.008,0.251,208,208,110,208,110,1.892,0.000,0.000,1.000,0.000
188401,-1.096,-0.244,-9.834,-0.012,-0.004,0.046,0.114,-0.008,0.252,6.172,0.235,1.087,0.714,0.125,1.103,0.115,-0.008,0.251,208,208,124,208,124,1.892,0.000,0.000,1.000,0.000
188412,-1.050,-0.095,-10.035,-0.010,-0.001,0.040,0.114,-0.008,0.252,6.172,0.235,1.087,0.718,0.126,1.071,0.114,-0.008,0.252,208,208,95,208,95,1.892,0.000,0.000,1.000,0.000
188423,-0.975,-0.093,-9.647,-0.010,-0.010,0.042,0.114,-0.008,0.253,6.410,0.242,1.087,0.723,0.128,1.087,0.114,-0.008,0.252,208,208,110,208,110,1.892,0.000,0.000,1.000,0.000
188434,-1.067,-0.028,-9.763,-0.006,-0.007,0.043,0.114,-0.008,0.253,6.410,0.242,1.087,0.728,0.129,1.087,0.114,-0.008,0.253,208,208,110,208,110,1.892,0.000,0.000,1.000,0.000
188445,-0.904,-0.182,-9.796,0.002,-0.004,0.042,0.114,-0.008,0.254,6.410,0.242,1.087,0.733,0.130,1.103,0.114,-0.008,0.253,208,208,124,208,124,1.892,0.000,0.000,1.000,0.000
188456,-1.052,0.057,-9.866,-0.001,-0.004,0.043,0.114,-0.008,0.254,6.410,0.242,1.135,0.738,0.131,1.087,0.114,-0.008,0.254,208,208,110,208,110,1.892,0.000,0.000,1.000,0.000
188467,-1.100,-0.285,-9.802,0.006,-0.001,0.039,0.114,-0.008,0.254,6.410,0.242,1.055,0.743,0.133,1.087,0.114,-0.008,0.254,208,208,110,208,110,1.892,0.000,0.000,1.000,0.000
188478,-1.015,-0.032,-9.847,-0.006,-0.002,0.034,0.114,-0.008,0.255,6.410,0.242,1.119,0.748,0.134,1.103,0.114,-0.008,0.254,208,208,124,208,124,1.892,0.000,0.000,1.000,0.000
188489,-1.054,-0.120,-9.842,0.003,-0.009,0.028,0.114,-0.008,0.255,6.410,0.242,1.087,0.753,0.135,1.119,0.114,-0.008,0.255,208,208,138,208,138,1.892,0.000,0.000,1.000,0.000
188500,-1.084,-0.208,-9.816,-0.010,0.000,0.028,0.114,-0.008,0.255,6.410,0.242,1.103,0.758,0.137,1.103,0.114,-0.008,0.255,208,208,124,208,124,1.892,0.000,0.000,1.000,0.000
