Time, Accel X [mg],Accel Y [mg],Accel Z [mg],dRoll [rad/s],dPitch [rad/s],dHeading [rad/s],Roll [rad],Pitch [rad],Yaw [rad],Frequency Reader Frequency [Hz],Calibrated Velocity [m/s],Pressure Sensor Depth [m],State Estimator X [m],State Estimator Y [m],State Estimator Z [m],State Estimator Roll [rad],State Estimator Pitch [rad],State Estimator Yaw [rad],Motor A,Motor B,Motor C,Motor D,Motor E,Servo Angle [rad],Waypoint X [m],Waypoint Y [m],Waypoint Z [m],Waiting [bool]
94649,-0.955,0.870,0.187,0.056,-0.064,0.027,0.001,-0.001,0.000,0.000,0.000,0.361,0.000,0.000,0.345,0.000,0.000,0.000,0,0,242,0,242,1.275,0.000,0.000,1.000,1.000
94660,-0.978,0.886,0.263,0.057,-0.061,0.026,0.001,-0.001,0.001,0.000,0.000,0.345,0.000,0.000,0.329,0.001,-0.001,0.000,0,0,242,0,242,1.275,0.000,0.000,1.000,1.000
94671,-0.966,0.860,0.745,0.061,-0.064,0.028,0.002,-0.002,0.001,0.000,0.000,0.345,0.000,0.000,0.345,0.001,-0.001,0.001,0,0,242,0,242,1.275,0.000,0.000,1.000,1.000
94682,-0.799,0.843,0.841,0.065,-0.060,0.031,0.002,-0.002,0.001,0.000,0.000,0.377,0.000,0.000,0.345,0.002,-0.002,0.001,0,0,242,0,242,1.276,0.000,0.000,1.000,1.000
94693,-0.860,0.857,0.628,0.058,-0.076,0.038,0.003,-0.003,0.001,0.000,0.000,0.345,0.000,0.000,0.345,0.002,-0.002,0.001,0,0,242,0,242,1.276,0.000,0.000,1.000,1.000
94704,-1.012,0.873,0.426,0.065,-0.073,0.050,0.004,-0.004,0.002,0.000,0.000,0.345,0.000,0.000,0.361,0.003,-0.003,0.001,0,0,242,0,242,1.276,0.000,0.000,1.000,1.000
94715,-0.836,0.851,0.732,0.073,-0.064,0.057,0.004,-0.005,0.003,0.000,0.000,0.345,0.000,0.000,0.361,0.004,-0.004,0.002,0,0,242,0,242,1.276,0.000,0.000,1.000,1.000
94726,-0.827,0.852,0.559,0.069,-0.060,0.079,0.005,-0.005,0.003,0.000,0.000,0.377,0.000,0.000,0.361,0.004,-0.005,0.003,0,0,242,0,242,1.277,0.000,0.000,1.000,1.000
94737,-0.920,0.820,0.638,0.080,-0.059,0.089,0.006,-0.006,0.004,0.000,0.000,0.329,0.000,0.000,0.361,0.005,-0.005,0.003,0,0,242,0,242,1.277,0.000,0.000,1.000,1.000
94748,-1.211,0.724,0.583,0.078,-0.062,0.092,0.007,-0.006,0.005,0.000,0.000,0.361,0.000,0.000,0.361,0.006,-0.006,0.004,0,0,242,0,242,1.278,0.000,0.000,1.000,1.000
94759,-0.957,0.743,0.548,0.078,-0.059,0.088,0.007,-0.007,0.006,0.000,0.000,0.361,0.000,0.000,0.361,0.007,-0.006,0.005,0,0,242,0,242,1.279,0.000,0.000,1.000,1.000
94770,-0.975,0.864,0.773,0.076,-0.062,0.088,0.008,-0.008,0.007,0.000,0.000,0.361,0.000,0.000,0.361,0.007,-0.007,0.006,0,0,242,0,242,1.279,0.000,0.000,1.000,1.000
94781,-1.151,0.738,0.622,0.068,-0.071,0.094,0.009,-0.008,0.008,0.000,0.000,0.345,0.000,0.000,0.361,0.008,-0.008,0.007,0,0,242,0,242,1.280,0.000,0.000,1.000,1.000
94792,-1.095,0.690,0.542,0.062,-0.077,0.082,0.009,-0.009,0.009,0.000,0.000,0.345,0.000,0.000,0.377,0.009,-0.008,0.008,0,0,242,0,242,1.281,0.000,0.000,1.000,1.000
94803,-1.107,0.788,0.506,0.056,-0.078,0.081,0.010,-0.010,0.009,0.000,0.000,0.361,0.000,0.000,0.345,0.009,-0.009,0.009,0,0,242,0,242,1.281,0.000,0.000,1.000,1.000
94814,-1.118,0.706,0.482,0.047,-0.083,0.083,0.010,-0.011,0.010,0.000,0.000,0.345,0.000,0.000,0.345,0.010,-0.010,0.009,0,0,242,0,242,1.282,0.000,0.000,1.000,1.000
94825,-1.043,0.765,0.383,0.043,-0.077,0.090,0.011,-0.011,0.011,0.000,0.000,0.361,0.000,0.000,0.377,0.010,-0.011,0.010,0,0,242,0,242,1.282,0.000,0.000,1.000,1.000
94836,-1.113,0.746,0.427,0.040,-0.072,0.097,0.011,-0.012,0.012,0.000,0.000,0.361,0.000,0.000,0.345,0.011,-0.011,0.011,0,0,242,0,242,1.283,0.000,0.000,1.000,1.000
94847,-1.102,0.826,0.409,0.040,-0.061,0.103,0.012,-0.013,0.013,0.000,0.000,0.361,0.000,0.000,0.361,0.011,-0.012,0.012,0,0,242,0,242,1.284,0.000,0.000,1.000,1.000
94858,-1.016,0.785,0.438,0.040,-0.060,0.110,0.012,-0.013,0.014,0.000,0.000,0.345,0.000,0.000,0.361,0.012,-0.013,0.013,0,0,242,0,242,1.284,0.000,0.000,1.000,1.000
94869,-1.161,0.825,0.390,0.044,-0.050,0.114,0.013,-0.014,0.015,0.000,0.000,0.377,0.000,0.000,0.361,0.012,-0.013,0.014,0,0,242,0,242,1.285,0.000,0.000,1.000,1.000
94880,-1.071,0.903,0.416,0.049,-0.045,0.120,0.013,-0.014,0.017,0.000,0.000,0.345,0.000,0.000,0.361,0.013,-0.014,0.015,0,0,242,0,242,1.286,0.000,0.000,1.000,1.000
94891,-1.141,0.968,0.377,0.057,-0.044,0.117,0.014,-0.015,0.018,0.000,0.000,0.361,0.000,0.000,0.377,0.013,-0.014,0.017,0,0,242,0,242,1.287,0.000,0.000,1.000,1.000
94902,-1.249,0.873,0.168,0.072,-0.038,0.122,0.014,-0.015,0.019,0.000,0.000,0.458,0.000,0.000,0.345,0.014,-0.015,0.018,0,0,242,0,242,1.288,0.000,0.000,1.000,1.000
94913,-1.418,0.698,-0.009,0.079,-0.023,0.120,0.015,-0.015,0.020,0.000,0.000,0.345,0.000,0.000,0.361,0.014,-0.015,0.019,0,0,242,0,242,1.288,0.000,0.000,1.000,1.000
94924,-1.274,0.789,-0.044,0.077,-0.010,0.120,0.016,-0.015,0.021,0.000,0.000,0.377,0.000,0.000,0.345,0.015,-0.015,0.020,0,0,242,0,242,1.289,0.000,0.000,1.000,1.000
94935,-1.231,0.761,-0.129,0.079,-0.005,0.121,0.017,-0.015,0.023,0.000,0.000,0.345,0.000,0.000,0.361,0.016,-0.015,0.021,0,0,242,0,242,1.290,0.000,0.000,1.000,1.000
94946,-1.342,0.678,-0.532,0.074,0.004,0.134,0.017,-0.015,0.024,0.000,0.000,0.361,0.000,0.000,0.377,0.017,-0.015,0.023,0,0,242,0,242,1.291,0.000,0.000,1.000,1.000
94957,-1.060,0.602,-0.133,0.057,-0.002,0.132,0.018,-0.015,0.025,0.000,0.000,0.361,0.000,0.000,0.361,0.017,-0.015,0.024,0,0,242,0,242,1.292,0.000,0.000,1.000,1.000
94968,-0.919,0.624,0.716,0.057,0.006,0.136,0.019,-0.015,0.027,0.000,0.000,0.377,0.000,0.000,0.345,0.018,-0.015,0.025,0,0,242,0,242,1.293,0.000,0.000,1.000,1.000
94979,-0.576,0.436,0.859,0.044,-0.007,0.155,0.019,-0.015,0.028,0.000,0.000,0.361,0.000,0.000,0.361,0.019,-0.015,0.027,0,0,242,0,242,1.294,0.000,0.000,1.000,1.000
94990,-1.151,0.767,0.337,0.046,-0.018,0.165,0.019,-0.016,0.030,0.000,0.000,0.377,0.000,0.000,0.345,0.019,-0.015,0.028,0,0,242,0,242,1.295,0.000,0.000,1.000,1.000
95001,-1.034,0.660,0.345,0.047,-0.029,0.166,0.020,-0.016,0.032,0.000,0.000,0.377,0.000,0.000,0.377,0.019,-0.016,0.030,0,0,242,0,242,1.296,0.000,0.000,1.000,1.000
95012,-1.009,0.620,0.729,0.046,-0.016,0.159,0.020,-0.016,0.033,0.000,0.000,0.361,0.000,0.000,0.377,0.020,-0.016,0.032,0,0,242,0,242,1.297,0.000,0.000,1.000,1.000
95023,-0.932,0.805,0.726,0.049,-0.021,0.166,0.021,-0.016,0.035,0.000,0.000,0.377,0.000,0.000,0.377,0.020,-0.016,0.033,0,0,242,0,242,1.298,0.000,0.000,1.000,1.000
95034,-1.025,0.733,0.578,0.056,-0.035,0.166,0.021,-0.017,0.036,0.000,0.000,0.377,0.000,0.000,0.377,0.021,-0.016,0.035,0,0,242,0,242,1.300,0.000,0.000,1.000,1.000
95045,-1.190,0.562,0.469,0.051,-0.032,0.165,0.022,-0.017,0.038,0.000,0.000,0.232,0.000,0.000,0.377,0.021,-0.017,0.036,0,0,242,0,242,1.301,0.000,0.000,1.000,1.000
95056,-0.974,0.799,0.542,0.046,-0.029,0.158,0.022,-0.017,0.040,0.000,0.000,0.394,0.000,0.000,0.361,0.022,-0.017,0.038,0,0,242,0,242,1.302,0.000,0.000,1.000,1.000
95067,-0.939,0.752,0.748,0.057,-0.035,0.160,0.023,-0.018,0.041,0.000,0.000,0.377,0.000,0.000,0.377,0.022,-0.017,0.040,0,0,242,0,242,1.303,0.000,0.000,1.000,1.000
95078,-1.080,0.743,0.415,0.052,-0.044,0.158,0.024,-0.018,0.043,0.000,0.000,0.394,0.000,0.000,0.361,0.023,-0.018,0.041,0,0,242,0,242,1.304,0.000,0.000,1.000,1.000
95089,-0.968,0.727,0.503,0.058,-0.044,0.156,0.024,-0.018,0.044,0.000,0.000,0.361,0.000,0.000,0.394,0.024,-0.018,0.043,0,0,242,0,242,1.305,0.000,0.000,1.000,1.000
95100,-1.015,0.654,0.527,0.061,-0.048,0.165,0.025,-0.019,0.046,0.000,0.000,0.361,0.000,0.000,0.377,0.024,-0.018,0.044,0,0,242,0,242,1.306,0.000,0.000,1.000,1.000
95111,-1.138,0.659,0.474,0.060,-0.054,0.158,0.025,-0.019,0.048,0.000,0.000,0.394,0.000,0.000,0.377,0.025,-0.019,0.046,0,0,242,0,242,1.308,0.000,0.000,1.000,1.000
95122,-0.979,0.738,0.434,0.061,-0.046,0.160,0.026,-0.020,0.049,0.000,0.000,0.394,0.000,0.000,0.377,0.025,-0.019,0.048,0,0,242,0,242,1.309,0.000,0.000,1.000,1.000
95133,-0.981,0.679,0.421,0.063,-0.054,0.166,0.027,-0.020,0.051,0.000,0.000,0.377,0.000,0.000,0.361,0.026,-0.020,0.049,0,0,242,0,242,1.310,0.000,0.000,1.000,1.000
95144,-1.114,0.845,0.424,0.063,-0.044,0.166,0.027,-0.021,0.053,0.000,0.000,0.394,0.000,0.000,0.394,0.027,-0.020,0.051,0,0,242,0,242,1.311,0.000,0.000,1.000,1.000
95155,-0.914,1.047,0.415,0.045,-0.033,0.172,0.028,-0.021,0.054,0.000,0.000,0.410,0.000,0.000,0.377,0.027,-0.021,0.053,0,0,242,0,242,1.312,0.000,0.000,1.000,1.000
95166,-1.072,0.850,0.412,0.022,-0.020,0.194,0.028,-0.021,0.056,0.000,0.000,0.377,0.000,0.000,0.410,0.028,-0.021,0.054,0,0,242,0,242,1.313,0.000,0.000,1.000,1.000
95177,-1.021,0.712,0.387,0.021,-0.021,0.194,0.028,-0.022,0.058,0.000,0.000,0.394,0.000,0.000,0.394,0.028,-0.021,0.056,0,0,242,0,242,1.315,0.000,0.000,1.000,1.000
95188,-1.131,0.631,0.395,0.024,-0.022,0.195,0.028,-0.022,0.060,0.000,0.000,0.394,0.000,0.000,0.394,0.028,-0.022,0.058,0,0,242,0,242,1.316,0.000,0.000,1.000,1.000
95199,-1.068,0.620,0.448,0.023,-0.021,0.195,0.029,-0.022,0.062,0.000,0.000,0.410,0.000,0.000,0.394,0.028,-0.022,0.060,0,0,242,0,242,1.317,0.000,0.000,1.000,1.000
95210,-1.068,0.710,0.288,0.021,-0.029,0.188,0.029,-0.022,0.064,0.000,0.000,0.410,0.000,0.000,0.394,0.029,-0.022,0.062,0,0,242,0,242,1.319,0.000,0.000,1.000,1.000
95221,-1.175,0.598,0.223,0.024,-0.028,0.192,0.029,-0.023,0.066,0.000,0.000,0.426,0.000,0.000,0.410,0.029,-0.022,0.064,0,0,242,0,242,1.320,0.000,0.000,1.000,1.000
95232,-1.083,0.647,0.213,0.023,-0.034,0.186,0.029,-0.023,0.068,0.000,0.000,0.410,0.000,0.000,0.426,0.029,-0.023,0.066,0,0,242,0,242,1.322,0.000,0.000,1.000,1.000
95243,-1.115,0.687,0.237,0.025,-0.035,0.182,0.029,-0.023,0.070,0.000,0.000,0.394,0.000,0.000,0.458,0.029,-0.023,0.068,0,0,242,0,242,1.323,0.000,0.000,1.000,1.000
95254,-1.005,0.666,0.256,0.030,-0.035,0.186,0.030,-0.024,0.071,0.000,0.000,0.410,0.000,0.000,0.410,0.029,-0.023,0.070,0,0,242,0,242,1.324,0.000,0.000,1.000,1.000
95265,-1.146,0.632,0.259,0.033,-0.029,0.187,0.030,-0.024,0.073,0.000,0.000,0.410,0.000,0.000,0.410,0.030,-0.024,0.071,0,0,242,0,242,1.325,0.000,0.000,1.000,1.000
95276,-1.057,0.673,0.328,0.032,-0.029,0.188,0.030,-0.024,0.075,0.000,0.000,0.410,0.000,0.000,0.410,0.030,-0.024,0.073,0,0,242,0,242,1.327,0.000,0.000,1.000,1.000
95287,-1.039,0.712,0.314,0.033,-0.029,0.188,0.031,-0.025,0.077,0.000,0.000,0.410,0.000,0.000,0.442,0.030,-0.024,0.075,0,0,242,0,242,1.328,0.000,0.000,1.000,1.000
95298,-1.113,0.598,0.365,0.035,-0.024,0.193,0.031,-0.025,0.079,0.000,0.000,0.426,0.000,0.000,0.426,0.031,-0.025,0.077,0,0,242,0,242,1.329,0.000,0.000,1.000,1.000
95309,-1.078,0.654,0.337,0.038,-0.027,0.189,0.031,-0.025,0.081,0.000,0.000,0.426,0.000,0.000,0.426,0.031,-0.025,0.079,0,0,242,0,242,1.331,0.000,0.000,1.000,1.000
95320,-1.125,0.647,0.334,0.043,-0.024,0.183,0.032,-0.025,0.083,0.000,0.000,0.426,0.000,0.000,0.426,0.031,-0.025,0.081,0,0,242,0,242,1.332,0.000,0.000,1.000,1.000
95331,-1.103,0.671,0.376,0.041,-0.021,0.184,0.032,-0.026,0.085,0.000,0.000,0.442,0.000,0.000,0.442,0.032,-0.025,0.083,0,0,242,0,242,1.333,0.000,0.000,1.000,1.000
95342,-1.145,0.619,0.262,0.041,-0.032,0.182,0.033,-0.026,0.086,0.000,0.000,0.474,0.000,0.000,0.442,0.032,-0.026,0.085,0,0,242,0,242,1.335,0.000,0.000,1.000,1.000
95353,-1.083,0.655,0.262,0.040,-0.029,0.180,0.033,-0.026,0.088,0.000,0.000,0.442,0.000,0.000,0.426,0.033,-0.026,0.086,0,0,242,0,242,1.336,0.000,0.000,1.000,1.000
95364,-1.076,0.681,0.218,0.044,-0.032,0.175,0.034,-0.026,0.090,0.000,0.000,0.442,0.000,0.000,0.426,0.033,-0.026,0.088,0,0,242,0,242,1.337,0.000,0.000,1.000,1.000
95375,-1.119,0.636,0.245,0.044,-0.027,0.180,0.034,-0.027,0.092,0.000,0.000,0.442,0.000,0.000,0.458,0.034,-0.026,0.090,0,0,242,0,242,1.339,0.000,0.000,1.000,1.000
95386,-1.039,0.674,0.220,0.044,-0.027,0.178,0.034,-0.027,0.093,0.000,0.000,0.442,0.000,0.000,0.458,0.034,-0.027,0.092,0,0,242,0,242,1.340,0.000,0.000,1.000,1.000
95397,-1.122,0.629,0.184,0.050,-0.017,0.177,0.035,-0.027,0.095,0.000,0.000,0.474,0.000,0.000,0.458,0.034,-0.027,0.093,0,0,242,0,242,1.341,0.000,0.000,1.000,1.000
95408,-1.128,0.654,0.225,0.047,-0.017,0.178,0.035,-0.027,0.097,0.000,0.000,0.442,0.000,0.000,0.442,0.035,-0.027,0.095,0,0,242,0,242,1.342,0.000,0.000,1.000,1.000
95419,-1.051,0.681,0.263,0.047,-0.024,0.176,0.036,-0.028,0.099,0.000,0.000,0.458,0.000,0.000,0.458,0.035,-0.027,0.097,0,0,242,0,242,1.344,0.000,0.000,1.000,1.000
95430,-1.095,0.644,0.297,0.045,-0.026,0.173,0.036,-0.028,0.101,0.000,0.000,0.442,0.000,0.000,0.426,0.036,-0.028,0.099,0,0,242,0,242,1.345,0.000,0.000,1.000,1.000
95441,-1.108,0.633,0.296,0.049,-0.028,0.170,0.037,-0.028,0.102,0.000,0.000,0.458,0.000,0.000,0.458,0.036,-0.028,0.101,0,0,242,0,242,1.346,0.000,0.000,1.000,1.000
95452,-1.144,0.621,0.292,0.047,-0.024,0.172,0.037,-0.028,0.104,0.000,0.000,0.474,0.000,0.000,0.442,0.037,-0.028,0.102,0,0,242,0,242,1.347,0.000,0.000,1.000,1.000
95463,-1.030,0.655,0.323,0.045,-0.028,0.166,0.038,-0.029,0.106,0.000,0.000,0.458,0.000,0.000,0.474,0.037,-0.028,0.104,0,0,242,0,242,1.348,0.000,0.000,1.000,1.000
95474,-1.132,0.614,0.270,0.050,-0.027,0.166,0.038,-0.029,0.107,0.000,0.000,0.458,0.000,0.000,0.474,0.038,-0.029,0.106,0,0,242,0,242,1.350,0.000,0.000,1.000,1.000
95485,-1.092,0.601,0.282,0.050,-0.023,0.169,0.039,-0.029,0.109,0.000,0.000,0.458,0.000,0.000,0.490,0.038,-0.029,0.107,0,0,242,0,242,1.351,0.000,0.000,1.000,1.000
95496,-1.041,0.668,0.308,0.051,-0.023,0.164,0.039,-0.029,0.111,0.000,0.000,0.474,0.000,0.000,0.458,0.039,-0.029,0.109,0,0,242,0,242,1.352,0.000,0.000,1.000,1.000
95507,-1.139,0.607,0.259,0.054,-0.018,0.167,0.040,-0.030,0.112,0.000,0.000,0.474,0.000,0.000,0.474,0.039,-0.029,0.111,0,0,242,0,242,1.353,0.000,0.000,1.000,1.000
95518,-1.125,0.633,0.279,0.057,-0.020,0.164,0.040,-0.030,0.114,0.000,0.000,0.474,0.000,0.000,0.474,0.040,-0.030,0.112,0,0,242,0,242,1.354,0.000,0.000,1.000,1.000
95529,-1.129,0.611,0.256,0.055,-0.016,0.165,0.041,-0.030,0.116,0.000,0.000,0.506,0.000,0.000,0.474,0.040,-0.030,0.114,0,0,242,0,242,1.355,0.000,0.000,1.000,1.000
95540,-1.058,0.668,0.292,0.054,-0.018,0.162,0.041,-0.030,0.117,0.000,0.000,0.490,0.000,0.000,0.490,0.041,-0.030,0.116,0,0,242,0,242,1.357,0.000,0.000,1.000,1.000
95551,-1.149,0.590,0.233,0.056,-0.018,0.159,0.042,-0.030,0.119,0.000,0.000,0.506,0.000,0.000,0.490,0.041,-0.030,0.117,0,0,242,0,242,1.358,0.000,0.000,1.000,1.000
95562,-1.108,0.625,0.251,0.052,-0.017,0.160,0.043,-0.030,0.120,0.000,0.000,0.490,0.000,0.000,0.490,0.042,-0.030,0.119,0,0,242,0,242,1.359,0.000,0.000,1.000,1.000
95573,-1.072,0.645,0.300,0.054,-0.021,0.155,0.043,-0.031,0.122,0.000,0.000,0.506,0.000,0.000,0.523,0.043,-0.030,0.120,0,0,242,0,242,1.360,0.000,0.000,1.000,1.000
95584,-1.128,0.583,0.215,0.054,-0.016,0.158,0.044,-0.031,0.124,0.000,0.000,0.506,0.000,0.000,0.490,0.043,-0.031,0.122,0,0,242,0,242,1.361,0.000,0.000,1.000,1.000
95595,-1.052,0.612,0.266,0.052,-0.018,0.156,0.044,-0.031,0.125,0.000,0.000,0.474,0.000,0.000,0.490,0.044,-0.031,0.124,0,0,242,0,242,1.362,0.000,0.000,1.000,1.000
95606,-1.109,0.580,0.221,0.056,-0.020,0.153,0.045,-0.031,0.127,0.000,0.000,0.490,0.000,0.000,0.506,0.044,-0.031,0.125,0,0,242,0,242,1.363,0.000,0.000,1.000,1.000
95617,-1.052,0.626,0.298,0.055,-0.020,0.154,0.045,-0.031,0.128,0.000,0.000,0.490,0.000,0.000,0.506,0.045,-0.031,0.127,0,0,242,0,242,1.364,0.000,0.000,1.000,1.000
95628,-1.145,0.553,0.241,0.057,-0.017,0.154,0.046,-0.032,0.130,0.000,0.000,0.490,0.000,0.000,0.506,0.045,-0.031,0.128,0,0,242,0,242,1.366,0.000,0.000,1.000,1.000
95639,-1.086,0.586,0.245,0.054,-0.016,0.154,0.046,-0.032,0.131,0.000,0.000,0.506,0.000,0.000,0.506,0.046,-0.032,0.130,0,0,242,0,242,1.367,0.000,0.000,1.000,1.000
95650,-1.092,0.608,0.302,0.054,-0.022,0.151,0.047,-0.032,0.133,0.000,0.000,0.506,0.000,0.000,0.523,0.046,-0.032,0.131,0,0,242,0,242,1.368,1.000,0.000,1.000,0.000
95661,-1.137,0.527,0.199,0.054,-0.017,0.155,0.047,-0.032,0.134,0.000,0.000,0.506,0.000,0.000,0.506,0.047,-0.032,0.133,0,0,242,0,242,1.369,1.000,0.000,1.000,0.000
95672,-1.086,0.595,0.250,0.052,-0.021,0.151,0.048,-0.032,0.136,0.000,0.000,0.506,0.000,0.000,0.523,0.047,-0.032,0.134,0,0,242,0,242,1.370,1.000,0.000,1.000,0.000
95683,-1.134,0.598,0.247,0.055,-0.022,0.149,0.048,-0.033,0.137,0.000,0.000,0.523,0.000,0.000,0.523,0.048,-0.032,0.136,0,0,242,0,242,1.371,1.000,0.000,1.000,0.000
95694,-1.118,0.556,0.249,0.054,-0.018,0.151,0.049,-0.033,0.139,0.000,0.000,0.539,0.000,0.000,0.523,0.048,-0.033,0.137,0,0,242,0,242,1.372,1.000,0.000,1.000,0.000
95705,-1.150,0.556,0.203,0.056,-0.020,0.149,0.050,-0.033,0.140,0.000,0.000,0.523,0.000,0.000,0.539,0.049,-0.033,0.139,0,0,242,0,242,1.373,1.000,0.000,1.000,0.000
95716,-1.106,0.590,0.199,0.052,-0.018,0.153,0.050,-0.033,0.142,0.000,0.000,0.523,0.000,0.000,0.523,0.050,-0.033,0.140,0,0,242,0,242,1.374,1.000,0.000,1.000,0.000
95727,-1.094,0.592,0.235,0.052,-0.022,0.149,0.051,-0.033,0.143,0.000,0.000,0.539,0.000,0.000,0.523,0.050,-0.033,0.142,0,0,242,0,242,1.375,1.000,0.000,1.000,0.000
95738,-1.159,0.503,0.145,0.054,-0.018,0.153,0.051,-0.034,0.145,0.000,0.000,0.523,0.000,0.000,0.523,0.051,-0.033,0.143,0,0,242,0,242,1.376,1.000,0.000,1.000,0.000
95749,-1.096,0.600,0.159,0.051,-0.020,0.151,0.052,-0.034,0.146,0.000,0.000,0.555,0.000,0.000,0.539,0.051,-0.034,0.145,0,0,242,0,242,1.377,1.000,0.000,1.000,0.000
95760,-1.163,0.527,0.208,0.051,-0.022,0.147,0.052,-0.034,0.148,0.000,0.000,0.523,0.000,0.000,0.539,0.052,-0.034,0.146,0,0,242,0,242,1.378,1.000,0.000,1.000,0.000
95771,-1.211,0.516,0.035,0.047,-0.023,0.143,0.053,-0.034,0.149,0.000,0.000,0.539,0.000,0.000,0.539,0.052,-0.034,0.148,0,0,242,0,242,1.379,1.000,0.000,1.000,0.000
95782,-1.057,0.575,0.102,0.045,-0.022,0.142,0.053,-0.034,0.151,0.000,0.000,0.539,0.000,0.000,0.555,0.053,-0.034,0.149,0,0,242,0,242,1.380,1.000,0.000,1.000,0.000
95793,-1.266,0.533,0.035,0.044,-0.028,0.136,0.054,-0.035,0.152,0.000,0.000,0.539,0.000,0.000,0.555,0.053,-0.034,0.151,0,0,242,0,242,1.381,1.000,0.000,1.000,0.000
95804,-1.060,0.520,0.170,0.045,-0.026,0.131,0.054,-0.035,0.153,0.000,0.000,0.539,0.000,0.000,0.539,0.054,-0.035,0.152,0,0,242,0,242,1.382,1.000,0.000,1.000,0.000
95815,-1.086,0.523,0.242,0.049,-0.023,0.133,0.054,-0.035,0.155,0.000,0.000,0.555,0.000,0.000,0.571,0.054,-0.035,0.153,0,0,242,0,242,1.383,1.000,0.000,1.000,0.000
95826,-1.200,0.520,0.360,0.047,-0.029,0.136,0.055,-0.035,0.156,0.000,0.000,0.571,0.000,0.000,0.555,0.054,-0.035,0.155,0,0,242,0,242,1.384,1.000,0.000,1.000,0.000
95837,-1.151,0.505,0.212,0.047,-0.029,0.125,0.055,-0.036,0.157,0.005,-0.044,0.555,0.000,0.000,0.571,0.055,-0.035,0.156,0,0,242,0,242,1.385,1.000,0.000,1.000,0.000
95848,-1.049,0.583,0.109,0.047,-0.018,0.133,0.056,-0.036,0.159,0.005,-0.044,0.571,-0.001,-0.000,0.571,0.055,-0.036,0.157,0,0,242,0,242,1.386,1.000,0.000,1.000,0.000
95859,-1.139,0.551,0.315,0.049,-0.024,0.138,0.056,-0.036,0.160,0.005,-0.044,0.571,-0.002,-0.000,0.555,0.056,-0.036,0.159,0,0,242,0,242,1.387,1.000,0.000,1.000,0.000
95870,-1.182,0.502,0.168,0.050,-0.021,0.136,0.057,-0.036,0.161,0.005,-0.044,0.571,-0.003,-0.000,0.571,0.056,-0.036,0.160,0,0,242,0,242,1.388,1.000,0.000,1.000,0.000
95881,-1.116,0.596,0.223,0.050,-0.013,0.145,0.057,-0.037,0.163,0.005,-0.044,0.571,-0.004,-0.001,0.571,0.057,-0.036,0.161,0,0,242,0,242,1.389,1.000,0.000,1.000,0.000
95892,-1.175,0.460,0.145,0.052,-0.005,0.151,0.058,-0.037,0.164,0.005,-0.044,0.571,-0.005,-0.001,0.587,0.057,-0.037,0.163,0,0,242,0,242,1.390,1.000,0.000,1.000,0.000
95903,-1.102,0.545,0.237,0.050,-0.002,0.149,0.058,-0.037,0.166,0.005,-0.044,0.603,-0.006,-0.001,0.587,0.058,-0.037,0.164,0,0,242,0,242,1.391,1.000,0.000,1.000,0.000
95914,-1.132,0.558,0.242,0.051,-0.002,0.150,0.059,-0.037,0.167,0.005,-0.044,0.571,-0.007,-0.001,0.603,0.058,-0.037,0.166,0,0,242,0,242,1.392,1.000,0.000,1.000,0.000
95925,-1.147,0.416,0.226,0.051,0.000,0.153,0.059,-0.037,0.169,0.005,-0.044,0.603,-0.008,-0.001,0.587,0.059,-0.037,0.167,0,0,242,0,242,1.393,1.000,0.000,1.000,0.000
95936,-1.156,0.535,0.225,0.049,-0.004,0.145,0.060,-0.037,0.170,0.005,-0.044,0.587,-0.009,-0.002,0.603,0.059,-0.037,0.169,0,0,242,0,242,1.394,1.000,0.000,1.000,0.000
95947,-1.189,0.473,0.229,0.049,-0.001,0.142,0.060,-0.037,0.172,0.005,-0.044,0.587,-0.010,-0.002,0.587,0.060,-0.037,0.170,0,0,242,0,242,1.395,1.000,0.000,1.000,0.000
95958,-1.101,0.453,0.221,0.049,-0.004,0.142,0.061,-0.037,0.173,0.005,-0.044,0.587,-0.011,-0.002,0.587,0.060,-0.037,0.172,0,0,242,0,242,1.396,1.000,0.000,1.000,0.000
95969,-1.157,0.437,0.180,0.049,-0.002,0.140,0.061,-0.037,0.175,0.005,-0.044,0.603,-0.012,-0.002,0.603,0.061,-0.037,0.173,0,0,242,0,242,1.397,1.000,0.000,1.000,0.000
95980,-1.089,0.537,0.195,0.045,0.000,0.140,0.062,-0.037,0.176,0.005,-0.044,0.603,-0.013,-0.002,0.603,0.061,-0.037,0.175,0,0,242,0,242,1.398,1.000,0.000,1.000,0.000
95991,-1.122,0.515,0.261,0.045,0.001,0.142,0.062,-0.037,0.177,0.005,-0.044,0.619,-0.014,-0.002,0.603,0.062,-0.037,0.176,0,0,242,0,242,1.399,1.000,0.000,1.000,0.000
96002,-1.120,0.419,0.136,0.044,0.005,0.147,0.063,-0.037,0.179,0.005,-0.044,0.619,-0.015,-0.003,0.619,0.062,-0.037,0.177,0,0,242,0,242,1.400,1.000,0.000,1.000,0.000
96013,-1.098,0.541,0.217,0.044,0.007,0.144,0.063,-0.037,0.180,0.005,-0.044,0.603,-0.016,-0.003,0.619,0.063,-0.037,0.179,0,0,242,0,242,1.401,1.000,0.000,1.000,0.000
96024,-1.145,0.473,0.229,0.045,0.005,0.144,0.064,-0.037,0.182,0.005,-0.044,0.603,-0.017,-0.003,0.619,0.063,-0.037,0.180,0,0,242,0,242,1.402,1.000,0.000,1.000,0.000
96035,-1.127,0.460,0.168,0.043,0.007,0.147,0.064,-0.037,0.183,0.005,-0.044,0.635,-0.018,-0.003,0.635,0.064,-0.037,0.182,0,0,242,0,242,1.403,1.000,0.000,1.000,0.000
96046,-1.112,0.509,0.262,0.041,0.004,0.139,0.064,-0.037,0.185,0.005,-0.044,0.619,-0.019,-0.003,0.652,0.064,-0.037,0.183,0,0,242,0,242,1.404,1.000,0.000,1.000,0.000
96057,-1.108,0.496,0.166,0.038,0.002,0.137,0.065,-0.037,0.186,0.005,-0.044,0.619,-0.020,-0.003,0.619,0.064,-0.037,0.185,0,0,242,0,242,1.405,1.000,0.000,1.000,0.000
96068,-1.114,0.490,0.244,0.036,0.000,0.134,0.065,-0.037,0.187,0.005,-0.044,0.635,-0.021,-0.004,0.635,0.065,-0.037,0.186,0,0,242,0,242,1.406,1.000,0.000,1.000,0.000
96079,-1.109,0.419,0.144,0.038,0.004,0.136,0.066,-0.037,0.189,0.005,-0.044,0.652,-0.022,-0.004,0.635,0.065,-0.037,0.187,0,0,242,0,242,1.407,1.000,0.000,1.000,0.000
96090,-1.086,0.521,0.170,0.035,0.005,0.134,0.066,-0.037,0.190,0.005,-0.044,0.652,-0.023,-0.004,0.652,0.066,-0.037,0.189,0,0,242,0,242,1.408,1.000,0.000,1.000,0.000
96101,-1.118,0.448,0.187,0.035,0.006,0.134,0.066,-0.037,0.191,0.005,-0.044,0.652,-0.024,-0.004,0.652,0.066,-0.037,0.190,0,0,242,0,242,1.409,1.000,0.000,1.000,0.000
96112,-1.109,0.434,0.087,0.034,0.011,0.139,0.067,-0.036,0.193,0.005,-0.044,0.635,-0.025,-0.004,0.635,0.066,-0.037,0.191,0,0,242,0,242,1.410,1.000,0.000,1.000,0.000
96123,-1.089,0.497,0.172,0.034,0.011,0.137,0.067,-0.036,0.194,0.005,-0.044,0.652,-0.026,-0.005,0.652,0.067,-0.036,0.193,0,0,242,0,242,1.411,1.000,0.000,1.000,0.000
96134,-1.126,0.411,0.128,0.034,0.013,0.138,0.067,-0.036,0.195,0.005,-0.044,0.652,-0.027,-0.005,0.668,0.067,-0.036,0.194,0,0,242,0,242,1.412,1.000,0.000,1.000,0.000
96145,-1.102,0.461,0.208,0.029,0.017,0.137,0.068,-0.036,0.197,0.005,-0.044,0.652,-0.028,-0.005,0.652,0.067,-0.036,0.195,0,0,242,0,242,1.413,1.000,0.000,1.000,0.000
96156,-1.112,0.377,0.101,0.030,0.021,0.136,0.068,-0.036,0.198,0.005,-0.044,0.668,-0.029,-0.005,0.652,0.068,-0.036,0.197,0,0,242,0,242,1.414,1.000,0.000,1.000,0.000
96167,-1.112,0.505,0.099,0.028,0.016,0.134,0.068,-0.036,0.200,0.005,-0.044,0.668,-0.030,-0.005,0.668,0.068,-0.036,0.198,0,0,242,0,242,1.415,1.000,0.000,1.000,0.000
96178,-1.118,0.430,0.165,0.027,0.011,0.132,0.068,-0.036,0.201,0.005,-0.044,0.635,-0.030,-0.005,0.668,0.068,-0.036,0.200,0,0,242,0,242,1.416,1.000,0.000,1.000,0.000
96189,-1.096,0.419,0.050,0.025,0.010,0.134,0.069,-0.036,0.202,0.005,-0.044,0.668,-0.032,-0.006,0.684,0.068,-0.036,0.201,0,0,242,0,242,1.417,1.000,0.000,1.000,0.000
96200,-1.055,0.511,0.150,0.024,0.009,0.132,0.069,-0.036,0.203,0.005,-0.044,0.684,-0.033,-0.006,0.700,0.069,-0.036,0.202,0,0,242,0,242,1.418,1.000,0.000,1.000,0.000
96211,-1.079,0.435,0.128,0.023,0.007,0.133,0.069,-0.036,0.205,0.005,-0.044,0.668,-0.033,-0.006,0.684,0.069,-0.036,0.203,0,0,242,0,242,1.419,1.000,0.000,1.000,0.000
96222,-1.077,0.467,0.093,0.023,0.010,0.136,0.069,-0.036,0.206,0.005,-0.044,0.700,-0.034,-0.006,0.668,0.069,-0.036,0.205,0,0,242,0,242,1.420,1.000,0.000,1.000,0.000
96233,-1.064,0.425,0.144,0.024,0.007,0.138,0.070,-0.036,0.208,0.005,-0.044,0.684,-0.035,-0.007,0.716,0.069,-0.036,0.206,0,0,242,0,242,1.421,1.000,0.000,1.000,0.000
96244,-1.073,0.502,0.162,0.023,0.007,0.138,0.070,-0.036,0.209,0.005,-0.044,0.700,-0.036,-0.007,0.684,0.070,-0.036,0.208,0,0,242,0,242,1.422,1.000,0.000,1.000,0.000
96255,-1.074,0.446,0.229,0.023,0.002,0.136,0.070,-0.036,0.210,0.005,-0.044,0.700,-0.037,-0.007,0.700,0.070,-0.036,0.209,0,0,242,0,242,1.423,1.000,0.000,1.000,0.000
96266,-1.098,0.404,0.129,0.023,0.002,0.137,0.070,-0.036,0.212,0.005,-0.044,0.700,-0.038,-0.007,0.700,0.070,-0.036,0.210,0,0,242,0,242,1.424,1.000,0.000,1.000,0.000
96277,-1.058,0.497,0.183,0.021,0.001,0.134,0.070,-0.036,0.213,0.005,-0.044,0.700,-0.039,-0.007,0.684,0.070,-0.036,0.212,0,0,242,0,242,1.425,1.000,0.000,1.000,0.000
96288,-1.097,0.418,0.206,0.022,-0.001,0.132,0.071,-0.036,0.214,0.005,-0.044,0.716,-0.040,-0.008,0.700,0.070,-0.036,0.213,0,0,242,0,242,1.426,1.000,0.000,1.000,0.000
96299,-1.084,0.424,0.129,0.022,-0.001,0.132,0.071,-0.036,0.216,0.005,-0.044,0.716,-0.041,-0.008,0.732,0.071,-0.036,0.214,0,0,242,0,242,1.426,1.000,0.000,1.000,0.000
96310,-1.042,0.501,0.235,0.023,-0.001,0.131,0.071,-0.036,0.217,0.005,-0.044,0.732,-0.042,-0.008,0.716,0.071,-0.036,0.216,0,0,242,0,242,1.427,1.000,0.000,1.000,0.000
96321,-1.080,0.477,0.150,0.023,-0.001,0.134,0.071,-0.036,0.218,0.005,-0.044,0.700,-0.042,-0.008,0.700,0.071,-0.036,0.217,0,0,242,0,242,1.428,1.000,0.000,1.000,0.000
96332,-1.040,0.489,0.250,0.023,-0.004,0.132,0.072,-0.036,0.220,0.005,-0.044,0.716,-0.044,-0.008,0.732,0.071,-0.036,0.218,0,0,242,0,242,1.429,1.000,0.000,1.000,0.000
96343,-1.055,0.400,0.170,0.024,-0.004,0.133,0.072,-0.036,0.221,0.005,-0.044,0.716,-0.045,-0.008,0.716,0.072,-0.036,0.220,0,0,242,0,242,1.430,1.000,0.000,1.000,0.000
96354,-1.051,0.505,0.212,0.024,-0.004,0.134,0.072,-0.036,0.222,0.005,-0.044,0.732,-0.045,-0.009,0.716,0.072,-0.036,0.221,0,0,242,0,242,1.431,1.000,0.000,1.000,0.000
96365,-1.051,0.461,0.232,0.027,-0.007,0.133,0.072,-0.036,0.224,0.005,-0.044,0.716,-0.046,-0.009,0.732,0.072,-0.036,0.222,0,0,242,0,242,1.432,1.000,0.000,1.000,0.000
96376,-1.062,0.407,0.168,0.025,-0.009,0.133,0.073,-0.036,0.225,0.005,-0.044,0.732,-0.047,-0.009,0.732,0.072,-0.036,0.224,0,0,242,0,242,1.433,1.000,0.000,1.000,0.000
96387,-1.061,0.504,0.232,0.025,-0.010,0.131,0.073,-0.036,0.226,0.005,-0.044,0.732,-0.048,-0.009,0.732,0.073,-0.036,0.225,0,0,242,0,242,1.434,1.000,0.000,1.000,0.000
96398,-1.045,0.419,0.231,0.025,-0.015,0.130,0.073,-0.036,0.228,0.005,-0.044,0.748,-0.049,-0.010,0.748,0.073,-0.036,0.226,0,0,242,0,242,1.435,1.000,0.000,1.000,0.000
96409,-1.037,0.502,0.215,0.024,-0.016,0.128,0.073,-0.036,0.229,0.005,-0.044,0.748,-0.050,-0.010,0.748,0.073,-0.036,0.228,0,0,242,0,242,1.436,1.000,0.000,1.000,0.000
96420,-1.054,0.385,0.203,0.025,-0.018,0.130,0.074,-0.036,0.230,0.005,-0.044,0.732,-0.051,-0.010,0.748,0.073,-0.036,0.229,0,0,242,0,242,1.437,1.000,0.000,1.000,0.000
96431,-1.080,0.480,0.162,0.024,-0.016,0.131,0.074,-0.036,0.231,0.005,-0.044,0.765,-0.052,-0.010,0.748,0.074,-0.036,0.230,0,0,242,0,242,1.438,1.000,0.000,1.000,0.000
96442,-1.017,0.477,0.215,0.027,-0.018,0.131,0.074,-0.036,0.233,0.005,-0.044,0.748,-0.053,-0.010,0.748,0.074,-0.036,0.231,0,0,242,0,242,1.439,1.000,0.000,1.000,0.000
96453,-1.092,0.387,0.123,0.028,-0.020,0.133,0.074,-0.037,0.234,0.005,-0.044,0.765,-0.054,-0.011,0.765,0.074,-0.036,0.233,0,0,238,0,238,1.439,1.000,0.000,1.000,0.000
96464,-1.070,0.466,0.226,0.028,-0.017,0.133,0.075,-0.037,0.235,0.005,-0.044,0.765,-0.055,-0.011,0.781,0.074,-0.037,0.234,0,0,224,0,224,1.440,1.000,0.000,1.000,0.000
96475,-1.077,0.446,0.172,0.028,-0.022,0.127,0.075,-0.037,0.237,0.005,-0.044,0.781,-0.056,-0.011,0.765,0.075,-0.037,0.235,0,0,238,0,238,1.441,1.000,0.000,1.000,0.000
96486,-1.066,0.417,0.145,0.025,-0.017,0.131,0.075,-0.037,0.238,0.005,-0.044,0.765,-0.057,-0.011,0.765,0.075,-0.037,0.237,0,0,238,0,238,1.442,1.000,0.000,1.000,0.000
96497,-1.098,0.385,0.171,0.032,-0.020,0.127,0.076,-0.037,0.239,0.005,-0.044,0.781,-0.058,-0.012,0.781,0.075,-0.037,0.238,0,0,224,0,224,1.443,1.000,0.000,1.000,0.000
96508,-1.052,0.456,0.117,0.028,-0.016,0.128,0.076,-0.037,0.241,0.005,-0.044,0.797,-0.059,-0.012,0.781,0.076,-0.037,0.239,0,0,224,0,224,1.444,1.000,0.000,1.000,0.000
96519,-1.012,0.492,0.131,0.029,-0.016,0.125,0.076,-0.038,0.242,0.005,-0.044,0.781,-0.060,-0.012,0.781,0.076,-0.037,0.241,0,0,224,0,224,1.445,1.000,0.000,1.000,0.000
96530,-1.104,0.375,0.080,0.028,-0.016,0.131,0.076,-0.038,0.243,0.005,-0.044,0.797,-0.061,-0.012,0.781,0.076,-0.038,0.242,0,0,224,0,224,1.446,1.000,0.000,1.000,0.000
96541,-1.027,0.462,0.104,0.028,-0.013,0.128,0.077,-0.038,0.244,0.005,-0.044,0.797,-0.062,-0.013,0.765,0.076,-0.038,0.243,0,0,238,0,238,1.447,1.000,0.000,1.000,0.000
96552,-1.078,0.428,0.117,0.029,-0.013,0.126,0.077,-0.038,0.246,0.005,-0.044,0.781,-0.063,-0.013,0.797,0.077,-0.038,0.244,0,0,210,0,210,1.448,1.000,0.000,1.000,0.000
96563,-1.017,0.426,0.062,0.025,0.001,0.127,0.077,-0.038,0.247,0.005,-0.044,0.797,-0.064,-0.013,0.781,0.077,-0.038,0.246,0,0,224,0,224,1.449,1.000,0.000,1.000,0.000
96574,-1.096,0.442,0.163,0.028,0.000,0.126,0.077,-0.038,0.248,0.005,-0.044,0.797,-0.065,-0.013,0.765,0.077,-0.038,0.247,0,0,238,0,238,1.449,1.000,0.000,1.000,0.000
96585,-1.076,0.434,0.101,0.024,-0.011,0.126,0.078,-0.038,0.249,0.005,-0.044,0.797,-0.066,-0.014,0.781,0.077,-0.038,0.248,0,0,224,0,224,1.450,1.000,0.000,1.000,0.000
96596,-1.112,0.399,0.098,0.022,-0.017,0.122,0.078,-0.038,0.251,0.005,-0.044,0.813,-0.067,-0.014,0.813,0.078,-0.038,0.249,0,0,197,0,197,1.451,1.000,0.000,1.000,0.000
96607,-1.023,0.408,0.090,0.019,-0.016,0.121,0.078,-0.038,0.252,0.005,-0.044,0.829,-0.068,-0.014,0.813,0.078,-0.038,0.251,0,0,197,0,197,1.452,1.000,0.000,1.000,0.000
96618,-1.156,0.440,0.119,0.019,-0.018,0.120,0.078,-0.039,0.253,0.005,-0.044,0.829,-0.069,-0.014,0.797,0.078,-0.038,0.252,0,0,210,0,210,1.453,1.000,0.000,1.000,0.000
96629,-0.990,0.373,-0.026,0.017,-0.021,0.117,0.079,-0.039,0.254,0.005,-0.044,0.829,-0.069,-0.015,0.813,0.078,-0.039,0.253,0,0,197,0,197,1.454,1.000,0.000,1.000,0.000
96640,-1.200,0.456,0.083,0.018,-0.017,0.116,0.079,-0.039,0.255,0.005,-0.044,0.829,-0.070,-0.015,0.829,0.079,-0.039,0.254,0,0,182,0,182,1.455,1.000,0.000,1.000,0.000
96651,-0.970,0.401,0.020,0.014,-0.018,0.112,0.079,-0.039,0.257,0.005,-0.044,0.829,-0.071,-0.015,0.845,0.079,-0.039,0.255,0,0,168,0,168,1.455,1.000,0.000,1.000,0.000
96662,-1.151,0.449,0.096,0.016,-0.015,0.115,0.079,-0.039,0.258,0.005,-0.044,0.829,-0.072,-0.015,0.813,0.079,-0.039,0.257,0,0,197,0,197,1.456,1.000,0.000,1.000,0.000
96673,-1.009,0.393,-0.024,0.011,-0.017,0.111,0.079,-0.040,0.259,0.005,-0.044,0.813,-0.073,-0.016,0.845,0.079,-0.039,0.258,0,0,168,0,168,1.457,1.000,0.000,1.000,0.000
96684,-1.009,0.379,0.038,0.008,-0.013,0.109,0.079,-0.040,0.260,0.005,-0.044,0.829,-0.074,-0.016,0.829,0.079,-0.040,0.259,0,0,182,0,182,1.458,1.000,0.000,1.000,0.000
96695,-1.175,0.462,-0.031,0.012,-0.009,0.111,0.079,-0.040,0.261,0.005,-0.044,0.861,-0.075,-0.016,0.829,0.079,-0.040,0.260,0,0,182,0,182,1.459,1.000,0.000,1.000,0.000
96706,-0.991,0.400,0.114,0.005,-0.015,0.105,0.079,-0.040,0.262,0.005,-0.044,0.845,-0.076,-0.016,0.829,0.079,-0.040,0.261,0,0,182,0,182,1.459,1.000,0.000,1.000,0.000
96717,-1.167,0.446,-0.047,0.008,-0.009,0.108,0.079,-0.040,0.263,0.005,-0.044,0.845,-0.077,-0.017,0.845,0.079,-0.040,0.262,0,0,168,0,168,1.460,1.000,0.000,1.000,0.000
96728,-1.006,0.391,0.067,0.002,-0.015,0.103,0.079,-0.040,0.264,0.005,-0.044,0.845,-0.078,-0.017,0.877,0.079,-0.040,0.263,0,0,140,0,140,1.461,1.000,0.000,1.000,0.000
96739,-1.198,0.460,-0.021,0.006,-0.010,0.104,0.079,-0.040,0.265,0.005,-0.044,0.861,-0.079,-0.017,0.845,0.079,-0.040,0.264,0,0,168,0,168,1.462,1.000,0.000,1.000,0.000
96750,-0.980,0.375,0.069,0.001,-0.011,0.100,0.079,-0.040,0.266,0.005,-0.044,0.861,-0.080,-0.017,0.845,0.079,-0.040,0.265,0,0,168,0,168,1.462,1.000,0.000,1.000,0.000
96761,-1.150,0.454,-0.009,0.001,-0.007,0.104,0.079,-0.040,0.267,0.005,-0.044,0.877,-0.081,-0.018,0.861,0.079,-0.040,0.266,0,0,154,0,154,1.463,1.000,0.000,1.000,0.000
96772,-1.128,0.452,-0.012,-0.001,-0.005,0.103,0.079,-0.040,0.268,0.005,-0.044,0.877,-0.082,-0.018,0.877,0.079,-0.040,0.267,0,0,140,0,140,1.464,1.000,0.000,1.000,0.000
96783,-1.037,0.368,0.058,-0.000,-0.002,0.099,0.079,-0.040,0.269,0.005,-0.044,0.829,-0.083,-0.018,0.974,0.079,-0.040,0.268,216,216,57,216,56,1.465,1.000,0.000,1.000,0.000
96794,-1.089,0.504,-0.027,-0.006,-0.002,0.097,0.079,-0.040,0.270,0.005,-0.044,0.861,-0.084,-0.018,0.861,0.079,-0.040,0.269,0,0,154,0,154,1.465,1.000,0.000,1.000,0.000
96805,-1.068,0.478,-0.047,-0.001,0.005,0.101,0.079,-0.040,0.271,1.064,-0.077,0.894,-0.085,-0.019,0.894,0.079,-0.040,0.270,0,0,126,0,126,1.466,1.000,0.000,1.000,0.000
96816,-1.110,0.380,-0.029,-0.005,0.001,0.097,0.079,-0.040,0.272,1.064,-0.077,0.877,-0.087,-0.019,0.894,0.079,-0.040,0.271,0,0,126,0,126,1.467,1.000,0.000,1.000,0.000
96827,-1.090,0.361,0.020,-0.006,0.004,0.099,0.079,-0.040,0.273,1.064,-0.077,0.894,-0.088,-0.019,0.877,0.079,-0.040,0.272,0,0,140,0,140,1.467,1.000,0.000,1.000,0.000
96838,-1.023,0.520,0.066,-0.009,0.006,0.089,0.079,-0.040,0.274,1.064,-0.077,0.894,-0.089,-0.020,0.910,0.079,-0.040,0.273,216,216,113,216,112,1.468,1.000,0.000,1.000,0.000
96849,-1.065,0.377,-0.054,-0.011,0.002,0.100,0.079,-0.040,0.275,1.064,-0.077,0.877,-0.090,-0.020,0.877,0.079,-0.040,0.274,0,0,140,0,140,1.469,1.000,0.000,1.000,0.000
96860,-0.954,0.697,0.052,-0.015,0.013,0.093,0.079,-0.040,0.276,1.064,-0.077,0.894,-0.091,-0.020,0.877,0.079,-0.040,0.275,0,0,140,0,140,1.469,1.000,0.000,1.000,0.000
96871,-1.230,0.213,0.019,-0.005,0.007,0.100,0.079,-0.040,0.277,1.064,-0.077,0.894,-0.093,-0.021,0.910,0.079,-0.040,0.276,217,217,113,217,112,1.470,1.000,0.000,1.000,0.000
96882,-1.049,0.399,-0.161,-0.016,0.006,0.084,0.079,-0.040,0.278,1.064,-0.077,0.877,-0.095,-0.021,0.910,0.079,-0.040,0.277,217,217,113,217,112,1.471,1.000,0.000,1.000,0.000
96893,-0.975,0.685,0.079,-0.011,0.021,0.089,0.079,-0.040,0.279,1.064,-0.077,0.894,-0.096,-0.022,0.910,0.079,-0.040,0.278,218,218,113,218,112,1.471,1.000,0.000,1.000,0.000
96904,-1.132,0.691,-0.115,-0.006,0.011,0.089,0.079,-0.040,0.280,1.064,-0.077,0.894,-0.098,-0.022,0.926,0.079,-0.040,0.279,218,218,99,218,98,1.472,1.000,0.000,1.000,0.000
96915,-1.033,1.063,-0.008,-0.004,0.029,0.083,0.079,-0.039,0.280,1.064,-0.077,0.894,-0.100,-0.023,0.910,0.079,-0.040,0.280,218,218,113,218,112,1.473,1.000,0.000,1.000,0.000
96926,-0.940,0.684,0.020,0.005,0.020,0.097,0.079,-0.039,0.281,1.064,-0.077,0.910,-0.101,-0.023,0.910,0.079,-0.039,0.280,218,218,113,218,112,1.473,1.000,0.000,1.000,0.000
96937,-1.018,1.058,-0.096,0.012,0.034,0.093,0.079,-0.039,0.282,1.064,-0.077,0.958,-0.103,-0.024,0.926,0.079,-0.039,0.281,219,219,99,219,98,1.474,1.000,0.000,1.000,0.000
96948,-1.077,0.815,0.047,0.041,0.029,0.103,0.079,-0.039,0.283,1.064,-0.077,0.910,-0.105,-0.024,0.926,0.079,-0.039,0.282,219,219,99,219,98,1.475,1.000,0.000,1.000,0.000
96959,-0.972,1.315,-0.121,0.055,0.043,0.088,0.080,-0.038,0.284,1.064,-0.077,0.926,-0.106,-0.025,0.926,0.079,-0.039,0.283,219,219,99,219,98,1.475,1.000,0.000,1.000,0.000
96970,-0.945,1.424,0.225,0.072,0.049,0.101,0.080,-0.038,0.285,1.064,-0.077,0.942,-0.108,-0.025,0.942,0.080,-0.038,0.284,220,220,85,220,84,1.476,1.000,0.000,1.000,0.000
96981,-0.981,1.088,-0.072,0.094,0.037,0.100,0.081,-0.037,0.286,1.064,-0.077,0.926,-0.110,-0.026,0.910,0.080,-0.038,0.285,220,220,113,220,112,1.477,1.000,0.000,1.000,0.000
96992,-1.104,1.344,0.177,0.115,0.076,0.101,0.083,-0.036,0.287,1.064,-0.077,0.926,-0.111,-0.026,0.910,0.081,-0.037,0.286,220,220,113,220,112,1.477,1.000,0.000,1.000,0.000
97003,-0.938,1.195,0.096,0.117,0.039,0.083,0.084,-0.036,0.288,1.064,-0.077,0.926,-0.113,-0.027,0.926,0.083,-0.036,0.287,220,220,99,220,98,1.478,1.000,0.000,1.000,0.000
97036,-0.912,1.089,-0.117,0.163,0.046,0.095,0.088,-0.035,0.291,1.064,-0.077,0.958,-0.117,-0.028,0.942,0.086,-0.035,0.290,221,221,85,221,84,1.480,1.000,0.000,1.000,0.000
97047,-0.897,1.268,0.011,0.172,0.059,0.098,0.090,-0.034,0.292,1.064,-0.077,0.942,-0.119,-0.029,0.958,0.088,-0.035,0.291,222,222,71,222,70,1.481,1.000,0.000,1.000,0.000
97058,-0.877,1.202,-0.131,0.185,0.040,0.105,0.092,-0.034,0.293,1.064,-0.077,0.958,-0.121,-0.029,0.942,0.090,-0.034,0.292,222,222,85,222,84,1.481,1.000,0.000,1.000,0.000
97069,-1.132,1.108,-0.131,0.193,0.050,0.115,0.094,-0.033,0.294,1.064,-0.077,0.958,-0.122,-0.029,0.974,0.092,-0.034,0.293,222,222,57,222,55,1.482,1.000,0.000,1.000,0.000
97080,-0.761,1.202,-0.157,0.207,0.049,0.108,0.096,-0.033,0.295,1.064,-0.077,0.958,-0.124,-0.030,0.958,0.094,-0.033,0.294,222,222,71,222,69,1.483,1.000,0.000,1.000,0.000
97091,-0.998,1.193,-0.090,0.221,0.055,0.119,0.098,-0.032,0.296,1.064,-0.077,0.942,-0.126,-0.031,0.958,0.096,-0.033,0.295,223,223,71,223,69,1.484,1.000,0.000,1.000,0.000
97102,-0.895,1.294,-0.131,0.236,0.059,0.125,0.100,-0.032,0.298,1.064,-0.077,0.942,-0.127,-0.031,0.958,0.098,-0.032,0.296,223,223,71,223,69,1.484,1.000,0.000,1.000,0.000
97113,-0.854,0.875,-0.116,0.250,0.055,0.131,0.103,-0.031,0.299,1.064,-0.077,0.958,-0.129,-0.032,0.958,0.100,-0.032,0.298,223,223,71,223,69,1.485,1.000,0.000,1.000,0.000
97124,-0.841,0.722,0.048,0.270,0.064,0.138,0.105,-0.030,0.300,1.064,-0.077,0.942,-0.131,-0.032,0.974,0.103,-0.031,0.299,223,223,57,223,55,1.486,1.000,0.000,1.000,0.000
97135,-0.919,0.860,0.103,0.273,0.061,0.127,0.108,-0.030,0.302,1.064,-0.077,0.974,-0.132,-0.032,0.942,0.105,-0.030,0.300,223,223,86,223,84,1.487,1.000,0.000,1.000,0.000
97146,-1.006,0.533,-0.072,0.277,0.049,0.127,0.111,-0.029,0.303,1.064,-0.077,0.958,-0.134,-0.033,0.958,0.108,-0.030,0.302,223,223,72,223,69,1.488,1.000,0.000,1.000,0.000
97157,-1.128,0.617,-0.084,0.271,0.055,0.119,0.114,-0.029,0.304,1.064,-0.077,0.958,-0.135,-0.034,0.974,0.111,-0.029,0.303,223,223,57,223,55,1.489,1.000,0.000,1.000,0.000
97168,-0.897,0.493,-0.121,0.271,0.054,0.109,0.116,-0.028,0.305,1.064,-0.077,0.974,-0.137,-0.034,0.990,0.114,-0.029,0.304,223,223,43,223,41,1.490,1.000,0.000,1.000,0.000
97179,-1.052,0.330,-0.031,0.261,0.068,0.115,0.119,-0.028,0.306,1.064,-0.077,1.006,-0.138,-0.035,0.974,0.116,-0.028,0.305,224,224,57,224,55,1.491,1.000,0.000,1.000,0.000
97190,-0.949,0.527,-0.177,0.265,0.077,0.106,0.122,-0.027,0.307,1.064,-0.077,0.974,-0.140,-0.035,0.974,0.119,-0.028,0.306,224,224,57,224,55,1.491,1.000,0.000,1.000,0.000
97201,-0.864,0.175,-0.068,0.251,0.077,0.111,0.124,-0.026,0.308,1.064,-0.077,0.990,-0.142,-0.036,0.974,0.122,-0.027,0.307,224,224,58,224,55,1.492,1.000,0.000,1.000,0.000
97212,-0.787,0.184,-0.124,0.239,0.084,0.114,0.127,-0.025,0.310,1.064,-0.077,0.990,-0.143,-0.036,0.974,0.124,-0.026,0.308,225,225,58,225,55,1.493,1.000,0.000,1.000,0.000
97223,-1.018,0.405,-0.079,0.232,0.100,0.116,0.129,-0.024,0.311,1.064,-0.077,0.958,-0.145,-0.037,0.974,0.127,-0.025,0.310,225,225,58,225,55,1.494,1.000,0.000,1.000,0.000
97234,-0.810,0.334,-0.228,0.225,0.097,0.108,0.131,-0.023,0.312,1.064,-0.077,0.990,-0.146,-0.037,0.990,0.129,-0.024,0.311,225,225,43,225,41,1.495,1.000,0.000,1.000,0.000
97245,-0.914,0.245,-0.069,0.212,0.110,0.119,0.133,-0.022,0.313,1.064,-0.077,0.990,-0.148,-0.038,0.974,0.131,-0.023,0.312,225,225,58,225,55,1.495,1.000,0.000,1.000,0.000
97256,-0.850,0.419,-0.164,0.212,0.106,0.111,0.135,-0.021,0.314,1.064,-0.077,1.023,-0.150,-0.038,0.990,0.133,-0.022,0.313,226,226,44,226,41,1.496,1.000,0.000,1.000,0.000
97267,-0.743,0.012,-0.039,0.196,0.092,0.123,0.137,-0.020,0.315,1.064,-0.077,0.974,-0.151,-0.039,0.990,0.135,-0.021,0.314,226,226,44,226,41,1.497,1.000,0.000,1.000,0.000
97278,-1.045,0.368,-0.093,0.190,0.103,0.115,0.139,-0.019,0.316,1.064,-0.077,0.990,-0.153,-0.039,1.006,0.137,-0.020,0.315,--226,226,39,226,41,1.498,1.000,0.000,1.000,0.000
97289,-0.720,0.042,-0.075,0.181,0.101,0.117,0.141,-0.018,0.318,1.064,-0.077,0.990,-0.155,-0.040,1.006,0.139,-0.019,0.316,--226,226,39,226,41,1.499,1.000,0.000,1.000,0.000
97300,-0.339,-0.224,-0.068,0.132,0.340,0.159,0.142,-0.015,0.319,1.064,-0.077,0.990,-0.156,-0.040,0.990,0.141,-0.018,0.318,227,227,44,227,41,1.499,1.000,0.000,1.000,0.000
97311,-1.347,0.225,0.207,0.173,0.236,0.145,0.144,-0.012,0.321,1.064,-0.077,0.990,-0.158,-0.041,0.990,0.142,-0.015,0.319,227,227,44,227,41,1.501,1.000,0.000,1.000,0.000
97322,-0.779,0.069,-0.173,0.130,0.112,0.125,0.145,-0.011,0.322,1.064,-0.077,0.990,-0.159,-0.041,0.990,0.144,-0.012,0.321,227,227,44,227,41,1.502,1.000,0.000,1.000,0.000
97333,-0.767,0.040,0.095,0.134,0.130,0.111,0.147,-0.010,0.323,4.000,-0.168,0.990,-0.161,-0.042,0.990,0.145,-0.011,0.322,227,227,44,227,41,1.502,1.000,0.000,1.000,0.000
97344,-0.826,0.088,-0.056,0.128,0.120,0.108,0.148,-0.009,0.324,4.000,-0.168,0.990,-0.165,-0.043,1.006,0.147,-0.010,0.323,--228,228,38,228,41,1.503,1.000,0.000,1.000,0.000
97377,-0.676,0.066,0.004,0.099,0.134,0.094,0.151,-0.005,0.327,4.000,-0.168,1.039,-0.175,-0.047,1.023,0.150,-0.006,0.326,--229,229,53,229,55,1.505,1.000,0.000,1.000,0.000
97388,-0.713,0.041,0.014,0.077,0.140,0.093,0.152,-0.003,0.328,4.000,-0.168,1.006,-0.179,-0.048,1.006,0.151,-0.005,0.327,--230,230,38,230,41,1.506,1.000,0.000,1.000,0.000
97399,-0.474,-0.037,0.025,0.069,0.137,0.090,0.153,-0.002,0.329,4.000,-0.168,1.023,-0.181,-0.049,1.006,0.152,-0.003,0.328,--230,230,38,230,41,1.507,1.000,0.000,1.000,0.000
97410,-0.726,-0.051,0.075,0.050,0.147,0.097,0.153,-0.000,0.330,4.000,-0.168,1.023,-0.185,-0.050,1.023,0.153,-0.002,0.329,--231,231,53,231,55,1.507,1.000,0.000,1.000,0.000
97421,-0.548,0.028,-0.100,0.040,0.139,0.093,0.154,0.001,0.331,4.000,-0.168,1.023,-0.188,-0.051,1.023,0.153,-0.000,0.330,--232,232,53,232,55,1.508,1.000,0.000,1.000,0.000
97432,-0.547,-0.172,-0.035,0.033,0.140,0.095,0.154,0.002,0.332,4.000,-0.168,1.039,-0.192,-0.052,1.039,0.154,0.001,0.331,--232,232,67,232,69,1.509,1.000,0.000,1.000,0.000
97443,-0.693,0.102,0.016,0.021,0.148,0.092,0.154,0.004,0.333,4.000,-0.168,1.023,-0.195,-0.053,0.990,0.154,0.002,0.332,233,233,44,233,41,1.509,1.000,0.000,1.000,0.000
97454,-0.476,-0.068,-0.065,0.017,0.145,0.090,0.154,0.005,0.334,4.000,-0.168,1.023,-0.199,-0.055,1.023,0.154,0.004,0.333,--234,234,53,234,55,1.510,1.000,0.000,1.000,0.000
97465,-0.632,-0.011,0.012,0.007,0.150,0.092,0.154,0.007,0.334,4.000,-0.168,1.006,-0.202,-0.056,1.023,0.154,0.005,0.334,--234,234,53,234,55,1.511,1.000,0.000,1.000,0.000
97476,-0.591,-0.086,-0.176,-0.008,0.139,0.082,0.154,0.008,0.335,4.000,-0.168,1.006,-0.205,-0.057,1.023,0.154,0.007,0.334,--235,235,53,235,55,1.511,1.000,0.000,1.000,0.000
97487,-0.663,0.072,-0.128,-0.008,0.156,0.073,0.154,0.010,0.336,4.000,-0.168,1.023,-0.209,-0.058,1.039,0.154,0.008,0.335,--236,236,67,236,69,1.512,1.000,0.000,1.000,0.000
97498,-0.431,-0.068,0.016,-0.008,0.160,0.076,0.154,0.011,0.337,4.000,-0.168,1.055,-0.213,-0.060,1.023,0.154,0.010,0.336,--236,236,53,236,55,1.512,1.000,0.000,1.000,0.000
97509,-0.518,0.062,-0.169,-0.009,0.162,0.073,0.154,0.013,0.338,4.000,-0.168,1.006,-0.216,-0.061,1.006,0.154,0.011,0.337,--236,236,38,236,41,1.513,1.000,0.000,1.000,0.000
97520,-0.566,-0.075,-0.172,-0.019,0.153,0.072,0.154,0.014,0.338,6.249,-0.237,1.055,-0.220,-0.062,1.023,0.154,0.013,0.338,--237,237,53,237,55,1.513,1.000,0.000,1.000,0.000
97531,-0.352,-0.028,-0.124,-0.014,0.156,0.071,0.154,0.016,0.339,6.249,-0.237,1.023,-0.225,-0.064,1.023,0.154,0.014,0.338,--238,238,53,238,55,1.514,1.000,0.000,1.000,0.000
97542,-0.463,-0.034,-0.053,-0.021,0.166,0.068,0.154,0.018,0.340,6.249,-0.237,1.023,-0.229,-0.065,1.055,0.154,0.016,0.339,--239,239,80,239,83,1.515,1.000,0.000,1.000,0.000
97553,-0.408,-0.111,-0.061,-0.022,0.159,0.070,0.154,0.019,0.340,6.249,-0.237,1.055,-0.234,-0.067,1.023,0.154,0.018,0.340,--240,240,53,240,55,1.515,1.000,0.000,1.000,0.000
97564,-0.474,0.068,-0.155,-0.020,0.159,0.066,0.153,0.021,0.341,6.249,-0.237,1.039,-0.240,-0.069,0.926,0.154,0.019,0.340,241,241,99,241,97,1.515,1.000,0.000,1.000,0.000
97575,-0.322,-0.068,-0.127,-0.023,0.165,0.061,0.153,0.023,0.342,6.249,-0.237,1.039,-0.244,-0.071,1.055,0.153,0.021,0.341,--242,242,80,242,83,1.516,1.000,0.000,1.000,0.000
97586,-0.306,-0.039,-0.001,-0.030,0.161,0.062,0.153,0.024,0.342,6.249,-0.237,1.023,-0.249,-0.072,1.039,0.153,0.023,0.342,--242,242,67,242,69,1.516,1.000,0.000,1.000,0.000
97597,-0.287,0.089,-0.128,-0.034,0.161,0.059,0.153,0.026,0.343,6.249,-0.237,1.039,-0.254,-0.074,1.055,0.153,0.024,0.342,--242,242,80,242,83,1.517,1.000,0.000,1.000,0.000
97608,-0.306,-0.143,-0.098,-0.031,0.153,0.059,0.152,0.027,0.343,6.249,-0.237,1.039,-0.259,-0.076,1.055,0.153,0.026,0.343,--242,242,80,242,83,1.517,1.000,0.000,1.000,0.000
97619,-0.404,0.007,-0.112,-0.036,0.156,0.056,0.152,0.029,0.344,6.249,-0.237,1.023,-0.264,-0.078,1.039,0.152,0.027,0.343,--242,242,67,242,69,1.518,1.000,0.000,1.000,0.000
97630,-0.285,-0.056,-0.190,-0.032,0.159,0.049,0.152,0.030,0.344,6.249,-0.237,1.055,-0.269,-0.080,1.055,0.152,0.029,0.344,--242,242,80,242,83,1.518,1.000,0.000,1.000,0.000
97641,-0.267,-0.096,-0.063,-0.039,0.159,0.050,0.151,0.032,0.345,6.249,-0.237,1.055,-0.273,-0.081,1.023,0.152,0.030,0.344,--242,242,53,242,55,1.518,1.000,0.000,1.000,0.000
97652,-0.243,-0.257,-0.177,-0.042,0.160,0.049,0.151,0.034,0.345,6.249,-0.237,1.055,-0.279,-0.083,1.023,0.151,0.032,0.345,--242,242,53,242,55,1.519,1.000,0.000,1.000,0.000
97663,-0.288,-0.060,-0.041,-0.050,0.147,0.050,0.150,0.035,0.346,6.249,-0.237,1.039,-0.284,-0.085,1.039,0.151,0.034,0.345,--242,242,67,242,69,1.519,1.000,0.000,1.000,0.000
97674,-0.257,0.001,-0.105,-0.045,0.147,0.042,0.150,0.037,0.346,6.249,-0.237,1.071,-0.288,-0.086,1.055,0.150,0.035,0.346,--242,242,80,242,83,1.519,1.000,0.000,1.000,0.000
97685,-0.121,-0.104,-0.059,-0.054,0.140,0.048,0.149,0.038,0.347,6.249,-0.237,1.216,-0.293,-0.088,1.055,0.150,0.037,0.346,--242,242,80,242,83,1.520,1.000,0.000,1.000,0.000
97696,-0.251,0.024,-0.155,-0.050,0.147,0.048,0.149,0.039,0.347,6.249,-0.237,1.071,-0.298,-0.090,1.055,0.149,0.038,0.347,--242,242,80,242,83,1.520,1.000,0.000,1.000,0.000
97707,-0.153,-0.040,-0.038,-0.056,0.133,0.046,0.148,0.041,0.348,6.249,-0.237,1.055,-0.303,-0.092,1.071,0.149,0.039,0.347,--242,242,94,242,97,1.520,1.000,0.000,1.000,0.000
97718,-0.085,0.045,-0.198,-0.052,0.126,0.048,0.148,0.042,0.348,6.249,-0.237,1.055,-0.308,-0.094,1.087,0.148,0.041,0.348,--242,242,108,242,111,1.521,1.000,0.000,1.000,0.000
97729,-0.139,-0.013,-0.126,-0.054,0.128,0.050,0.147,0.043,0.349,6.249,-0.237,1.071,-0.313,-0.095,1.087,0.148,0.042,0.348,--242,242,108,242,111,1.521,1.000,0.000,1.000,0.000
97740,-0.177,-0.017,-0.068,-0.054,0.115,0.043,0.147,0.044,0.349,6.249,-0.237,1.071,-0.317,-0.097,1.087,0.147,0.043,0.349,--242,242,108,242,111,1.521,1.000,0.000,1.000,0.000
97751,-0.129,0.018,-0.134,-0.052,0.101,0.049,0.146,0.045,0.350,6.249,-0.237,1.087,-0.323,-0.099,1.087,0.147,0.044,0.349,--242,242,108,242,111,1.522,1.000,0.000,1.000,0.000
97762,-0.132,-0.063,-0.189,-0.049,0.103,0.048,0.146,0.046,0.350,6.249,-0.237,1.087,-0.328,-0.101,1.087,0.146,0.045,0.350,--242,242,108,242,111,1.522,1.000,0.000,1.000,0.000
97773,-0.105,-0.117,-0.130,-0.054,0.099,0.046,0.145,0.047,0.351,6.249,-0.237,1.087,-0.332,-0.102,1.055,0.146,0.046,0.350,--242,242,80,242,83,1.522,1.000,0.000,1.000,0.000
97784,-0.054,0.124,-0.085,-0.054,0.097,0.044,0.144,0.048,0.351,6.249,-0.237,1.071,-0.337,-0.104,1.055,0.145,0.047,0.351,--242,242,80,242,83,1.523,1.000,0.000,1.000,0.000
97795,-0.077,-0.192,-0.209,-0.050,0.083,0.046,0.144,0.049,0.351,6.249,-0.237,1.087,-0.342,-0.106,1.071,0.144,0.048,0.351,--242,242,94,242,97,1.523,1.000,0.000,1.000,0.000
97806,-0.182,-0.177,-0.194,-0.054,0.094,0.048,0.143,0.050,0.352,6.249,-0.237,1.071,-0.347,-0.108,1.071,0.144,0.049,0.351,--242,242,94,242,97,1.523,1.000,0.000,1.000,0.000
97817,-0.165,-0.028,-0.255,-0.054,0.098,0.032,0.143,0.051,0.352,6.249,-0.237,1.103,-0.352,-0.110,1.055,0.143,0.050,0.352,--242,242,80,242,83,1.524,1.000,0.000,1.000,0.000
97828,0.062,-0.151,-0.198,-0.055,0.082,0.031,0.142,0.052,0.353,6.249,-0.237,1.087,-0.357,-0.111,1.216,0.143,0.051,0.352,--242,242,220,242,223,1.524,1.000,0.000,1.000,0.000
97839,-0.066,-0.161,-0.176,-0.048,0.086,0.033,0.142,0.053,0.353,6.249,-0.237,1.087,-0.361,-0.113,1.087,0.142,0.052,0.353,--242,242,108,242,111,1.524,1.000,0.000,1.000,0.000
97850,0.033,-0.208,-0.172,-0.061,0.072,0.027,0.141,0.054,0.353,6.758,-0.253,1.071,-0.367,-0.115,1.103,0.142,0.053,0.353,--242,242,122,242,125,1.524,1.000,0.000,1.000,0.000
97861,-0.091,0.167,-0.204,-0.056,0.071,0.026,0.141,0.054,0.353,6.758,-0.253,1.087,-0.371,-0.117,1.103,0.141,0.054,0.353,--242,242,122,242,125,1.525,1.000,0.000,1.000,0.000
97872,0.069,-0.011,-0.039,-0.054,0.056,0.029,0.140,0.055,0.354,6.758,-0.253,1.119,-0.377,-0.119,1.103,0.141,0.054,0.353,--242,242,122,242,125,1.525,1.000,0.000,1.000,0.000
97883,0.019,-0.020,-0.081,-0.060,0.056,0.033,0.140,0.055,0.354,6.758,-0.253,1.087,-0.382,-0.121,1.103,0.140,0.055,0.354,--242,242,122,242,125,1.525,1.000,0.000,1.000,0.000
97894,-0.001,-0.057,-0.054,-0.070,0.065,0.033,0.139,0.056,0.354,6.758,-0.253,1.103,-0.387,-0.122,1.103,0.140,0.055,0.354,--242,242,122,242,125,1.525,1.000,0.000,1.000,0.000
97905,0.087,0.076,-0.070,-0.070,0.059,0.029,0.138,0.057,0.355,6.758,-0.253,1.087,-0.392,-0.125,1.071,0.139,0.056,0.354,--242,242,94,242,97,1.525,1.000,0.000,1.000,0.000
97916,0.062,-0.035,-0.120,-0.071,0.044,0.035,0.137,0.057,0.355,6.758,-0.253,1.103,-0.398,-0.127,1.087,0.138,0.057,0.355,--242,242,108,242,111,1.526,1.000,0.000,1.000,0.000
97927,0.160,-0.133,-0.070,-0.064,0.035,0.033,0.137,0.057,0.355,6.758,-0.253,1.103,-0.402,-0.128,1.119,0.137,0.057,0.355,--242,242,136,242,138,1.526,1.000,0.000,1.000,0.000
97938,-0.016,0.059,-0.008,-0.067,0.042,0.032,0.136,0.058,0.356,6.758,-0.253,1.087,-0.408,-0.130,1.103,0.137,0.057,0.355,--242,242,122,242,125,1.526,1.000,0.000,1.000,0.000
97949,0.021,0.095,0.002,-0.064,0.039,0.032,0.135,0.058,0.356,6.758,-0.253,1.087,-0.411,-0.131,1.119,0.136,0.058,0.356,--242,242,136,242,138,1.526,1.000,0.000,1.000,0.000
97960,0.159,0.068,-0.170,-0.058,0.035,0.033,0.135,0.059,0.356,6.758,-0.253,1.087,-0.415,-0.133,1.103,0.135,0.058,0.356,--242,242,122,242,125,1.527,1.000,0.000,1.000,0.000
97971,0.050,0.121,-0.065,-0.060,0.032,0.040,0.134,0.059,0.357,6.758,-0.253,1.087,-0.420,-0.135,1.087,0.135,0.059,0.356,--242,242,108,242,111,1.527,1.000,0.000,1.000,0.000
97982,0.086,0.069,-0.130,-0.044,0.017,0.037,0.134,0.059,0.357,6.758,-0.253,1.087,-0.426,-0.137,1.087,0.134,0.059,0.357,--242,242,108,242,111,1.527,1.000,0.000,1.000,0.000
97993,0.024,-0.150,0.081,-0.047,0.015,0.042,0.133,0.059,0.358,7.874,-0.287,1.087,-0.431,-0.139,1.087,0.134,0.059,0.357,--242,242,108,242,111,1.527,1.000,0.000,1.000,0.000
98004,-0.055,0.109,-0.129,-0.049,0.020,0.028,0.133,0.059,0.358,7.874,-0.287,1.087,-0.437,-0.141,1.135,0.133,0.059,0.358,--242,242,151,242,152,1.528,1.000,0.000,1.000,0.000
98015,0.007,0.151,-0.127,-0.049,0.005,0.026,0.132,0.059,0.358,7.874,-0.287,1.119,-0.443,-0.143,1.103,0.133,0.059,0.358,--242,242,122,242,125,1.528,1.000,0.000,1.000,0.000
98026,0.011,0.022,-0.023,-0.058,-0.001,0.023,0.132,0.059,0.358,7.874,-0.287,1.103,-0.448,-0.145,1.006,0.132,0.059,0.358,--242,242,39,242,41,1.528,1.000,0.000,1.000,0.000
98037,0.161,0.015,-0.070,-0.061,-0.017,0.024,0.131,0.059,0.359,7.874,-0.287,1.103,-0.455,-0.148,1.103,0.132,0.059,0.358,--242,242,122,242,125,1.528,1.000,0.000,1.000,0.000
98048,0.080,0.095,-0.011,-0.059,-0.021,0.031,0.131,0.059,0.359,7.874,-0.287,1.119,-0.461,-0.150,1.119,0.131,0.059,0.359,--242,242,137,242,138,1.528,1.000,0.000,1.000,0.000
98059,0.051,-0.009,-0.142,-0.066,-0.022,0.028,0.130,0.059,0.359,7.874,-0.287,1.119,-0.466,-0.152,1.071,0.131,0.059,0.359,--242,242,94,242,97,1.529,1.000,0.000,1.000,0.000
98070,0.069,-0.100,-0.033,-0.065,-0.031,0.029,0.129,0.059,0.359,7.874,-0.287,1.103,-0.472,-0.154,1.119,0.130,0.059,0.359,--242,242,137,242,138,1.529,1.000,0.000,1.000,0.000
98081,0.041,0.146,-0.056,-0.072,-0.032,0.024,0.129,0.058,0.360,7.874,-0.287,1.103,-0.479,-0.157,1.103,0.129,0.059,0.359,--242,242,122,242,125,1.529,1.000,0.000,1.000,0.000
98092,0.045,0.040,-0.208,-0.074,-0.038,0.022,0.128,0.058,0.360,7.874,-0.287,1.103,-0.484,-0.159,1.103,0.129,0.058,0.360,--242,242,122,242,125,1.529,1.000,0.000,1.000,0.000
98103,-0.013,0.081,-0.045,-0.078,-0.029,0.021,0.127,0.058,0.360,7.874,-0.287,1.119,-0.490,-0.161,1.103,0.128,0.058,0.360,--242,242,122,242,125,1.529,1.000,0.000,1.000,0.000
98114,0.182,0.083,-0.204,-0.076,-0.042,0.023,0.126,0.057,0.360,7.874,-0.287,1.119,-0.496,-0.163,1.119,0.127,0.058,0.360,--242,242,137,242,138,1.529,1.000,0.000,1.000,0.000
98125,-0.041,0.176,-0.051,-0.074,-0.048,0.018,0.126,0.057,0.361,7.874,-0.287,1.103,-0.501,-0.165,1.087,0.126,0.057,0.360,--242,242,108,242,111,1.530,1.000,0.000,1.000,0.000
98136,-0.047,0.076,-0.122,-0.066,-0.049,0.021,0.125,0.056,0.361,7.246,-0.268,1.087,-0.507,-0.168,1.119,0.126,0.057,0.361,--242,242,137,242,138,1.530,1.000,0.000,1.000,0.000
98147,0.161,0.007,-0.149,-0.064,-0.050,0.021,0.124,0.056,0.361,7.246,-0.268,1.103,-0.513,-0.170,1.103,0.125,0.056,0.361,--242,242,122,242,125,1.530,1.000,0.000,1.000,0.000
98158,0.025,0.243,-0.043,-0.065,-0.045,0.026,0.124,0.055,0.361,7.246,-0.268,1.103,-0.518,-0.172,1.119,0.124,0.056,0.361,--242,242,137,242,138,1.530,1.000,0.000,1.000,0.000
98169,-0.028,0.103,-0.035,-0.054,-0.049,0.029,0.123,0.055,0.361,7.246,-0.268,1.103,-0.524,-0.174,1.087,0.124,0.055,0.361,--242,242,108,242,111,1.530,1.000,0.000,1.000,0.000
98180,-0.010,0.063,-0.124,-0.052,-0.067,0.024,0.123,0.054,0.362,7.246,-0.268,1.103,-0.530,-0.176,1.103,0.123,0.055,0.361,--242,242,122,242,125,1.530,1.000,0.000,1.000,0.000
98191,-0.041,0.083,-0.080,-0.048,-0.070,0.011,0.122,0.053,0.362,7.246,-0.268,1.135,-0.535,-0.178,1.119,0.123,0.054,0.362,--242,242,137,242,138,1.531,1.000,0.000,1.000,0.000
98202,-0.089,0.156,-0.015,-0.044,-0.073,0.013,0.122,0.053,0.362,7.246,-0.268,1.119,-0.540,-0.180,1.103,0.122,0.053,0.362,--242,242,123,242,125,1.531,1.000,0.000,1.000,0.000
98213,-0.038,0.058,0.048,-0.039,-0.088,-0.001,0.121,0.052,0.362,7.246,-0.268,1.119,-0.546,-0.182,1.103,0.122,0.053,0.362,--242,242,123,242,125,1.531,1.000,0.000,1.000,0.000
98224,-0.020,0.143,-0.085,-0.033,-0.092,0.002,0.121,0.051,0.362,7.246,-0.268,1.103,-0.551,-0.184,1.103,0.121,0.052,0.362,--242,242,123,242,125,1.531,1.000,0.000,1.000,0.000
98235,-0.111,0.077,-0.013,-0.034,-0.083,-0.002,0.121,0.050,0.362,7.246,-0.268,1.103,-0.557,-0.186,1.119,0.121,0.051,0.362,--242,242,137,242,138,1.531,1.000,0.000,1.000,0.000
98246,-0.077,0.154,0.046,-0.044,-0.081,-0.009,0.120,0.049,0.362,7.246,-0.268,1.119,-0.563,-0.188,1.135,0.121,0.050,0.362,--242,242,151,242,152,1.531,1.000,0.000,1.000,0.000
98257,0.075,0.210,-0.063,-0.031,-0.094,-0.009,0.120,0.048,0.362,7.246,-0.268,1.103,-0.568,-0.190,1.119,0.120,0.049,0.362,--242,242,137,242,138,1.531,1.000,0.000,1.000,0.000
98268,-0.120,0.099,0.064,-0.026,-0.090,-0.001,0.120,0.047,0.362,7.578,-0.278,1.103,-0.573,-0.192,1.103,0.120,0.048,0.362,--242,242,123,242,125,1.531,1.000,0.000,1.000,0.000
98279,-0.044,0.041,0.072,-0.031,-0.088,-0.013,0.119,0.046,0.362,7.578,-0.278,1.103,-0.579,-0.195,1.135,0.120,0.047,0.362,--242,242,151,242,152,1.531,1.000,0.000,1.000,0.000
98290,-0.288,0.193,0.031,-0.031,-0.089,-0.018,0.119,0.046,0.362,7.578,-0.278,1.135,-0.584,-0.197,1.103,0.119,0.046,0.362,--242,242,123,242,125,1.531,1.000,0.000,1.000,0.000
98301,0.002,0.151,-0.106,-0.028,-0.099,-0.026,0.119,0.045,0.361,7.578,-0.278,1.119,-0.590,-0.199,1.119,0.119,0.046,0.362,--242,242,137,242,138,1.531,1.000,0.000,1.000,0.000
98312,-0.151,0.152,-0.009,-0.025,-0.099,-0.024,0.118,0.044,0.361,7.578,-0.278,1.119,-0.596,-0.201,1.152,0.119,0.045,0.361,--242,242,164,242,166,1.530,1.000,0.000,1.000,0.000
98323,-0.260,0.119,0.014,-0.021,-0.082,-0.027,0.118,0.043,0.361,7.578,-0.278,1.103,-0.601,-0.203,1.119,0.118,0.044,0.361,--242,242,137,242,138,1.530,1.000,0.000,1.000,0.000
98334,-0.031,0.064,-0.065,-0.028,-0.090,-0.035,0.118,0.042,0.361,7.578,-0.278,1.152,-0.608,-0.205,1.119,0.118,0.043,0.361,--242,242,137,242,138,1.530,1.000,0.000,1.000,0.000
98345,-0.084,0.369,-0.013,-0.019,-0.095,-0.035,0.118,0.041,0.360,7.578,-0.278,1.119,-0.614,-0.208,1.119,0.118,0.042,0.361,--242,242,137,242,138,1.530,1.000,0.000,1.000,0.000
98356,-0.254,0.190,-0.102,-0.009,-0.094,-0.034,0.118,0.040,0.360,7.578,-0.278,1.103,-0.619,-0.210,1.103,0.118,0.041,0.360,--242,242,123,242,125,1.530,1.000,0.000,1.000,0.000
98367,-0.254,0.228,-0.019,-0.008,-0.081,-0.042,0.118,0.039,0.359,7.578,-0.278,1.119,-0.625,-0.212,1.087,0.118,0.040,0.360,--242,242,108,242,111,1.529,1.000,0.000,1.000,0.000
98378,-0.066,0.194,0.031,-0.003,-0.088,-0.037,0.118,0.038,0.359,7.578,-0.278,1.119,-0.631,-0.214,1.135,0.118,0.039,0.359,--242,242,151,242,152,1.529,1.000,0.000,1.000,0.000
98389,-0.054,0.131,-0.105,0.003,-0.093,-0.033,0.118,0.037,0.359,7.578,-0.278,1.119,-0.636,-0.216,1.119,0.118,0.038,0.359,--242,242,137,242,138,1.529,1.000,0.000,1.000,0.000
98400,-0.349,0.150,-0.006,-0.000,-0.087,-0.040,0.118,0.036,0.358,7.578,-0.278,1.119,-0.642,-0.218,1.135,0.118,0.037,0.359,--242,242,151,242,152,1.528,1.000,0.000,1.000,0.000
98411,-0.153,0.164,-0.050,0.010,-0.084,-0.040,0.118,0.036,0.358,8.331,-0.301,1.135,-0.648,-0.221,1.119,0.118,0.036,0.358,--242,242,137,242,138,1.528,1.000,0.000,1.000,0.000
98422,-0.130,0.091,-0.053,0.003,-0.086,-0.039,0.118,0.035,0.358,8.331,-0.301,1.135,-0.654,-0.223,1.119,0.118,0.036,0.358,--242,242,137,242,138,1.528,1.000,0.000,1.000,0.000
98433,-0.325,0.320,0.019,0.011,-0.081,-0.043,0.118,0.034,0.357,8.331,-0.301,1.135,-0.660,-0.225,1.119,0.118,0.035,0.358,--242,242,137,242,138,1.528,1.000,0.000,1.000,0.000
98444,-0.145,0.137,-0.124,0.023,-0.095,-0.039,0.118,0.033,0.357,8.331,-0.301,1.135,-0.667,-0.228,1.135,0.118,0.034,0.357,--242,242,151,242,152,1.527,1.000,0.000,1.000,0.000
98455,-0.248,0.273,0.119,0.027,-0.073,-0.040,0.118,0.032,0.356,8.331,-0.301,1.119,-0.672,-0.230,1.135,0.118,0.033,0.357,--242,242,151,242,152,1.527,1.000,0.000,1.000,0.000
98466,-0.164,0.044,-0.025,0.028,-0.084,-0.026,0.119,0.031,0.356,8.331,-0.301,1.135,-0.679,-0.232,1.135,0.118,0.032,0.356,--242,242,151,242,152,1.527,1.000,0.000,1.000,0.000
98477,-0.184,0.231,0.042,0.021,-0.078,-0.027,0.119,0.031,0.356,8.331,-0.301,1.135,-0.685,-0.235,1.135,0.119,0.031,0.356,--242,242,151,242,152,1.527,1.000,0.000,1.000,0.000
98488,-0.258,0.178,-0.110,0.029,-0.070,-0.026,0.119,0.030,0.356,8.331,-0.301,1.135,-0.691,-0.237,1.103,0.119,0.031,0.356,--242,242,123,242,125,1.526,1.000,0.000,1.000,0.000
98499,-0.188,0.029,-0.043,0.025,-0.067,-0.011,0.119,0.029,0.355,8.331,-0.301,1.119,-0.694,-0.238,1.119,0.119,0.030,0.356,--242,242,137,242,138,1.526,1.000,0.000,1.000,0.000
98510,-0.247,0.295,0.071,0.028,-0.067,-0.020,0.120,0.029,0.355,8.331,-0.301,1.119,-0.700,-0.240,1.119,0.119,0.029,0.355,--242,242,137,242,138,1.526,1.000,0.000,1.000,0.000
98521,-0.270,0.078,0.031,0.033,-0.073,-0.011,0.120,0.028,0.355,8.331,-0.301,1.103,-0.705,-0.242,1.119,0.120,0.029,0.355,--242,242,137,242,138,1.526,1.000,0.000,1.000,0.000
98532,-0.201,0.073,-0.043,0.033,-0.067,-0.011,0.120,0.027,0.355,8.331,-0.301,1.152,-0.712,-0.244,1.135,0.120,0.028,0.355,--242,242,151,242,152,1.526,1.000,0.000,1.000,0.000
98543,-0.250,0.075,-0.087,0.030,-0.065,-0.024,0.121,0.027,0.355,8.331,-0.301,1.119,-0.719,-0.247,1.103,0.120,0.027,0.355,--242,242,123,242,125,1.526,1.000,0.000,1.000,0.000
98554,-0.201,0.041,0.075,0.043,-0.057,-0.016,0.121,0.026,0.355,7.196,-0.266,1.135,-0.723,-0.249,1.119,0.121,0.027,0.355,--242,242,137,242,138,1.526,1.000,0.000,1.000,0.000
98565,-0.351,0.227,0.089,0.041,-0.053,-0.021,0.121,0.025,0.354,7.196,-0.266,1.135,-0.729,-0.251,1.152,0.121,0.026,0.355,--242,242,164,242,166,1.526,1.000,0.000,1.000,0.000
98576,-0.201,0.076,-0.069,0.045,-0.057,-0.010,0.122,0.025,0.354,7.196,-0.266,1.119,-0.735,-0.253,1.135,0.121,0.025,0.354,--242,242,151,242,152,1.525,1.000,0.000,1.000,0.000
98587,-0.227,0.088,0.091,0.036,-0.057,-0.006,0.122,0.024,0.354,7.196,-0.266,1.135,-0.740,-0.255,1.135,0.122,0.025,0.354,--242,242,151,242,152,1.525,1.000,0.000,1.000,0.000
98598,-0.264,0.280,-0.024,0.044,-0.054,-0.007,0.123,0.024,0.354,7.196,-0.266,1.119,-0.746,-0.257,1.135,0.122,0.024,0.354,--242,242,151,242,152,1.525,1.000,0.000,1.000,0.000
98609,-0.260,-0.029,0.014,0.036,-0.049,0.001,0.123,0.023,0.354,7.196,-0.266,1.135,-0.751,-0.259,1.119,0.123,0.024,0.354,--242,242,137,242,138,1.525,1.000,0.000,1.000,0.000
