Time, Accel X [mg],Accel Y [mg],Accel Z [mg],dRoll [rad/s],dPitch [rad/s],dHeading [rad/s],Roll [rad],Pitch [rad],Yaw [rad],Frequency Reader Frequency [Hz],Calibrated Velocity [m/s],Pressure Sensor Depth [m],State Estimator X [m],State Estimator Y [m],State Estimator Z [m],State Estimator Roll [rad],State Estimator Pitch [rad],State Estimator Yaw [rad],Motor A,Motor B,Motor C,Motor D,Motor E,Servo Angle [rad],Waypoint X [m],Waypoint Y [m],Waypoint Z [m],Waiting [bool]
94621,4.825,-1.806,0.885,-0.309,-0.046,0.280,-0.003,-0.000,0.003,0.005,0.044,-0.074,0.001,0.000,-0.074,0.000,0.000,0.000,0,0,242,0,242,1.275,0.000,0.000,1.000,1.000
94632,4.577,-1.877,0.692,-0.325,-0.005,0.244,-0.006,-0.000,0.005,0.005,0.044,-0.090,0.002,0.000,-0.074,-0.003,-0.000,0.003,0,0,242,0,242,1.277,0.000,0.000,1.000,1.000
94643,4.872,-1.810,0.652,-0.340,0.029,0.198,-0.010,-0.000,0.007,0.005,0.044,-0.058,0.003,0.000,-0.090,-0.006,-0.000,0.005,0,0,242,0,242,1.279,0.000,0.000,1.000,1.000
94654,4.591,-1.594,0.607,-0.335,0.077,0.161,-0.013,0.001,0.009,0.005,0.044,-0.090,0.004,0.000,-0.090,-0.010,-0.000,0.007,0,0,242,0,242,1.280,0.000,0.000,1.000,1.000
94665,4.685,-1.466,0.656,-0.337,0.115,0.123,-0.016,0.002,0.010,0.005,0.044,-0.090,0.005,0.000,-0.074,-0.013,0.001,0.009,0,0,242,0,242,1.281,0.000,0.000,1.000,1.000
94676,4.726,-1.251,0.817,-0.330,0.160,0.097,-0.020,0.003,0.011,0.005,0.044,-0.074,0.006,0.000,-0.090,-0.016,0.002,0.010,0,0,242,0,242,1.282,0.000,0.000,1.000,1.000
94687,4.754,-1.325,0.756,-0.331,0.183,0.057,-0.023,0.005,0.012,0.005,0.044,-0.074,0.007,0.000,-0.090,-0.020,0.003,0.011,0,0,242,0,242,1.283,0.000,0.000,1.000,1.000
94698,5.015,-1.247,0.909,-0.315,0.219,0.039,-0.026,0.007,0.012,0.005,0.044,-0.074,0.008,0.000,-0.074,-0.023,0.005,0.012,0,0,242,0,242,1.283,0.000,0.000,1.000,1.000
94709,5.231,-0.987,0.982,-0.286,0.225,0.024,-0.029,0.010,0.012,0.005,0.044,-0.074,0.009,0.000,-0.058,-0.026,0.007,0.012,0,0,242,0,242,1.283,0.000,0.000,1.000,1.000
94720,5.541,-0.707,1.207,-0.264,0.213,0.027,-0.032,0.012,0.013,0.005,0.044,-0.090,0.010,0.000,-0.090,-0.029,0.010,0.012,0,0,242,0,242,1.284,0.000,0.000,1.000,1.000
94731,5.317,-0.333,1.292,-0.224,0.183,0.045,-0.034,0.014,0.013,0.005,0.044,-0.090,0.011,0.000,-0.074,-0.032,0.012,0.013,0,0,242,0,242,1.284,0.000,0.000,1.000,1.000
94742,5.013,-0.153,1.198,-0.176,0.158,0.083,-0.036,0.015,0.014,0.005,0.044,-0.074,0.012,0.000,-0.090,-0.034,0.014,0.013,0,0,242,0,242,1.284,0.000,0.000,1.000,1.000
94753,5.101,0.133,1.304,-0.130,0.160,0.127,-0.037,0.017,0.015,0.005,0.044,-0.090,0.013,0.000,-0.074,-0.036,0.015,0.014,0,0,242,0,242,1.285,0.000,0.000,1.000,1.000
94764,5.288,0.095,1.782,-0.096,0.153,0.180,-0.038,0.018,0.017,0.005,0.044,-0.074,0.014,0.000,-0.074,-0.037,0.017,0.015,0,0,242,0,242,1.286,0.000,0.000,1.000,1.000
94775,5.051,-1.067,2.169,-0.070,0.109,0.216,-0.039,0.019,0.019,0.005,0.044,-0.074,0.015,0.000,-0.090,-0.038,0.018,0.017,0,0,242,0,242,1.287,0.000,0.000,1.000,1.000
94786,4.960,-0.954,2.471,-0.097,0.028,0.202,-0.040,0.020,0.021,0.005,0.044,-0.090,0.016,0.000,-0.074,-0.039,0.019,0.019,0,0,242,0,242,1.288,0.000,0.000,1.000,1.000
94797,4.938,-0.906,2.596,-0.121,-0.035,0.165,-0.041,0.019,0.023,0.005,0.044,-0.090,0.017,0.000,-0.090,-0.040,0.020,0.021,0,0,242,0,242,1.290,0.000,0.000,1.000,1.000
94808,4.893,-1.289,2.642,-0.154,-0.101,0.136,-0.042,0.018,0.024,0.005,0.044,-0.074,0.018,0.000,-0.074,-0.041,0.019,0.023,0,0,242,0,242,1.291,0.000,0.000,1.000,1.000
94819,5.007,-1.020,2.614,-0.209,-0.151,0.105,-0.045,0.017,0.025,0.005,0.044,-0.074,0.019,0.000,-0.090,-0.042,0.018,0.024,0,0,242,0,242,1.292,0.000,0.000,1.000,1.000
94830,4.823,-0.850,2.338,-0.252,-0.198,0.082,-0.047,0.015,0.026,0.005,0.044,-0.090,0.019,0.000,-0.090,-0.045,0.017,0.025,0,0,242,0,242,1.293,0.000,0.000,1.000,1.000
94841,4.658,-1.048,2.150,-0.274,-0.226,0.065,-0.050,0.013,0.027,0.005,0.044,-0.074,0.021,0.000,-0.090,-0.047,0.015,0.026,0,0,242,0,242,1.293,0.000,0.000,1.000,1.000
94852,4.794,-0.903,2.241,-0.300,-0.231,0.043,-0.053,0.010,0.027,0.005,0.044,-0.090,0.022,0.000,-0.090,-0.050,0.013,0.027,0,0,242,0,242,1.294,0.000,0.000,1.000,1.000
94863,4.524,-0.811,2.015,-0.304,-0.246,0.012,-0.056,0.008,0.027,0.005,0.044,-0.090,0.023,0.000,-0.090,-0.053,0.010,0.027,0,0,242,0,242,1.294,0.000,0.000,1.000,1.000
94874,4.565,-0.939,1.604,-0.263,-0.222,-0.067,-0.058,0.006,0.026,0.005,0.044,-0.074,0.023,0.000,-0.074,-0.056,0.008,0.027,0,0,242,0,242,1.294,0.000,0.000,1.000,1.000
94885,4.500,-0.945,1.604,-0.236,-0.204,-0.109,-0.061,0.003,0.025,0.005,0.044,-0.074,0.025,0.000,-0.074,-0.058,0.006,0.026,0,0,242,0,242,1.294,0.000,0.000,1.000,1.000
94896,4.446,-1.097,1.496,-0.202,-0.194,-0.142,-0.063,0.002,0.024,0.005,0.044,-0.106,0.026,0.000,-0.090,-0.061,0.003,0.025,0,0,242,0,242,1.293,0.000,0.000,1.000,1.000
94907,4.748,-1.001,1.267,-0.180,-0.172,-0.166,-0.065,-0.000,0.022,0.005,0.044,-0.058,0.026,0.000,-0.090,-0.063,0.002,0.024,0,0,242,0,242,1.292,0.000,0.000,1.000,1.000
94918,4.751,-1.131,1.198,-0.155,-0.150,-0.187,-0.066,-0.002,0.020,0.005,0.044,-0.074,0.027,0.000,-0.074,-0.065,-0.000,0.022,0,0,242,0,242,1.291,0.000,0.000,1.000,1.000
94929,4.944,-1.567,1.332,-0.136,-0.145,-0.206,-0.068,-0.003,0.018,0.005,0.044,-0.074,0.029,0.000,-0.090,-0.066,-0.002,0.020,0,0,242,0,242,1.289,0.000,0.000,1.000,1.000
94940,5.391,-1.488,1.352,-0.133,-0.156,-0.225,-0.069,-0.005,0.016,0.005,0.044,-0.090,0.029,0.001,-0.074,-0.068,-0.003,0.018,0,0,242,0,242,1.288,0.000,0.000,1.000,1.000
94951,5.087,-1.689,1.116,-0.127,-0.175,-0.244,-0.070,-0.006,0.014,0.005,0.044,-0.074,0.030,0.001,-0.090,-0.069,-0.005,0.016,0,0,242,0,242,1.286,0.000,0.000,1.000,1.000
94962,4.539,-1.834,0.292,-0.107,-0.116,-0.335,-0.071,-0.008,0.010,0.005,0.044,-0.074,0.032,0.001,-0.074,-0.070,-0.006,0.014,0,0,242,0,242,1.285,0.000,0.000,1.000,1.000
94973,4.544,-1.424,0.022,-0.104,-0.039,-0.375,-0.072,-0.008,0.007,0.005,0.044,-0.074,0.032,0.001,-0.090,-0.071,-0.008,0.010,0,0,242,0,242,1.282,0.000,0.000,1.000,1.000
94984,4.690,-0.666,-0.080,-0.064,0.038,-0.376,-0.073,-0.008,0.003,0.005,0.044,-0.074,0.033,0.001,-0.090,-0.072,-0.008,0.007,0,0,242,0,242,1.280,0.000,0.000,1.000,1.000
94995,5.536,0.078,0.463,-0.005,0.093,-0.318,-0.073,-0.007,-0.000,0.005,0.044,-0.090,0.034,0.001,-0.090,-0.073,-0.008,0.003,0,0,242,0,242,1.277,0.000,0.000,1.000,1.000
95006,6.065,0.247,1.011,0.058,0.075,-0.227,-0.072,-0.006,-0.003,0.005,0.044,-0.074,0.035,0.001,-0.074,-0.073,-0.007,-0.000,0,0,242,0,242,1.275,0.000,0.000,1.000,1.000
95017,6.477,-0.512,1.752,0.107,-0.016,-0.123,-0.071,-0.006,-0.004,0.005,0.044,-0.090,0.036,0.001,-0.074,-0.072,-0.006,-0.003,0,0,242,0,242,1.273,0.000,0.000,1.000,1.000
95028,6.952,-0.579,2.087,0.120,-0.167,-0.040,-0.070,-0.008,-0.004,0.005,0.044,-0.074,0.037,0.001,-0.090,-0.071,-0.006,-0.004,0,0,242,0,242,1.273,0.000,0.000,1.000,1.000
95039,6.629,-0.278,1.969,0.132,-0.336,0.037,-0.069,-0.011,-0.004,0.005,0.044,-0.090,0.038,0.001,-0.074,-0.070,-0.008,-0.004,0,0,242,0,242,1.272,0.000,0.000,1.000,1.000
95050,5.831,-0.133,2.243,0.155,-0.607,0.138,-0.067,-0.017,-0.003,0.005,0.044,-0.074,0.039,0.001,-0.058,-0.069,-0.011,-0.004,0,0,242,0,242,1.273,0.000,0.000,1.000,1.000
95061,5.258,0.257,2.213,0.159,-0.699,0.192,-0.066,-0.024,-0.001,0.005,0.044,-0.074,0.040,0.001,-0.074,-0.067,-0.017,-0.003,0,0,242,0,242,1.273,0.000,0.000,1.000,1.000
95072,4.393,-0.046,2.199,0.176,-0.757,0.227,-0.064,-0.032,0.002,0.005,0.044,-0.090,0.041,0.001,-0.074,-0.066,-0.024,-0.001,0,0,242,0,242,1.275,0.000,0.000,1.000,1.000
95083,4.137,-0.279,2.174,0.170,-0.773,0.233,-0.062,-0.039,0.004,0.005,0.044,-0.074,0.042,0.001,-0.074,-0.064,-0.032,0.002,0,0,242,0,242,1.276,0.000,0.000,1.000,1.000
95094,3.651,-0.642,2.129,0.150,-0.759,0.194,-0.061,-0.047,0.006,0.005,0.044,-0.074,0.043,0.001,-0.074,-0.062,-0.039,0.004,0,0,242,0,242,1.278,0.000,0.000,1.000,1.000
95105,3.340,-0.928,2.028,0.130,-0.739,0.115,-0.059,-0.054,0.007,0.005,0.044,-0.074,0.044,0.001,-0.074,-0.061,-0.047,0.006,0,0,242,0,242,1.279,0.000,0.000,1.000,1.000
95116,3.715,-1.226,1.887,0.098,-0.711,0.028,-0.058,-0.062,0.007,0.005,0.044,-0.074,0.045,0.001,-0.074,-0.059,-0.054,0.007,0,0,242,0,242,1.280,0.000,0.000,1.000,1.000
95127,3.989,-0.792,1.789,0.056,-0.684,-0.045,-0.058,-0.068,0.007,0.005,0.044,-0.090,0.046,0.001,-0.074,-0.058,-0.062,0.007,0,0,242,0,242,1.280,0.000,0.000,1.000,1.000
95138,3.369,-0.948,0.710,0.040,-0.577,-0.130,-0.057,-0.074,0.006,0.005,0.044,-0.090,0.047,0.001,-0.090,-0.058,-0.068,0.007,0,0,242,0,242,1.280,0.000,0.000,1.000,1.000
95149,3.309,-0.843,0.431,0.041,-0.470,-0.187,-0.057,-0.079,0.004,1.695,0.096,-0.074,0.049,0.001,-0.090,-0.057,-0.074,0.006,0,0,242,0,242,1.279,0.000,0.000,1.000,1.000
95160,2.861,-1.709,-0.240,0.061,-0.353,-0.277,-0.056,-0.082,0.001,1.695,0.096,-0.074,0.051,0.001,-0.090,-0.057,-0.079,0.004,0,0,242,0,242,1.278,0.000,0.000,1.000,1.000
95171,3.070,-2.384,-0.618,0.074,-0.206,-0.406,-0.056,-0.084,-0.003,1.695,0.096,-0.074,0.052,0.001,-0.074,-0.056,-0.082,0.001,0,0,242,0,242,1.276,0.000,0.000,1.000,1.000
95182,3.655,-2.218,-0.254,0.061,-0.064,-0.530,-0.055,-0.085,-0.008,1.695,0.096,-0.090,0.054,0.001,-0.090,-0.056,-0.084,-0.003,0,0,242,0,242,1.273,0.000,0.000,1.000,1.000
95193,3.905,-2.380,-0.050,0.029,0.029,-0.624,-0.055,-0.085,-0.015,1.695,0.096,-0.090,0.056,0.001,-0.074,-0.055,-0.085,-0.008,0,0,242,0,242,1.270,0.000,0.000,1.000,1.000
95204,4.064,-1.981,-0.121,0.006,0.095,-0.677,-0.055,-0.084,-0.021,1.695,0.096,-0.090,0.058,0.001,-0.090,-0.055,-0.085,-0.015,0,0,242,0,242,1.266,0.000,0.000,1.000,1.000
95215,4.218,-1.429,0.133,-0.022,0.170,-0.678,-0.055,-0.082,-0.028,1.695,0.096,-0.074,0.060,0.000,-0.106,-0.055,-0.084,-0.021,0,0,242,0,242,1.262,0.000,0.000,1.000,1.000
95226,3.984,-1.310,0.561,-0.055,0.241,-0.632,-0.055,-0.080,-0.035,1.695,0.096,-0.074,0.063,0.000,-0.090,-0.055,-0.082,-0.028,0,0,242,0,242,1.257,0.000,0.000,1.000,1.000
95237,4.216,-1.374,0.565,-0.078,0.276,-0.604,-0.056,-0.077,-0.041,1.695,0.096,-0.074,0.064,0.000,-0.090,-0.055,-0.080,-0.035,0,0,242,0,242,1.253,0.000,0.000,1.000,1.000
95248,4.569,-1.171,0.930,-0.104,0.290,-0.577,-0.057,-0.074,-0.046,1.695,0.096,-0.074,0.067,0.000,-0.074,-0.056,-0.077,-0.041,0,0,242,0,242,1.249,0.000,0.000,1.000,1.000
95259,4.727,-0.690,1.015,-0.108,0.264,-0.519,-0.058,-0.071,-0.052,1.695,0.096,-0.074,0.069,0.000,-0.090,-0.057,-0.074,-0.046,0,0,242,0,242,1.246,0.000,0.000,1.000,1.000
95270,4.827,-0.068,0.838,-0.111,0.241,-0.428,-0.059,-0.069,-0.056,1.695,0.096,-0.074,0.071,0.000,-0.074,-0.058,-0.071,-0.052,0,0,242,0,242,1.243,0.000,0.000,1.000,1.000
95281,4.881,0.674,0.908,-0.080,0.220,-0.308,-0.060,-0.067,-0.059,1.695,0.096,-0.074,0.073,-0.000,-0.074,-0.059,-0.069,-0.056,0,0,242,0,242,1.240,0.000,0.000,1.000,1.000
95292,5.002,0.397,1.254,-0.020,0.183,-0.169,-0.060,-0.065,-0.061,1.695,0.096,-0.090,0.076,-0.000,-0.074,-0.060,-0.067,-0.059,0,0,242,0,242,1.238,0.000,0.000,1.000,1.000
95303,4.987,-0.290,1.145,0.008,0.132,-0.046,-0.060,-0.064,-0.061,1.695,0.096,-0.074,0.077,-0.000,-0.074,-0.060,-0.065,-0.061,0,0,242,0,242,1.237,0.000,0.000,1.000,1.000
95314,4.853,-1.345,0.487,0.029,0.092,0.060,-0.060,-0.063,-0.060,1.695,0.096,-0.090,0.080,-0.000,-0.106,-0.060,-0.064,-0.061,0,0,242,0,242,1.237,0.000,0.000,1.000,1.000
95325,5.380,-1.162,0.780,0.019,0.076,0.103,-0.060,-0.062,-0.059,1.695,0.096,-0.074,0.082,-0.001,-0.058,-0.060,-0.063,-0.060,0,0,242,0,242,1.237,0.000,0.000,1.000,1.000
95336,4.728,-0.908,0.507,0.006,0.050,0.149,-0.060,-0.062,-0.058,1.695,0.096,-0.074,0.084,-0.001,-0.074,-0.060,-0.062,-0.059,0,0,242,0,242,1.238,0.000,0.000,1.000,1.000
95347,4.626,-0.546,0.291,0.011,0.048,0.197,-0.060,-0.061,-0.056,1.695,0.096,-0.074,0.086,-0.001,-0.090,-0.060,-0.062,-0.058,0,0,242,0,242,1.239,0.000,0.000,1.000,1.000
95358,5.173,-0.232,0.360,0.030,0.061,0.268,-0.060,-0.060,-0.053,1.695,0.096,-0.074,0.088,-0.001,-0.058,-0.060,-0.061,-0.056,0,0,242,0,242,1.240,0.000,0.000,1.000,1.000
95369,4.478,-0.744,0.098,0.061,0.077,0.326,-0.059,-0.060,-0.050,1.695,0.096,-0.090,0.090,-0.001,-0.074,-0.060,-0.060,-0.053,0,0,242,0,242,1.241,0.000,0.000,1.000,1.000
95380,3.742,-1.481,-0.039,0.096,0.114,0.323,-0.058,-0.059,-0.047,1.695,0.096,-0.074,0.093,-0.001,-0.074,-0.059,-0.060,-0.050,0,0,242,0,242,1.243,0.000,0.000,1.000,1.000
95391,3.589,-1.702,0.186,0.112,0.188,0.260,-0.057,-0.057,-0.044,1.695,0.096,-0.074,0.095,-0.001,-0.090,-0.058,-0.059,-0.047,0,0,242,0,242,1.246,0.000,0.000,1.000,1.000
95402,3.619,-1.853,0.869,0.091,0.296,0.043,-0.056,-0.054,-0.044,1.695,0.096,-0.090,0.097,-0.001,-0.090,-0.057,-0.057,-0.044,0,0,242,0,242,1.247,0.000,0.000,1.000,1.000
95413,3.879,-1.592,1.158,0.071,0.326,-0.039,-0.055,-0.050,-0.044,1.695,0.096,-0.074,0.099,-0.001,-0.090,-0.056,-0.054,-0.044,0,0,242,0,242,1.247,0.000,0.000,1.000,1.000
95424,3.727,-1.290,1.101,0.041,0.352,-0.108,-0.055,-0.047,-0.045,1.695,0.096,-0.074,0.101,-0.002,-0.074,-0.055,-0.050,-0.044,0,0,242,0,242,1.247,0.000,0.000,1.000,1.000
95435,3.584,-1.105,1.097,0.038,0.385,-0.160,-0.054,-0.043,-0.047,1.695,0.096,-0.106,0.103,-0.002,-0.235,-0.055,-0.047,-0.045,0,0,242,0,242,1.247,0.000,0.000,1.000,1.000
95446,3.545,-0.626,1.055,0.054,0.436,-0.194,-0.054,-0.039,-0.049,1.695,0.096,-0.074,0.106,-0.002,-0.090,-0.054,-0.043,-0.047,0,0,242,0,242,1.246,0.000,0.000,1.000,1.000
95457,3.157,-0.461,0.895,0.079,0.506,-0.231,-0.053,-0.034,-0.051,1.695,0.096,-0.090,0.108,-0.002,-0.074,-0.054,-0.039,-0.049,0,0,242,0,242,1.244,0.000,0.000,1.000,1.000
95468,3.223,-0.681,1.042,0.123,0.571,-0.272,-0.052,-0.028,-0.054,1.695,0.096,-0.090,0.110,-0.002,-0.090,-0.053,-0.034,-0.051,0,0,242,0,242,1.243,0.000,0.000,1.000,1.000
95479,3.915,-0.659,1.456,0.152,0.621,-0.293,-0.050,-0.022,-0.057,1.695,0.096,-0.090,0.112,-0.002,-0.090,-0.052,-0.028,-0.054,0,0,242,0,242,1.241,0.000,0.000,1.000,1.000
95490,3.873,-0.814,1.785,0.161,0.628,-0.294,-0.049,-0.015,-0.060,1.695,0.096,-0.074,0.114,-0.002,-0.090,-0.050,-0.022,-0.057,0,0,242,0,242,1.239,0.000,0.000,1.000,1.000
95501,4.431,-0.884,2.085,0.150,0.612,-0.277,-0.047,-0.009,-0.062,1.695,0.096,-0.074,0.116,-0.002,-0.058,-0.049,-0.015,-0.060,0,0,242,0,242,1.237,0.000,0.000,1.000,1.000
95512,4.472,-0.796,1.943,0.122,0.572,-0.264,-0.046,-0.004,-0.065,1.695,0.096,-0.090,0.118,-0.002,-0.090,-0.047,-0.009,-0.062,0,0,242,0,242,1.236,0.000,0.000,1.000,1.000
95523,4.430,-0.781,1.778,0.110,0.528,-0.247,-0.045,0.002,-0.068,1.695,0.096,-0.090,0.121,-0.003,-0.090,-0.046,-0.004,-0.065,0,0,242,0,242,1.234,0.000,0.000,1.000,1.000
95534,4.818,-0.352,1.572,0.118,0.487,-0.211,-0.044,0.007,-0.070,1.695,0.096,-0.090,0.123,-0.003,-0.074,-0.045,0.002,-0.068,0,0,242,0,242,1.232,0.000,0.000,1.000,1.000
95545,5.219,-0.393,1.529,0.126,0.442,-0.147,-0.043,0.011,-0.071,1.695,0.096,-0.090,0.125,-0.003,-0.074,-0.044,0.007,-0.070,0,0,242,0,242,1.231,0.000,0.000,1.000,1.000
95556,5.281,-0.975,1.654,0.138,0.376,-0.084,-0.041,0.015,-0.072,1.695,0.096,-0.090,0.127,-0.003,-0.074,-0.043,0.011,-0.071,0,0,242,0,242,1.230,0.000,0.000,1.000,1.000
95567,5.582,-0.643,1.869,0.128,0.297,-0.010,-0.040,0.018,-0.072,1.695,0.096,-0.074,0.129,-0.003,-0.058,-0.041,0.015,-0.072,0,0,242,0,242,1.230,0.000,0.000,1.000,1.000
95578,5.079,-0.646,1.481,0.128,0.150,0.151,-0.039,0.019,-0.070,1.695,0.096,-0.074,0.131,-0.003,-0.090,-0.040,0.018,-0.072,0,0,242,0,242,1.230,0.000,0.000,1.000,1.000
95589,4.995,-0.795,1.326,0.137,0.105,0.200,-0.037,0.020,-0.068,1.695,0.096,-0.074,0.134,-0.004,-0.074,-0.039,0.019,-0.070,0,0,242,0,242,1.231,0.000,0.000,1.000,1.000
95600,4.652,-0.716,1.079,0.143,0.084,0.215,-0.036,0.021,-0.066,1.695,0.096,-0.058,0.136,-0.004,-0.074,-0.037,0.020,-0.068,0,0,242,0,242,1.232,0.000,0.000,1.000,1.000
95611,4.683,-0.915,1.273,0.157,0.062,0.210,-0.034,0.022,-0.064,1.695,0.096,-0.058,0.138,-0.004,-0.090,-0.036,0.021,-0.066,0,0,242,0,242,1.233,0.000,0.000,1.000,1.000
95622,5.024,-1.149,1.494,0.150,0.040,0.208,-0.033,0.022,-0.062,1.695,0.096,-0.090,0.140,-0.004,-0.090,-0.034,0.022,-0.064,0,0,242,0,242,1.235,1.000,0.000,1.000,0.000
95633,4.875,-1.176,1.155,0.124,0.009,0.200,-0.031,0.022,-0.060,1.695,0.096,-0.074,0.142,-0.004,-0.074,-0.033,0.022,-0.062,0,0,242,0,242,1.236,1.000,0.000,1.000,0.000
95644,4.741,-1.131,0.940,0.116,-0.002,0.195,-0.030,0.022,-0.058,1.695,0.096,-0.090,0.144,-0.004,-0.074,-0.031,0.022,-0.060,0,0,242,0,242,1.237,1.000,0.000,1.000,0.000
95655,4.928,-0.886,0.930,0.110,0.009,0.204,-0.029,0.022,-0.056,1.695,0.096,-0.058,0.147,-0.004,-0.090,-0.030,0.022,-0.058,0,0,242,0,242,1.238,1.000,0.000,1.000,0.000
95666,4.451,-1.464,0.780,0.111,0.021,0.162,-0.028,0.022,-0.054,1.695,0.096,-0.074,0.149,-0.004,-0.090,-0.029,0.022,-0.056,0,0,242,0,242,1.240,1.000,0.000,1.000,0.000
95677,4.610,-1.247,1.091,0.118,0.055,0.110,-0.027,0.023,-0.053,1.695,0.096,-0.074,0.151,-0.005,-0.090,-0.028,0.022,-0.054,0,0,242,0,242,1.241,1.000,0.000,1.000,0.000
95688,4.335,-1.255,1.143,0.111,0.055,0.045,-0.026,0.023,-0.053,1.695,0.096,-0.090,0.153,-0.005,-0.074,-0.027,0.023,-0.053,0,0,242,0,242,1.241,1.000,0.000,1.000,0.000
95699,4.459,-1.306,1.247,0.110,0.050,-0.013,-0.025,0.024,-0.053,1.695,0.096,-0.090,0.155,-0.005,-0.090,-0.026,0.023,-0.053,0,0,242,0,242,1.242,1.000,0.000,1.000,0.000
95710,4.674,-0.601,1.529,0.105,0.054,-0.042,-0.024,0.024,-0.053,1.695,0.096,-0.090,0.157,-0.005,-0.090,-0.025,0.024,-0.053,0,0,242,0,242,1.242,1.000,0.000,1.000,0.000
95721,4.488,-0.600,1.594,0.102,0.042,-0.046,-0.023,0.025,-0.054,1.695,0.096,-0.090,0.158,-0.005,-0.074,-0.024,0.024,-0.053,0,0,242,0,242,1.241,1.000,0.000,1.000,0.000
95732,4.707,-0.678,1.374,0.107,0.022,-0.042,-0.022,0.025,-0.054,1.695,0.096,-0.074,0.160,-0.005,-0.074,-0.023,0.025,-0.054,0,0,242,0,242,1.241,1.000,0.000,1.000,0.000
95743,5.064,-0.725,1.559,0.104,0.011,-0.017,-0.021,0.025,-0.055,1.695,0.096,-0.074,0.162,-0.005,-0.090,-0.022,0.025,-0.054,0,0,242,0,242,1.241,1.000,0.000,1.000,0.000
95754,4.668,-0.993,1.537,0.104,-0.011,-0.006,-0.020,0.025,-0.055,1.695,0.096,-0.074,0.164,-0.005,-0.074,-0.021,0.025,-0.055,0,0,242,0,242,1.241,1.000,0.000,1.000,0.000
95765,4.933,-0.796,1.627,0.089,-0.067,-0.021,-0.019,0.024,-0.055,1.695,0.096,-0.090,0.167,-0.005,-0.106,-0.020,0.025,-0.055,0,0,242,0,242,1.241,1.000,0.000,1.000,0.000
95776,4.678,-0.733,1.774,0.082,-0.101,-0.017,-0.018,0.023,-0.055,1.695,0.096,-0.090,0.169,-0.006,-0.090,-0.019,0.024,-0.055,0,0,242,0,242,1.240,1.000,0.000,1.000,0.000
95787,4.753,-0.577,1.797,0.077,-0.136,0.001,-0.017,0.022,-0.055,1.695,0.096,-0.074,0.171,-0.006,-0.074,-0.018,0.023,-0.055,0,0,242,0,242,1.240,1.000,0.000,1.000,0.000
95798,5.110,-0.534,1.717,0.058,-0.165,0.039,-0.016,0.020,-0.055,1.695,0.096,-0.074,0.173,-0.006,-0.090,-0.017,0.022,-0.055,0,0,242,0,242,1.240,1.000,0.000,1.000,0.000
95809,4.897,-0.853,1.375,0.052,-0.194,0.076,-0.016,0.018,-0.054,1.695,0.096,-0.090,0.175,-0.006,-0.074,-0.016,0.020,-0.055,0,0,242,0,242,1.241,1.000,0.000,1.000,0.000
95820,4.989,-1.122,1.348,0.044,-0.213,0.111,-0.015,0.016,-0.053,1.695,0.096,-0.074,0.177,-0.006,-0.090,-0.016,0.018,-0.054,0,0,242,0,242,1.241,1.000,0.000,1.000,0.000
95831,5.135,-0.905,1.331,0.023,-0.224,0.143,-0.015,0.014,-0.051,1.695,0.096,-0.074,0.180,-0.006,-0.074,-0.015,0.016,-0.053,0,0,242,0,242,1.242,1.000,0.000,1.000,0.000
95842,4.772,-1.093,1.216,0.016,-0.241,0.165,-0.015,0.012,-0.050,1.695,0.096,-0.058,0.182,-0.006,-0.090,-0.015,0.014,-0.051,0,0,242,0,242,1.243,1.000,0.000,1.000,0.000
95853,5.075,-1.255,1.346,-0.010,-0.264,0.182,-0.015,0.009,-0.048,1.695,0.096,-0.074,0.184,-0.006,-0.090,-0.015,0.012,-0.050,0,0,242,0,242,1.244,1.000,0.000,1.000,0.000
95864,4.625,-1.259,1.051,-0.023,-0.279,0.178,-0.015,0.006,-0.046,1.695,0.096,-0.090,0.186,-0.006,-0.090,-0.015,0.009,-0.048,0,0,242,0,242,1.245,1.000,0.000,1.000,0.000
95875,4.723,-1.406,0.921,-0.028,-0.272,0.172,-0.016,0.004,-0.044,1.695,0.096,-0.074,0.188,-0.007,-0.074,-0.015,0.006,-0.046,0,0,242,0,242,1.246,1.000,0.000,1.000,0.000
95886,4.807,-1.295,0.883,-0.037,-0.250,0.166,-0.016,0.001,-0.043,1.695,0.096,-0.090,0.190,-0.007,-0.074,-0.016,0.004,-0.044,0,0,242,0,242,1.247,1.000,0.000,1.000,0.000
95897,4.404,-1.359,0.643,-0.034,-0.227,0.148,-0.016,-0.001,-0.041,1.695,0.096,-0.090,0.193,-0.007,-0.106,-0.016,0.001,-0.043,0,0,242,0,242,1.248,1.000,0.000,1.000,0.000
95908,4.588,-1.456,0.553,-0.020,-0.195,0.123,-0.017,-0.003,-0.040,1.695,0.096,-0.090,0.194,-0.007,-0.090,-0.016,-0.001,-0.041,0,0,242,0,242,1.249,1.000,0.000,1.000,0.000
95919,4.680,-1.281,0.661,-0.005,-0.151,0.104,-0.017,-0.005,-0.039,1.695,0.096,-0.074,0.197,-0.007,-0.074,-0.017,-0.003,-0.040,0,0,242,0,242,1.250,1.000,0.000,1.000,0.000
95930,4.502,-1.350,0.657,0.012,-0.126,0.076,-0.016,-0.006,-0.038,1.695,0.096,-0.074,0.199,-0.007,-0.090,-0.017,-0.005,-0.039,0,0,242,0,242,1.251,1.000,0.000,1.000,0.000
95941,4.829,-1.107,1.188,0.025,-0.089,0.050,-0.016,-0.007,-0.038,1.695,0.096,-0.090,0.201,-0.007,-0.074,-0.016,-0.006,-0.038,0,0,242,0,242,1.251,1.000,0.000,1.000,0.000
95952,4.577,-1.000,1.133,0.023,-0.087,0.054,-0.016,-0.008,-0.037,1.695,0.096,-0.074,0.203,-0.007,-0.090,-0.016,-0.007,-0.038,0,0,242,0,242,1.251,1.000,0.000,1.000,0.000
95963,4.660,-1.182,1.116,0.025,-0.082,0.067,-0.016,-0.009,-0.036,1.695,0.096,-0.074,0.206,-0.007,-0.090,-0.016,-0.008,-0.037,0,0,242,0,242,1.252,1.000,0.000,1.000,0.000
95974,4.874,-1.073,1.170,0.016,-0.070,0.086,-0.016,-0.009,-0.036,1.695,0.096,-0.090,0.207,-0.007,-0.074,-0.016,-0.009,-0.036,0,0,242,0,242,1.252,1.000,0.000,1.000,0.000
95985,4.594,-1.162,0.996,0.014,-0.066,0.090,-0.015,-0.010,-0.035,1.695,0.096,-0.090,0.210,-0.007,-0.090,-0.016,-0.009,-0.036,0,0,242,0,242,1.253,1.000,0.000,1.000,0.000
95996,4.848,-1.312,1.226,0.018,-0.070,0.093,-0.015,-0.011,-0.034,1.695,0.096,-0.074,0.212,-0.007,-0.090,-0.015,-0.010,-0.035,0,0,242,0,242,1.253,1.000,0.000,1.000,0.000
96007,5.383,-1.079,1.578,0.006,-0.094,0.108,-0.015,-0.012,-0.033,1.695,0.096,-0.090,0.214,-0.008,-0.074,-0.015,-0.011,-0.034,0,0,242,0,242,1.254,1.000,0.000,1.000,0.000
96018,5.031,-1.103,1.455,0.005,-0.144,0.123,-0.015,-0.013,-0.031,1.695,0.096,-0.058,0.216,-0.008,-0.074,-0.015,-0.012,-0.033,0,0,242,0,242,1.254,1.000,0.000,1.000,0.000
96029,5.165,-0.762,1.571,0.014,-0.221,0.161,-0.015,-0.015,-0.030,1.695,0.096,-0.090,0.218,-0.008,-0.074,-0.015,-0.013,-0.031,0,0,242,0,242,1.255,1.000,0.000,1.000,0.000
96040,4.717,-0.768,1.378,0.032,-0.255,0.184,-0.015,-0.018,-0.028,1.695,0.096,-0.090,0.220,-0.008,-0.074,-0.015,-0.015,-0.030,0,0,242,0,242,1.256,1.000,0.000,1.000,0.000
96051,4.798,-1.127,1.408,0.055,-0.277,0.199,-0.014,-0.021,-0.026,1.695,0.096,-0.074,0.223,-0.008,-0.090,-0.015,-0.018,-0.028,0,0,242,0,242,1.257,1.000,0.000,1.000,0.000
96062,4.887,-1.232,1.514,0.066,-0.292,0.197,-0.014,-0.023,-0.024,1.695,0.096,-0.090,0.225,-0.008,-0.074,-0.014,-0.021,-0.026,0,0,242,0,242,1.259,1.000,0.000,1.000,0.000
96073,4.397,-1.479,1.384,0.077,-0.309,0.173,-0.013,-0.027,-0.022,1.695,0.096,-0.074,0.227,-0.008,-0.090,-0.014,-0.023,-0.024,0,0,242,0,242,1.260,1.000,0.000,1.000,0.000
96084,4.477,-1.688,1.401,0.083,-0.320,0.133,-0.012,-0.030,-0.021,1.695,0.096,-0.090,0.229,-0.008,-0.090,-0.013,-0.027,-0.022,0,0,242,0,242,1.261,1.000,0.000,1.000,0.000
96095,4.611,-1.497,1.505,0.076,-0.316,0.099,-0.011,-0.033,-0.020,1.695,0.096,-0.074,0.231,-0.008,-0.074,-0.012,-0.030,-0.021,0,0,242,0,242,1.262,1.000,0.000,1.000,0.000
96106,4.268,-1.534,1.309,0.076,-0.320,0.067,-0.010,-0.036,-0.019,1.695,0.096,-0.074,0.233,-0.008,-0.090,-0.011,-0.033,-0.020,0,0,242,0,242,1.262,1.000,0.000,1.000,0.000
96117,4.506,-1.509,1.094,0.083,-0.287,0.023,-0.010,-0.039,-0.019,1.695,0.096,-0.058,0.236,-0.008,-0.074,-0.010,-0.036,-0.019,0,0,242,0,242,1.263,1.000,0.000,1.000,0.000
96128,4.233,-1.628,0.905,0.099,-0.264,0.004,-0.009,-0.042,-0.019,1.695,0.096,-0.090,0.238,-0.008,-0.074,-0.010,-0.039,-0.019,0,0,242,0,242,1.263,1.000,0.000,1.000,0.000
96139,4.387,-1.741,0.937,0.126,-0.235,-0.016,-0.007,-0.044,-0.019,1.695,0.096,-0.058,0.240,-0.008,-0.090,-0.009,-0.042,-0.019,0,0,242,0,242,1.263,1.000,0.000,1.000,0.000
96150,4.604,-1.637,1.037,0.139,-0.206,-0.027,-0.006,-0.046,-0.019,1.695,0.096,-0.090,0.242,-0.008,-0.090,-0.007,-0.044,-0.019,0,0,242,0,242,1.263,1.000,0.000,1.000,0.000
96161,4.413,-1.796,0.973,0.152,-0.191,-0.042,-0.004,-0.048,-0.020,1.695,0.096,-0.090,0.244,-0.008,-0.090,-0.006,-0.046,-0.019,0,0,242,0,242,1.263,1.000,0.000,1.000,0.000
96172,4.788,-1.893,1.114,0.159,-0.186,-0.045,-0.003,-0.050,-0.020,1.695,0.096,-0.074,0.246,-0.008,-0.090,-0.004,-0.048,-0.020,0,0,242,0,242,1.262,1.000,0.000,1.000,0.000
96183,4.973,-1.552,1.112,0.149,-0.187,-0.033,-0.001,-0.052,-0.021,1.695,0.096,-0.090,0.248,-0.008,-0.090,-0.003,-0.050,-0.020,0,0,242,0,242,1.262,1.000,0.000,1.000,0.000
96194,4.690,-1.652,0.822,0.151,-0.199,-0.015,0.000,-0.054,-0.021,1.695,0.096,-0.074,0.251,-0.008,-0.074,-0.001,-0.052,-0.021,0,0,242,0,242,1.262,1.000,0.000,1.000,0.000
96205,4.798,-1.362,0.835,0.172,-0.183,0.037,0.002,-0.055,-0.020,1.695,0.096,-0.058,0.253,-0.008,-0.074,0.000,-0.054,-0.021,0,0,242,0,242,1.262,1.000,0.000,1.000,0.000
96216,4.379,-1.645,0.626,0.196,-0.178,0.050,0.004,-0.057,-0.020,1.695,0.096,-0.074,0.255,-0.008,-0.090,0.002,-0.055,-0.020,0,0,242,0,242,1.262,1.000,0.000,1.000,0.000
96227,4.514,-1.952,0.700,0.212,-0.162,0.048,0.006,-0.059,-0.019,1.695,0.096,-0.074,0.257,-0.009,-0.090,0.004,-0.057,-0.020,0,0,242,0,242,1.262,1.000,0.000,1.000,0.000
96238,4.405,-1.503,0.868,0.216,-0.139,0.039,0.008,-0.060,-0.019,1.695,0.096,-0.090,0.259,-0.009,-0.090,0.006,-0.059,-0.019,0,0,242,0,242,1.263,1.000,0.000,1.000,0.000
96249,4.074,-1.668,0.830,0.222,-0.133,0.023,0.010,-0.062,-0.019,1.695,0.096,-0.058,0.261,-0.009,-0.058,0.008,-0.060,-0.019,0,0,242,0,242,1.263,1.000,0.000,1.000,0.000
96260,4.368,-1.828,1.065,0.217,-0.125,0.009,0.013,-0.063,-0.019,1.695,0.096,-0.090,0.264,-0.009,-0.074,0.010,-0.062,-0.019,0,0,242,0,242,1.263,1.000,0.000,1.000,0.000
96271,4.360,-1.476,1.015,0.204,-0.111,0.002,0.015,-0.064,-0.019,1.695,0.096,-0.074,0.265,-0.009,-0.074,0.013,-0.063,-0.019,0,0,242,0,242,1.263,1.000,0.000,1.000,0.000
96282,4.169,-1.595,0.878,0.199,-0.110,-0.002,0.017,-0.065,-0.019,1.695,0.096,-0.074,0.266,-0.009,-0.074,0.015,-0.064,-0.019,0,0,242,0,242,1.263,1.000,0.000,1.000,0.000
96293,4.208,-1.356,0.939,0.190,-0.086,-0.011,0.018,-0.066,-0.019,1.695,0.096,-0.074,0.269,-0.009,-0.074,0.017,-0.065,-0.019,0,0,242,0,242,1.263,1.000,0.000,1.000,0.000
96304,4.019,-1.591,1.041,0.189,-0.084,-0.029,0.020,-0.067,-0.019,1.695,0.096,-0.090,0.271,-0.009,-0.074,0.018,-0.066,-0.019,0,0,242,0,242,1.263,1.000,0.000,1.000,0.000
96315,4.110,-1.566,1.248,0.185,-0.077,-0.054,0.022,-0.068,-0.020,1.695,0.096,-0.074,0.273,-0.009,-0.058,0.020,-0.067,-0.019,0,0,242,0,242,1.263,1.000,0.000,1.000,0.000
96326,4.069,-1.319,1.201,0.166,-0.077,-0.076,0.024,-0.068,-0.021,1.695,0.096,-0.074,0.275,-0.009,-0.042,0.022,-0.068,-0.020,0,0,242,0,242,1.263,1.000,0.000,1.000,0.000
96337,3.734,-1.392,1.023,0.163,-0.067,-0.095,0.025,-0.069,-0.021,1.695,0.096,-0.074,0.278,-0.009,-0.074,0.024,-0.068,-0.021,0,0,242,0,242,1.262,1.000,0.000,1.000,0.000
96348,4.025,-1.320,1.138,0.156,-0.045,-0.101,0.027,-0.069,-0.022,1.695,0.096,-0.074,0.279,-0.009,-0.106,0.025,-0.069,-0.021,0,0,242,0,242,1.261,1.000,0.000,1.000,0.000
96359,3.995,-1.137,1.182,0.144,-0.024,-0.101,0.028,-0.070,-0.023,1.695,0.096,-0.090,0.282,-0.009,-0.074,0.027,-0.069,-0.022,0,0,242,0,242,1.261,1.000,0.000,1.000,0.000
96370,3.767,-1.337,1.210,0.138,-0.011,-0.105,0.030,-0.070,-0.025,1.695,0.096,-0.090,0.284,-0.009,-0.090,0.028,-0.070,-0.023,0,0,242,0,242,1.260,1.000,0.000,1.000,0.000
96381,4.014,-1.095,1.378,0.105,0.007,-0.093,0.031,-0.070,-0.025,1.695,0.096,-0.074,0.286,-0.009,-0.090,0.030,-0.070,-0.025,0,0,242,0,242,1.260,1.000,0.000,1.000,0.000
96392,3.952,-1.385,1.292,0.091,0.009,-0.086,0.032,-0.070,-0.026,1.695,0.096,-0.074,0.288,-0.009,-0.074,0.031,-0.070,-0.025,0,0,242,0,242,1.259,1.000,0.000,1.000,0.000
96403,4.418,-1.351,1.514,0.063,0.017,-0.062,0.032,-0.070,-0.027,1.695,0.096,-0.074,0.291,-0.009,-0.074,0.032,-0.070,-0.026,0,0,242,0,242,1.258,1.000,0.000,1.000,0.000
96414,4.325,-1.278,1.348,0.023,0.012,-0.027,0.033,-0.070,-0.027,1.695,0.096,-0.074,0.292,-0.009,-0.058,0.032,-0.070,-0.027,0,0,242,0,242,1.258,1.000,0.000,1.000,0.000
96425,4.247,-1.630,1.231,-0.006,0.009,0.005,0.033,-0.070,-0.027,1.695,0.096,-0.058,0.295,-0.009,-0.074,0.033,-0.070,-0.027,0,0,242,0,242,1.258,1.000,0.000,1.000,0.000
96436,4.603,-1.569,1.364,-0.039,0.012,0.039,0.032,-0.069,-0.027,1.695,0.096,-0.090,0.297,-0.009,-0.074,0.033,-0.070,-0.027,0,0,242,0,242,1.258,1.000,0.000,1.000,0.000
96447,4.376,-1.422,1.179,-0.071,0.006,0.068,0.032,-0.069,-0.026,1.695,0.096,-0.058,0.299,-0.009,-0.090,0.032,-0.069,-0.027,0,0,242,0,242,1.258,1.000,0.000,1.000,0.000
96458,4.198,-1.690,0.957,-0.086,0.001,0.084,0.031,-0.069,-0.025,1.695,0.096,-0.106,0.301,-0.010,-0.106,0.032,-0.069,-0.026,0,0,242,0,242,1.259,1.000,0.000,1.000,0.000
96469,4.309,-1.377,0.979,-0.108,0.011,0.115,0.030,-0.069,-0.024,1.695,0.096,-0.106,0.304,-0.010,-0.090,0.031,-0.069,-0.025,0,0,242,0,242,1.259,1.000,0.000,1.000,0.000
96480,4.215,-1.720,0.744,-0.105,0.011,0.126,0.029,-0.069,-0.023,1.695,0.096,-0.074,0.305,-0.010,-0.090,0.030,-0.069,-0.024,0,0,242,0,242,1.260,1.000,0.000,1.000,0.000
96491,4.522,-1.670,0.717,-0.103,0.029,0.133,0.028,-0.069,-0.022,1.695,0.096,-0.058,0.308,-0.010,-0.074,0.029,-0.069,-0.023,0,0,242,0,242,1.261,1.000,0.000,1.000,0.000
96502,4.287,-1.598,0.524,-0.098,0.046,0.138,0.027,-0.068,-0.020,1.695,0.096,-0.090,0.310,-0.010,-0.074,0.028,-0.069,-0.022,0,0,242,0,242,1.261,1.000,0.000,1.000,0.000
96513,4.238,-1.812,0.492,-0.078,0.064,0.136,0.026,-0.068,-0.019,1.695,0.096,-0.090,0.312,-0.010,-0.074,0.027,-0.068,-0.020,0,0,242,0,242,1.262,1.000,0.000,1.000,0.000
96524,4.398,-1.685,0.577,-0.059,0.092,0.130,0.025,-0.067,-0.018,1.695,0.096,-0.074,0.314,-0.010,-0.090,0.026,-0.068,-0.019,0,0,242,0,242,1.263,1.000,0.000,1.000,0.000
96535,4.150,-1.560,0.469,-0.037,0.115,0.117,0.025,-0.066,-0.016,1.695,0.096,-0.074,0.316,-0.010,-0.074,0.025,-0.067,-0.018,0,0,242,0,242,1.264,1.000,0.000,1.000,0.000
96546,4.107,-1.792,0.524,-0.005,0.137,0.100,0.025,-0.064,-0.015,1.695,0.096,-0.074,0.318,-0.010,-0.090,0.025,-0.066,-0.016,0,0,242,0,242,1.265,1.000,0.000,1.000,0.000
96557,4.291,-1.617,0.815,0.019,0.181,0.082,0.025,-0.063,-0.015,1.695,0.096,-0.090,0.321,-0.010,-0.074,0.025,-0.064,-0.015,0,0,242,0,242,1.265,1.000,0.000,1.000,0.000
96568,4.424,-1.879,0.980,0.032,0.183,0.078,0.025,-0.061,-0.014,1.695,0.096,-0.090,0.323,-0.010,-0.090,0.025,-0.063,-0.015,0,0,242,0,242,1.266,1.000,0.000,1.000,0.000
96579,4.790,-1.806,1.309,0.023,0.181,0.083,0.026,-0.059,-0.013,1.695,0.096,-0.074,0.325,-0.010,-0.074,0.025,-0.061,-0.014,0,0,242,0,242,1.266,1.000,0.000,1.000,0.000
96590,4.611,-1.738,1.320,0.013,0.159,0.086,0.026,-0.057,-0.012,1.695,0.096,-0.058,0.327,-0.010,-0.090,0.026,-0.059,-0.013,0,0,242,0,242,1.267,1.000,0.000,1.000,0.000
96601,4.619,-1.948,1.261,0.011,0.132,0.088,0.026,-0.056,-0.011,1.695,0.096,-0.090,0.329,-0.010,-0.090,0.026,-0.057,-0.012,0,0,242,0,242,1.267,1.000,0.000,1.000,0.000
96612,4.886,-1.798,1.371,0.002,0.121,0.099,0.026,-0.055,-0.010,1.695,0.096,-0.090,0.331,-0.010,-0.074,0.026,-0.056,-0.011,0,0,242,0,242,1.268,1.000,0.000,1.000,0.000
96623,4.630,-1.692,1.441,-0.004,0.106,0.110,0.026,-0.054,-0.009,1.695,0.096,-0.058,0.334,-0.010,-0.074,0.026,-0.055,-0.010,0,0,242,0,242,1.269,1.000,0.000,1.000,0.000
96634,4.491,-1.837,1.432,-0.001,0.087,0.121,0.026,-0.053,-0.008,1.695,0.096,-0.058,0.336,-0.010,-0.074,0.026,-0.054,-0.009,0,0,242,0,242,1.269,1.000,0.000,1.000,0.000
96645,4.250,-1.880,1.090,-0.008,0.084,0.125,0.026,-0.052,-0.007,1.695,0.096,-0.090,0.338,-0.010,-0.058,0.026,-0.053,-0.008,0,0,242,0,242,1.270,1.000,0.000,1.000,0.000
96656,4.193,-2.146,1.061,0.012,0.095,0.099,0.026,-0.051,-0.006,1.695,0.096,-0.074,0.340,-0.010,-0.090,0.026,-0.052,-0.007,0,0,242,0,242,1.271,1.000,0.000,1.000,0.000
96667,4.341,-1.847,1.035,0.022,0.111,0.066,0.026,-0.050,-0.005,1.695,0.096,-0.090,0.342,-0.010,-0.090,0.026,-0.051,-0.006,0,0,242,0,242,1.271,1.000,0.000,1.000,0.000
96678,4.050,-1.761,0.931,0.035,0.126,0.029,0.027,-0.049,-0.005,1.695,0.096,-0.074,0.344,-0.010,-0.074,0.026,-0.050,-0.005,0,0,242,0,242,1.272,1.000,0.000,1.000,0.000
96689,4.212,-1.861,1.126,0.057,0.138,-0.004,0.027,-0.047,-0.005,1.695,0.096,-0.090,0.347,-0.010,-0.090,0.027,-0.049,-0.005,0,0,242,0,242,1.272,1.000,0.000,1.000,0.000
96700,4.399,-1.530,1.130,0.073,0.151,-0.018,0.028,-0.046,-0.005,1.695,0.096,-0.074,0.349,-0.010,-0.090,0.027,-0.047,-0.005,0,0,242,0,242,1.272,1.000,0.000,1.000,0.000
96711,4.272,-1.796,0.962,0.087,0.159,-0.034,0.029,-0.044,-0.005,1.695,0.096,-0.090,0.351,-0.010,-0.090,0.028,-0.046,-0.005,0,0,242,0,242,1.272,1.000,0.000,1.000,0.000
96722,4.230,-2.224,1.011,0.107,0.172,-0.057,0.030,-0.042,-0.006,1.695,0.096,-0.074,0.353,-0.010,-0.090,0.029,-0.044,-0.005,0,0,242,0,242,1.272,1.000,0.000,1.000,0.000
96733,4.573,-2.370,0.999,0.104,0.175,-0.083,0.031,-0.041,-0.007,1.695,0.096,-0.074,0.355,-0.010,-0.074,0.030,-0.042,-0.006,0,0,242,0,242,1.271,1.000,0.000,1.000,0.000
96744,4.398,-2.258,1.220,0.106,0.165,-0.148,0.032,-0.039,-0.008,1.695,0.096,-0.090,0.356,-0.010,-0.058,0.031,-0.041,-0.007,0,0,242,0,242,1.271,1.000,0.000,1.000,0.000
96755,4.769,-1.791,1.454,0.100,0.149,-0.161,0.033,-0.038,-0.010,1.695,0.096,-0.090,0.359,-0.010,-0.058,0.032,-0.039,-0.008,0,0,242,0,242,1.270,1.000,0.000,1.000,0.000
96766,4.631,-1.740,1.381,0.091,0.123,-0.153,0.034,-0.036,-0.011,1.695,0.096,-0.090,0.361,-0.010,-0.090,0.033,-0.038,-0.010,0,0,242,0,242,1.269,1.000,0.000,1.000,0.000
96777,4.647,-1.725,1.439,0.094,0.092,-0.131,0.035,-0.035,-0.013,1.695,0.096,-0.074,0.363,-0.010,-0.074,0.034,-0.036,-0.011,0,0,242,0,242,1.268,1.000,0.000,1.000,0.000
96788,4.928,-1.556,1.555,0.083,0.062,-0.090,0.036,-0.035,-0.013,1.695,0.096,-0.090,0.365,-0.010,-0.074,0.035,-0.035,-0.013,0,0,242,0,242,1.267,1.000,0.000,1.000,0.000
96799,4.605,-1.665,1.345,0.074,0.028,-0.057,0.036,-0.035,-0.014,1.695,0.096,-0.090,0.367,-0.010,-0.058,0.036,-0.035,-0.013,0,0,242,0,242,1.267,1.000,0.000,1.000,0.000
96810,4.606,-2.015,1.214,0.073,-0.005,-0.042,0.037,-0.035,-0.014,1.695,0.096,-0.090,0.370,-0.010,-0.106,0.036,-0.035,-0.014,0,0,242,0,242,1.266,1.000,0.000,1.000,0.000
96821,4.707,-1.897,1.118,0.067,-0.021,-0.029,0.038,-0.035,-0.015,1.695,0.096,-0.074,0.370,-0.010,-0.090,0.037,-0.035,-0.014,0,0,242,0,242,1.266,1.000,0.000,1.000,0.000
96832,4.452,-1.624,1.057,0.080,-0.048,-0.023,0.038,-0.035,-0.015,1.695,0.096,-0.090,0.372,-0.010,-0.090,0.038,-0.035,-0.015,0,0,242,0,242,1.266,1.000,0.000,1.000,0.000
96843,4.604,-1.257,1.232,0.084,-0.051,-0.001,0.039,-0.036,-0.015,1.695,0.096,-0.074,0.375,-0.010,-0.090,0.038,-0.035,-0.015,0,0,242,0,242,1.266,1.000,0.000,1.000,0.000
96854,4.281,-1.137,1.144,0.091,-0.064,0.020,0.040,-0.036,-0.015,1.695,0.096,-0.090,0.377,-0.010,-0.074,0.039,-0.036,-0.015,0,0,242,0,242,1.266,1.000,0.000,1.000,0.000
96865,4.301,-1.400,1.274,0.109,-0.072,0.038,0.041,-0.037,-0.014,1.695,0.096,-0.090,0.379,-0.011,-0.090,0.040,-0.036,-0.015,0,0,242,0,242,1.266,1.000,0.000,1.000,0.000
96876,4.423,-1.302,1.375,0.109,-0.075,0.048,0.042,-0.038,-0.014,1.695,0.096,-0.074,0.381,-0.011,-0.074,0.041,-0.037,-0.014,0,0,242,0,242,1.266,1.000,0.000,1.000,0.000
96887,4.046,-1.389,1.180,0.106,-0.083,0.042,0.043,-0.039,-0.014,1.695,0.096,-0.074,0.383,-0.011,-0.074,0.042,-0.038,-0.014,0,0,242,0,242,1.266,1.000,0.000,1.000,0.000
96898,4.119,-1.500,1.271,0.107,-0.081,0.028,0.045,-0.039,-0.013,1.695,0.096,-0.074,0.385,-0.011,-0.090,0.043,-0.039,-0.014,0,0,242,0,242,1.266,1.000,0.000,1.000,0.000
96909,4.469,-1.495,1.520,0.090,-0.081,0.022,0.045,-0.040,-0.013,1.695,0.096,-0.074,0.388,-0.011,-0.090,0.045,-0.039,-0.013,0,0,242,0,242,1.267,1.000,0.000,1.000,0.000
96920,4.272,-1.718,1.309,0.054,-0.098,0.011,0.046,-0.041,-0.013,1.695,0.096,-0.074,0.390,-0.011,-0.074,0.045,-0.040,-0.013,0,0,242,0,242,1.267,1.000,0.000,1.000,0.000
96931,4.558,-1.661,1.451,0.029,-0.097,0.012,0.046,-0.042,-0.013,1.695,0.096,-0.090,0.392,-0.011,-0.090,0.046,-0.041,-0.013,0,0,242,0,242,1.267,1.000,0.000,1.000,0.000
96942,4.201,-1.858,1.100,0.008,-0.112,0.002,0.046,-0.043,-0.013,1.695,0.096,-0.090,0.394,-0.011,-0.074,0.046,-0.042,-0.013,0,0,242,0,242,1.267,1.000,0.000,1.000,0.000
96953,4.256,-2.112,1.120,-0.008,-0.116,-0.020,0.046,-0.044,-0.013,1.695,0.096,-0.074,0.396,-0.011,-0.074,0.046,-0.043,-0.013,0,0,242,0,242,1.267,1.000,0.000,1.000,0.000
96964,4.518,-1.853,1.255,-0.031,-0.114,-0.037,0.046,-0.046,-0.013,1.695,0.096,-0.090,0.398,-0.011,-0.074,0.046,-0.044,-0.013,0,0,242,0,242,1.267,1.000,0.000,1.000,0.000
96975,4.150,-1.684,1.022,-0.045,-0.120,-0.050,0.045,-0.047,-0.014,1.695,0.096,-0.090,0.401,-0.011,-0.090,0.046,-0.046,-0.013,0,0,242,0,242,1.267,1.000,0.000,1.000,0.000
96986,4.179,-1.891,0.972,-0.044,-0.112,-0.061,0.045,-0.048,-0.014,1.695,0.096,-0.090,0.403,-0.011,-0.074,0.045,-0.047,-0.014,0,0,242,0,242,1.266,1.000,0.000,1.000,0.000
96997,4.439,-1.639,1.102,-0.047,-0.095,-0.061,0.045,-0.049,-0.015,1.695,0.096,-0.074,0.405,-0.011,-0.074,0.045,-0.048,-0.014,0,0,242,0,242,1.266,1.000,0.000,1.000,0.000
97008,4.259,-1.859,0.931,-0.027,-0.067,-0.057,0.044,-0.050,-0.016,1.695,0.096,-0.074,0.407,-0.011,-0.090,0.045,-0.049,-0.015,0,0,242,0,242,1.266,1.000,0.000,1.000,0.000
97019,4.553,-1.735,1.124,-0.030,-0.050,-0.049,0.044,-0.050,-0.016,1.695,0.096,-0.090,0.409,-0.011,-0.090,0.044,-0.050,-0.016,0,0,242,0,242,1.265,1.000,0.000,1.000,0.000
97030,4.234,-1.960,1.022,-0.027,-0.050,-0.046,0.044,-0.051,-0.017,1.695,0.096,-0.090,0.411,-0.011,-0.090,0.044,-0.050,-0.016,0,0,242,0,242,1.265,1.000,0.000,1.000,0.000
97041,4.425,-2.151,1.084,-0.031,-0.051,-0.050,0.043,-0.051,-0.017,1.695,0.096,-0.074,0.414,-0.011,-0.074,0.044,-0.051,-0.017,0,0,242,0,242,1.265,1.000,0.000,1.000,0.000
97052,4.568,-1.840,1.089,-0.044,-0.046,-0.048,0.043,-0.052,-0.018,1.695,0.096,-0.090,0.415,-0.011,-0.074,0.043,-0.051,-0.017,0,0,242,0,242,1.264,1.000,0.000,1.000,0.000
97063,4.265,-1.928,0.936,-0.047,-0.050,-0.045,0.043,-0.052,-0.018,1.695,0.096,-0.074,0.418,-0.011,-0.090,0.043,-0.052,-0.018,0,0,242,0,242,1.264,1.000,0.000,1.000,0.000
97074,4.458,-1.992,1.059,-0.047,-0.045,-0.039,0.042,-0.053,-0.018,1.695,0.096,-0.090,0.420,-0.011,-0.074,0.043,-0.052,-0.018,0,0,242,0,242,1.264,1.000,0.000,1.000,0.000
97085,4.525,-1.672,1.083,-0.054,-0.039,-0.023,0.042,-0.053,-0.019,1.695,0.096,-0.074,0.422,-0.011,-0.090,0.042,-0.053,-0.018,0,0,242,0,242,1.263,1.000,0.000,1.000,0.000
97096,4.419,-2.036,1.082,-0.037,-0.029,-0.002,0.041,-0.053,-0.019,1.695,0.096,-0.074,0.424,-0.011,-0.090,0.042,-0.053,-0.019,0,0,242,0,242,1.263,1.000,0.000,1.000,0.000
97107,4.357,-1.824,1.025,-0.038,-0.017,0.004,0.041,-0.053,-0.019,1.695,0.096,-0.074,0.427,-0.011,-0.106,0.041,-0.053,-0.019,0,0,242,0,242,1.263,1.000,0.000,1.000,0.000
97118,4.070,-1.993,0.879,-0.028,-0.011,0.002,0.040,-0.053,-0.019,1.695,0.096,-0.058,0.428,-0.011,-0.090,0.041,-0.053,-0.019,0,0,242,0,242,1.263,1.000,0.000,1.000,0.000
97129,4.332,-2.060,1.089,-0.016,0.004,0.001,0.040,-0.053,-0.019,1.695,0.096,-0.090,0.431,-0.011,-0.090,0.040,-0.053,-0.019,0,0,242,0,242,1.263,1.000,0.000,1.000,0.000
97140,4.433,-1.855,1.098,-0.015,0.012,0.002,0.040,-0.053,-0.019,1.695,0.096,-0.090,0.433,-0.011,-0.074,0.040,-0.053,-0.019,0,0,242,0,242,1.263,1.000,0.000,1.000,0.000
97151,4.221,-2.122,1.080,-0.010,0.006,0.000,0.040,-0.053,-0.019,1.695,0.096,-0.074,0.435,-0.011,-0.074,0.040,-0.053,-0.019,0,0,242,0,242,1.263,1.000,0.000,1.000,0.000
97162,4.461,-2.232,1.304,-0.011,0.002,-0.004,0.040,-0.053,-0.019,1.695,0.096,-0.074,0.437,-0.011,-0.074,0.040,-0.053,-0.019,0,0,242,0,242,1.263,1.000,0.000,1.000,0.000
97173,4.399,-1.971,1.253,-0.025,-0.009,-0.013,0.040,-0.053,-0.019,1.695,0.096,-0.074,0.440,-0.011,-0.090,0.040,-0.053,-0.019,0,0,242,0,242,1.263,1.000,0.000,1.000,0.000
97184,4.375,-2.166,1.052,-0.019,-0.017,-0.046,0.040,-0.054,-0.019,1.695,0.096,-0.058,0.441,-0.011,-0.074,0.040,-0.053,-0.019,0,0,242,0,242,1.263,1.000,0.000,1.000,0.000
97195,4.330,-1.895,0.944,-0.012,-0.007,-0.055,0.040,-0.054,-0.020,1.695,0.096,-0.058,0.444,-0.012,-0.074,0.040,-0.054,-0.019,0,0,242,0,242,1.263,1.000,0.000,1.000,0.000
97206,4.078,-1.986,0.804,0.010,0.000,-0.064,0.040,-0.054,-0.020,1.695,0.096,-0.074,0.446,-0.012,-0.074,0.040,-0.054,-0.020,0,0,242,0,242,1.263,1.000,0.000,1.000,0.000
97217,4.465,-1.941,1.042,0.028,0.015,-0.064,0.040,-0.053,-0.021,1.695,0.096,-0.074,0.448,-0.012,-0.074,0.040,-0.054,-0.020,0,0,242,0,242,1.262,1.000,0.000,1.000,0.000
97228,4.485,-1.841,1.047,0.038,0.016,-0.055,0.040,-0.053,-0.022,1.695,0.096,-0.074,0.450,-0.012,-0.090,0.040,-0.053,-0.021,0,0,242,0,242,1.262,1.000,0.000,1.000,0.000
97239,4.230,-2.203,0.925,0.060,0.009,-0.057,0.041,-0.053,-0.022,1.695,0.096,-0.074,0.453,-0.012,-0.090,0.040,-0.053,-0.022,0,0,242,0,242,1.261,1.000,0.000,1.000,0.000
97250,4.569,-2.210,1.119,0.074,0.009,-0.062,0.042,-0.053,-0.023,1.695,0.096,-0.090,0.454,-0.012,-0.090,0.041,-0.053,-0.022,0,0,242,0,242,1.261,1.000,0.000,1.000,0.000
97261,4.486,-2.025,1.113,0.082,-0.002,-0.065,0.042,-0.053,-0.023,1.695,0.096,-0.090,0.457,-0.012,-0.074,0.042,-0.053,-0.023,0,0,242,0,242,1.261,1.000,0.000,1.000,0.000
97272,4.592,-2.082,1.169,0.107,-0.018,-0.077,0.043,-0.053,-0.024,1.695,0.096,-0.042,0.459,-0.012,-0.074,0.042,-0.053,-0.023,0,0,242,0,242,1.260,1.000,0.000,1.000,0.000
97283,4.472,-1.855,1.120,0.111,-0.022,-0.065,0.045,-0.054,-0.025,1.695,0.096,-0.074,0.461,-0.012,-0.074,0.043,-0.053,-0.024,0,0,242,0,242,1.260,1.000,0.000,1.000,0.000
97294,4.302,-2.092,1.076,0.128,-0.028,-0.051,0.046,-0.054,-0.025,1.695,0.096,-0.090,0.463,-0.012,-0.090,0.045,-0.054,-0.025,0,0,242,0,242,1.259,1.000,0.000,1.000,0.000
97305,4.733,-2.047,1.253,0.133,-0.024,-0.029,0.047,-0.054,-0.026,1.695,0.096,-0.074,0.465,-0.012,-0.058,0.046,-0.054,-0.025,0,0,242,0,242,1.259,1.000,0.000,1.000,0.000
97316,4.522,-1.917,1.299,0.128,-0.027,-0.002,0.048,-0.054,-0.026,1.695,0.096,-0.074,0.467,-0.012,-0.090,0.047,-0.054,-0.026,0,0,242,0,242,1.259,1.000,0.000,1.000,0.000
97327,4.289,-2.148,1.283,0.127,-0.039,0.012,0.050,-0.055,-0.026,1.695,0.096,-0.074,0.470,-0.012,-0.058,0.048,-0.054,-0.026,0,0,242,0,242,1.259,1.000,0.000,1.000,0.000
97338,4.563,-1.982,1.472,0.112,-0.039,0.024,0.051,-0.055,-0.025,1.695,0.096,-0.058,0.472,-0.012,-0.090,0.050,-0.055,-0.026,0,0,242,0,242,1.259,1.000,0.000,1.000,0.000
97349,4.266,-1.824,1.396,0.096,-0.043,0.034,0.052,-0.056,-0.025,1.695,0.096,-0.074,0.474,-0.012,-0.090,0.051,-0.055,-0.025,0,0,242,0,242,1.259,1.000,0.000,1.000,0.000
97360,4.460,-1.646,1.591,0.067,-0.044,0.044,0.052,-0.056,-0.025,1.695,0.096,-0.090,0.476,-0.012,-0.090,0.052,-0.056,-0.025,0,0,242,0,242,1.259,1.000,0.000,1.000,0.000
97371,4.227,-1.415,1.456,0.050,-0.050,0.061,0.053,-0.057,-0.024,1.695,0.096,-0.090,0.477,-0.012,-0.090,0.052,-0.056,-0.025,0,0,242,0,242,1.260,1.000,0.000,1.000,0.000
97382,4.193,-1.721,1.301,0.051,-0.053,0.077,0.053,-0.057,-0.023,1.695,0.096,-0.090,0.479,-0.012,-0.090,0.053,-0.057,-0.024,0,0,242,0,242,1.260,1.000,0.000,1.000,0.000
97393,4.363,-1.424,1.392,0.044,-0.034,0.093,0.054,-0.057,-0.022,1.695,0.096,-0.090,0.481,-0.012,-0.074,0.053,-0.057,-0.023,0,0,242,0,242,1.260,1.000,0.000,1.000,0.000
97404,3.916,-1.357,1.149,0.038,-0.032,0.087,0.054,-0.058,-0.021,1.695,0.096,-0.074,0.484,-0.012,-0.074,0.054,-0.057,-0.022,0,0,242,0,242,1.261,1.000,0.000,1.000,0.000
97415,3.899,-1.761,1.077,0.046,-0.015,0.068,0.055,-0.058,-0.021,1.695,0.096,-0.090,0.486,-0.013,-0.058,0.054,-0.058,-0.021,0,0,242,0,242,1.262,1.000,0.000,1.000,0.000
97426,4.149,-1.550,1.141,0.043,0.013,0.048,0.055,-0.058,-0.020,1.695,0.096,-0.074,0.488,-0.013,-0.074,0.055,-0.058,-0.021,0,0,242,0,242,1.262,1.000,0.000,1.000,0.000
97437,3.855,-1.634,0.968,0.045,0.044,0.028,0.056,-0.057,-0.020,1.695,0.096,-0.074,0.490,-0.013,-0.058,0.055,-0.058,-0.020,0,0,242,0,242,1.262,1.000,0.000,1.000,0.000
97448,4.332,-1.579,1.101,0.044,0.112,0.005,0.056,-0.056,-0.020,1.695,0.096,-0.090,0.492,-0.013,-0.074,0.056,-0.057,-0.020,0,0,242,0,242,1.262,1.000,0.000,1.000,0.000
97459,4.143,-1.575,0.996,0.036,0.134,0.007,0.056,-0.055,-0.020,1.695,0.096,-0.074,0.494,-0.013,-0.074,0.056,-0.056,-0.020,0,0,242,0,242,1.262,1.000,0.000,1.000,0.000
97470,4.393,-1.867,1.155,0.035,0.154,0.013,0.057,-0.053,-0.020,1.695,0.096,-0.090,0.497,-0.013,-0.090,0.056,-0.055,-0.020,0,0,242,0,242,1.262,1.000,0.000,1.000,0.000
97481,4.530,-1.798,1.170,0.019,0.166,0.016,0.057,-0.052,-0.020,1.695,0.096,-0.074,0.499,-0.013,-0.074,0.057,-0.053,-0.020,0,0,242,0,242,1.263,1.000,0.000,1.000,0.000
97492,4.391,-2.013,1.141,-0.000,0.162,0.005,0.057,-0.050,-0.020,1.695,0.096,-0.074,0.501,-0.013,-0.074,0.057,-0.052,-0.020,0,0,242,0,242,1.263,1.000,0.000,1.000,0.000
97503,4.490,-2.185,1.208,-0.010,0.164,-0.004,0.057,-0.048,-0.020,1.695,0.096,-0.090,0.503,-0.013,-0.074,0.057,-0.050,-0.020,0,0,242,0,242,1.263,1.000,0.000,1.000,0.000
97514,4.624,-1.968,1.177,-0.034,0.166,-0.012,0.057,-0.047,-0.020,1.695,0.096,-0.074,0.505,-0.013,-0.090,0.057,-0.048,-0.020,0,0,242,0,242,1.263,1.000,0.000,1.000,0.000
97525,4.482,-2.005,1.084,-0.052,0.162,-0.018,0.056,-0.045,-0.020,1.695,0.096,-0.106,0.507,-0.013,-0.074,0.057,-0.047,-0.020,0,0,242,0,242,1.263,1.000,0.000,1.000,0.000
97536,4.521,-1.302,0.954,-0.056,0.187,0.012,0.056,-0.043,-0.020,1.695,0.096,-0.090,0.509,-0.013,-0.090,0.056,-0.045,-0.020,0,0,242,0,242,1.262,1.000,0.000,1.000,0.000
97547,4.193,-1.557,0.404,-0.049,0.172,0.001,0.055,-0.042,-0.020,1.695,0.096,-0.058,0.512,-0.013,-0.058,0.056,-0.043,-0.020,0,0,242,0,242,1.263,1.000,0.000,1.000,0.000
97558,4.380,-2.056,0.769,-0.037,0.184,-0.023,0.055,-0.040,-0.020,1.695,0.096,-0.074,0.514,-0.013,-0.074,0.055,-0.042,-0.020,0,0,242,0,242,1.263,1.000,0.000,1.000,0.000
97569,4.750,-1.440,1.071,-0.043,0.161,-0.053,0.054,-0.038,-0.021,1.695,0.096,-0.074,0.516,-0.013,-0.074,0.055,-0.040,-0.020,0,0,242,0,242,1.262,1.000,0.000,1.000,0.000
97580,4.165,-1.911,0.688,-0.025,0.148,-0.079,0.054,-0.037,-0.021,1.695,0.096,-0.074,0.518,-0.013,-0.090,0.054,-0.038,-0.021,0,0,242,0,242,1.262,1.000,0.000,1.000,0.000
97591,4.478,-1.878,1.005,-0.022,0.128,-0.115,0.054,-0.035,-0.022,1.695,0.096,-0.074,0.520,-0.013,-0.074,0.054,-0.037,-0.021,0,0,242,0,242,1.262,1.000,0.000,1.000,0.000
97602,4.693,-1.707,1.241,-0.027,0.115,-0.140,0.053,-0.034,-0.024,1.695,0.096,-0.090,0.522,-0.013,-0.074,0.054,-0.035,-0.022,0,0,242,0,242,1.261,1.000,0.000,1.000,0.000
97613,4.352,-2.122,1.024,-0.033,0.073,-0.169,0.053,-0.033,-0.026,1.695,0.096,-0.090,0.525,-0.013,-0.058,0.053,-0.034,-0.024,0,0,242,0,242,1.260,1.000,0.000,1.000,0.000
97624,4.938,-1.740,1.325,-0.039,0.046,-0.202,0.053,-0.033,-0.028,1.695,0.096,-0.074,0.527,-0.013,-0.090,0.053,-0.033,-0.026,0,0,242,0,242,1.259,1.000,0.000,1.000,0.000
97635,4.752,-1.734,1.357,-0.050,-0.042,-0.198,0.052,-0.033,-0.030,1.695,0.096,-0.058,0.529,-0.013,-0.090,0.053,-0.033,-0.028,0,0,242,0,242,1.258,1.000,0.000,1.000,0.000
97646,5.048,-1.813,1.565,-0.049,-0.093,-0.183,0.052,-0.034,-0.031,1.695,0.096,-0.074,0.531,-0.013,-0.106,0.052,-0.033,-0.030,0,0,242,0,242,1.256,1.000,0.000,1.000,0.000
97657,5.015,-1.508,1.530,-0.056,-0.147,-0.155,0.051,-0.036,-0.033,1.695,0.096,-0.090,0.533,-0.014,-0.058,0.052,-0.034,-0.031,0,0,242,0,242,1.255,1.000,0.000,1.000,0.000
97668,4.746,-1.633,1.402,-0.047,-0.204,-0.133,0.051,-0.038,-0.034,1.695,0.096,-0.074,0.535,-0.014,-0.090,0.051,-0.036,-0.033,0,0,242,0,242,1.254,1.000,0.000,1.000,0.000
97679,4.843,-1.642,1.511,-0.031,-0.246,-0.109,0.050,-0.040,-0.035,1.695,0.096,-0.090,0.538,-0.014,-0.090,0.051,-0.038,-0.034,0,0,242,0,242,1.253,1.000,0.000,1.000,0.000
97690,4.753,-1.398,1.399,-0.025,-0.282,-0.081,0.050,-0.043,-0.036,1.695,0.096,-0.090,0.540,-0.014,-0.074,0.050,-0.040,-0.035,0,0,242,0,242,1.253,1.000,0.000,1.000,0.000
97701,4.446,-1.725,1.265,-0.006,-0.316,-0.064,0.050,-0.046,-0.037,1.695,0.096,-0.090,0.542,-0.014,-0.074,0.050,-0.043,-0.036,0,0,242,0,242,1.252,1.000,0.000,1.000,0.000
97712,4.613,-1.796,1.333,0.010,-0.337,-0.051,0.050,-0.050,-0.037,1.695,0.096,-0.074,0.544,-0.014,-0.074,0.050,-0.046,-0.037,0,0,242,0,242,1.252,1.000,0.000,1.000,0.000
97723,4.104,-1.925,1.183,0.025,-0.375,-0.051,0.050,-0.053,-0.038,1.695,0.096,-0.074,0.546,-0.014,-0.090,0.050,-0.050,-0.037,0,0,242,0,242,1.251,1.000,0.000,1.000,0.000
97734,4.274,-2.086,1.272,0.040,-0.376,-0.065,0.051,-0.057,-0.038,1.695,0.096,-0.074,0.548,-0.014,-0.090,0.050,-0.053,-0.038,0,0,242,0,242,1.251,1.000,0.000,1.000,0.000
97745,4.106,-1.956,1.104,0.046,-0.369,-0.092,0.051,-0.061,-0.039,1.695,0.096,-0.074,0.551,-0.014,-0.090,0.051,-0.057,-0.038,0,0,242,0,242,1.251,1.000,0.000,1.000,0.000
97756,3.790,-2.190,0.912,0.063,-0.357,-0.133,0.052,-0.064,-0.041,1.695,0.096,-0.090,0.553,-0.014,-0.074,0.051,-0.061,-0.039,0,0,242,0,242,1.250,1.000,0.000,1.000,0.000
97767,4.082,-2.267,1.080,0.076,-0.330,-0.171,0.053,-0.068,-0.042,1.695,0.096,-0.090,0.555,-0.014,-0.074,0.052,-0.064,-0.041,0,0,242,0,242,1.249,1.000,0.000,1.000,0.000
97778,4.132,-1.946,1.070,0.077,-0.303,-0.198,0.053,-0.071,-0.044,1.695,0.096,-0.074,0.557,-0.014,-0.074,0.053,-0.068,-0.042,0,0,242,0,242,1.248,1.000,0.000,1.000,0.000
97789,3.872,-2.165,0.931,0.084,-0.287,-0.224,0.054,-0.074,-0.047,1.695,0.096,-0.090,0.559,-0.015,-0.074,0.053,-0.071,-0.044,0,0,242,0,242,1.247,1.000,0.000,1.000,0.000
97800,4.147,-2.243,1.073,0.093,-0.259,-0.237,0.055,-0.076,-0.049,1.695,0.096,-0.074,0.561,-0.015,-0.090,0.054,-0.074,-0.047,0,0,242,0,242,1.246,1.000,0.000,1.000,0.000
97811,3.907,-2.033,0.972,0.096,-0.219,-0.243,0.056,-0.078,-0.051,1.695,0.096,-0.106,0.564,-0.015,-0.074,0.055,-0.076,-0.049,0,0,242,0,242,1.244,1.000,0.000,1.000,0.000
97822,4.074,-2.164,1.025,0.109,-0.197,-0.244,0.057,-0.080,-0.054,1.695,0.096,-0.074,0.566,-0.015,-0.074,0.056,-0.078,-0.051,0,0,242,0,242,1.243,1.000,0.000,1.000,0.000
97833,4.332,-1.907,1.186,0.101,-0.176,-0.238,0.058,-0.082,-0.056,1.695,0.096,-0.090,0.568,-0.015,-0.074,0.057,-0.080,-0.054,0,0,242,0,242,1.241,1.000,0.000,1.000,0.000
97844,3.990,-1.971,1.094,0.101,-0.171,-0.232,0.059,-0.084,-0.059,1.695,0.096,-0.074,0.570,-0.015,-0.074,0.058,-0.082,-0.056,0,0,242,0,242,1.240,1.000,0.000,1.000,0.000
97855,4.155,-2.092,1.147,0.101,-0.161,-0.220,0.060,-0.085,-0.061,1.695,0.096,-0.090,0.572,-0.015,-0.090,0.059,-0.084,-0.059,0,0,242,0,242,1.238,1.000,0.000,1.000,0.000
97866,4.406,-1.747,1.220,0.090,-0.148,-0.193,0.061,-0.087,-0.063,1.695,0.096,-0.090,0.574,-0.015,-0.074,0.060,-0.085,-0.061,0,0,242,0,242,1.237,1.000,0.000,1.000,0.000
97877,4.169,-1.752,1.138,0.083,-0.143,-0.160,0.062,-0.088,-0.064,1.695,0.096,-0.090,0.577,-0.015,-0.074,0.061,-0.087,-0.063,0,0,242,0,242,1.235,1.000,0.000,1.000,0.000
97888,4.142,-1.971,1.065,0.091,-0.133,-0.123,0.063,-0.090,-0.066,1.695,0.096,-0.106,0.578,-0.016,-0.058,0.062,-0.088,-0.064,0,0,242,0,242,1.234,1.000,0.000,1.000,0.000
97899,4.134,-1.662,1.030,0.084,-0.098,-0.039,0.064,-0.091,-0.066,1.695,0.096,-0.074,0.581,-0.016,-0.074,0.063,-0.090,-0.066,0,0,242,0,242,1.234,1.000,0.000,1.000,0.000
97910,4.038,-2.043,1.108,0.090,-0.086,-0.006,0.065,-0.091,-0.066,1.695,0.096,-0.074,0.583,-0.016,-0.074,0.064,-0.091,-0.066,0,0,242,0,242,1.233,1.000,0.000,1.000,0.000
97921,4.234,-1.798,1.084,0.076,-0.065,0.022,0.065,-0.092,-0.066,1.695,0.096,-0.058,0.584,-0.016,-0.074,0.065,-0.091,-0.066,0,0,242,0,242,1.233,1.000,0.000,1.000,0.000
97932,4.011,-1.789,1.046,0.066,-0.048,0.045,0.066,-0.093,-0.065,1.695,0.096,-0.074,0.586,-0.016,-0.074,0.065,-0.092,-0.066,0,0,242,0,242,1.234,1.000,0.000,1.000,0.000
97943,3.917,-2.133,1.102,0.067,-0.033,0.059,0.067,-0.093,-0.065,1.695,0.096,-0.074,0.588,-0.016,-0.090,0.066,-0.093,-0.065,0,0,242,0,242,1.234,1.000,0.000,1.000,0.000
97954,4.129,-2.050,1.122,0.057,-0.016,0.064,0.067,-0.093,-0.064,1.695,0.096,-0.090,0.590,-0.016,-0.074,0.067,-0.093,-0.065,0,0,242,0,242,1.234,1.000,0.000,1.000,0.000
97965,3.903,-1.926,1.049,0.041,-0.001,0.059,0.068,-0.093,-0.063,1.695,0.096,-0.090,0.592,-0.017,-0.074,0.067,-0.093,-0.064,0,0,242,0,242,1.235,1.000,0.000,1.000,0.000
97976,3.767,-2.248,1.070,0.039,0.013,0.045,0.068,-0.093,-0.063,1.695,0.096,-0.090,0.594,-0.017,-0.090,0.068,-0.093,-0.063,0,0,242,0,242,1.235,1.000,0.000,1.000,0.000
97987,3.825,-1.879,0.980,0.008,0.051,0.018,0.068,-0.092,-0.063,1.695,0.096,-0.074,0.596,-0.017,-0.090,0.068,-0.093,-0.063,0,0,242,0,242,1.235,1.000,0.000,1.000,0.000
97998,3.708,-2.109,1.003,0.011,0.071,0.004,0.068,-0.092,-0.063,1.695,0.096,-0.090,0.599,-0.017,-0.090,0.068,-0.092,-0.063,0,0,242,0,242,1.235,1.000,0.000,1.000,0.000
98009,4.011,-1.975,1.107,0.011,0.095,-0.002,0.068,-0.091,-0.063,1.695,0.096,-0.074,0.601,-0.017,-0.090,0.068,-0.092,-0.063,0,0,242,0,242,1.235,1.000,0.000,1.000,0.000
98020,4.003,-1.875,1.083,-0.003,0.109,-0.010,0.068,-0.090,-0.063,1.695,0.096,-0.090,0.603,-0.017,-0.090,0.068,-0.091,-0.063,0,0,242,0,242,1.235,1.000,0.000,1.000,0.000
98031,3.843,-2.185,1.017,0.001,0.119,-0.020,0.068,-0.089,-0.063,1.695,0.096,-0.090,0.605,-0.017,-0.074,0.068,-0.090,-0.063,0,0,242,0,242,1.235,1.000,0.000,1.000,0.000
98042,4.165,-2.054,1.161,-0.000,0.132,-0.026,0.068,-0.087,-0.063,1.695,0.096,-0.090,0.607,-0.017,-0.074,0.068,-0.089,-0.063,0,0,242,0,242,1.235,1.000,0.000,1.000,0.000
98053,4.179,-1.734,1.165,-0.012,0.137,-0.024,0.068,-0.086,-0.064,1.695,0.096,-0.058,0.610,-0.018,-0.058,0.068,-0.087,-0.063,0,0,242,0,242,1.235,1.000,0.000,1.000,0.000
98064,3.980,-2.001,1.051,-0.011,0.132,-0.021,0.068,-0.085,-0.064,1.695,0.096,-0.090,0.612,-0.018,-0.074,0.068,-0.086,-0.064,0,0,242,0,242,1.235,1.000,0.000,1.000,0.000
98075,4.352,-1.630,1.102,-0.012,0.139,0.001,0.068,-0.083,-0.064,1.695,0.096,-0.090,0.614,-0.018,-0.090,0.068,-0.085,-0.064,0,0,242,0,242,1.235,1.000,0.000,1.000,0.000
98086,4.138,-1.873,1.055,-0.005,0.128,0.012,0.068,-0.082,-0.064,1.695,0.096,-0.074,0.616,-0.018,-0.090,0.068,-0.083,-0.064,0,0,242,0,242,1.235,1.000,0.000,1.000,0.000
98097,4.331,-1.974,1.150,0.003,0.121,0.024,0.068,-0.081,-0.063,1.695,0.096,-0.090,0.618,-0.018,-0.090,0.068,-0.082,-0.064,0,0,242,0,242,1.235,1.000,0.000,1.000,0.000
98108,4.406,-1.648,1.109,0.003,0.112,0.035,0.068,-0.079,-0.063,1.695,0.096,-0.058,0.620,-0.018,-0.058,0.068,-0.081,-0.063,0,0,242,0,242,1.235,1.000,0.000,1.000,0.000
98119,4.124,-1.841,0.996,0.014,0.099,0.039,0.068,-0.079,-0.063,1.695,0.096,-0.058,0.623,-0.018,-0.074,0.068,-0.079,-0.063,0,0,242,0,242,1.235,1.000,0.000,1.000,0.000
98130,4.229,-1.962,0.982,0.032,0.093,0.039,0.068,-0.078,-0.062,1.695,0.096,-0.058,0.625,-0.019,-0.090,0.068,-0.079,-0.063,0,0,242,0,242,1.236,1.000,0.000,1.000,0.000
98141,4.410,-1.672,0.991,0.035,0.092,0.043,0.069,-0.077,-0.062,1.695,0.096,-0.074,0.627,-0.019,-0.074,0.068,-0.078,-0.062,0,0,242,0,242,1.236,1.000,0.000,1.000,0.000
98152,4.165,-1.861,0.872,0.045,0.086,0.043,0.069,-0.076,-0.061,1.695,0.096,-0.074,0.629,-0.019,-0.074,0.069,-0.077,-0.062,0,0,242,0,242,1.236,1.000,0.000,1.000,0.000
98163,4.443,-1.911,0.932,0.055,0.081,0.031,0.070,-0.075,-0.061,1.695,0.096,-0.090,0.631,-0.019,-0.074,0.069,-0.076,-0.061,0,0,242,0,242,1.236,1.000,0.000,1.000,0.000
98174,4.125,-1.974,0.828,0.061,0.072,0.012,0.070,-0.074,-0.061,1.695,0.096,-0.074,0.633,-0.019,-0.074,0.070,-0.075,-0.061,0,0,242,0,242,1.236,1.000,0.000,1.000,0.000
98185,4.191,-2.173,0.761,0.076,0.066,-0.015,0.071,-0.074,-0.061,1.695,0.096,-0.074,0.636,-0.019,-0.074,0.070,-0.074,-0.061,0,0,242,0,242,1.237,1.000,0.000,1.000,0.000
98196,4.336,-1.881,0.864,0.074,0.072,-0.035,0.072,-0.073,-0.061,1.695,0.096,-0.074,0.638,-0.019,-0.074,0.071,-0.074,-0.061,0,0,242,0,242,1.236,1.000,0.000,1.000,0.000
98207,4.112,-1.880,0.864,0.076,0.068,-0.057,0.073,-0.072,-0.062,1.695,0.096,-0.090,0.640,-0.019,-0.106,0.072,-0.073,-0.061,0,0,242,0,242,1.236,1.000,0.000,1.000,0.000
98218,4.217,-2.041,0.896,0.083,0.064,-0.075,0.073,-0.072,-0.063,1.695,0.096,-0.090,0.642,-0.020,-0.090,0.073,-0.072,-0.062,0,0,242,0,242,1.236,1.000,0.000,1.000,0.000
98229,4.431,-1.806,1.058,0.071,0.065,-0.082,0.074,-0.071,-0.064,1.695,0.096,-0.074,0.644,-0.020,-0.090,0.073,-0.072,-0.063,0,0,242,0,242,1.235,1.000,0.000,1.000,0.000
98240,4.228,-1.750,1.078,0.060,0.049,-0.083,0.075,-0.070,-0.064,1.695,0.096,-0.090,0.646,-0.020,-0.074,0.074,-0.071,-0.064,0,0,242,0,242,1.235,1.000,0.000,1.000,0.000
98251,4.484,-1.749,1.120,0.041,0.017,-0.084,0.075,-0.070,-0.065,1.695,0.096,-0.090,0.649,-0.020,-0.074,0.075,-0.070,-0.064,0,0,242,0,242,1.234,1.000,0.000,1.000,0.000
98262,4.283,-1.696,0.969,0.030,-0.001,-0.086,0.076,-0.070,-0.066,1.695,0.096,-0.090,0.651,-0.020,-0.074,0.075,-0.070,-0.065,0,0,242,0,242,1.234,1.000,0.000,1.000,0.000
98273,4.241,-1.852,1.002,0.036,-0.015,-0.088,0.076,-0.070,-0.067,1.695,0.096,-0.090,0.653,-0.020,-0.090,0.076,-0.070,-0.066,0,0,242,0,242,1.233,1.000,0.000,1.000,0.000
98284,4.449,-1.505,1.083,0.029,-0.022,-0.086,0.076,-0.071,-0.068,1.695,0.096,-0.074,0.655,-0.020,-0.074,0.076,-0.070,-0.067,0,0,242,0,242,1.233,1.000,0.000,1.000,0.000
98295,4.198,-1.369,0.936,0.028,-0.033,-0.076,0.076,-0.071,-0.069,1.695,0.096,-0.090,0.657,-0.021,-0.074,0.076,-0.071,-0.068,0,0,242,0,242,1.232,1.000,0.000,1.000,0.000
98306,4.270,-1.696,1.024,0.032,-0.042,-0.064,0.077,-0.071,-0.069,1.695,0.096,-0.090,0.659,-0.021,-0.090,0.076,-0.071,-0.069,0,0,242,0,242,1.232,1.000,0.000,1.000,0.000
98317,4.612,-1.592,1.124,0.023,-0.049,-0.046,0.077,-0.072,-0.070,1.695,0.096,-0.074,0.662,-0.021,-0.090,0.077,-0.071,-0.069,0,0,242,0,242,1.231,1.000,0.000,1.000,0.000
98328,4.345,-1.579,0.951,0.012,-0.066,-0.033,0.077,-0.073,-0.070,1.695,0.096,-0.090,0.663,-0.021,-0.074,0.077,-0.072,-0.070,0,0,242,0,242,1.231,1.000,0.000,1.000,0.000
98339,4.458,-1.788,0.968,0.013,-0.072,-0.034,0.077,-0.073,-0.070,1.695,0.096,-0.090,0.666,-0.021,-0.090,0.077,-0.073,-0.070,0,0,242,0,242,1.231,1.000,0.000,1.000,0.000
98350,4.118,-1.696,0.897,0.003,-0.073,-0.048,0.077,-0.074,-0.071,1.695,0.096,-0.090,0.668,-0.021,-0.090,0.077,-0.073,-0.070,0,0,242,0,242,1.231,1.000,0.000,1.000,0.000
98361,4.014,-1.929,0.865,0.003,-0.071,-0.064,0.077,-0.075,-0.072,1.695,0.096,-0.074,0.670,-0.022,-0.090,0.077,-0.074,-0.071,0,0,242,0,242,1.230,1.000,0.000,1.000,0.000
98372,4.370,-1.704,0.838,-0.005,-0.055,-0.072,0.077,-0.075,-0.072,1.695,0.096,-0.074,0.672,-0.022,-0.074,0.077,-0.075,-0.072,0,0,242,0,242,1.230,1.000,0.000,1.000,0.000
98383,4.168,-1.682,0.426,-0.014,-0.034,-0.071,0.077,-0.076,-0.073,1.695,0.096,-0.074,0.675,-0.022,-0.074,0.077,-0.075,-0.072,0,0,242,0,242,1.229,1.000,0.000,1.000,0.000
98394,4.212,-1.915,0.220,-0.001,-0.004,-0.067,0.077,-0.076,-0.074,1.695,0.096,-0.074,0.676,-0.022,-0.090,0.077,-0.076,-0.073,0,0,242,0,242,1.229,1.000,0.000,1.000,0.000
98405,4.484,-1.618,0.194,0.012,0.040,-0.053,0.077,-0.075,-0.074,1.695,0.096,-0.074,0.679,-0.022,-0.090,0.077,-0.076,-0.074,0,0,242,0,242,1.229,1.000,0.000,1.000,0.000
98416,4.331,-1.824,0.225,0.019,0.076,-0.043,0.077,-0.074,-0.075,1.695,0.096,-0.074,0.681,-0.022,-0.074,0.077,-0.075,-0.074,0,0,242,0,242,1.228,1.000,0.000,1.000,0.000
98427,4.367,-1.866,0.643,0.032,0.123,-0.068,0.078,-0.073,-0.075,1.695,0.096,-0.090,0.683,-0.022,-0.074,0.077,-0.074,-0.075,0,0,242,0,242,1.228,1.000,0.000,1.000,0.000
98438,4.336,-1.858,0.826,0.014,0.130,-0.078,0.078,-0.072,-0.076,1.695,0.096,-0.090,0.685,-0.023,-0.074,0.078,-0.073,-0.075,0,0,242,0,242,1.228,1.000,0.000,1.000,0.000
98449,4.390,-2.423,0.658,-0.001,0.117,-0.097,0.078,-0.071,-0.077,1.695,0.096,-0.090,0.688,-0.023,-0.074,0.078,-0.072,-0.076,0,0,242,0,242,1.227,1.000,0.000,1.000,0.000
98460,4.652,-2.439,0.371,-0.026,0.121,-0.110,0.078,-0.070,-0.078,1.695,0.096,-0.058,0.689,-0.023,-0.090,0.078,-0.071,-0.077,0,0,242,0,242,1.226,1.000,0.000,1.000,0.000
98471,4.476,-2.230,0.281,-0.050,0.137,-0.127,0.077,-0.068,-0.079,1.695,0.096,-0.090,0.691,-0.023,-0.090,0.078,-0.070,-0.078,0,0,242,0,242,1.226,1.000,0.000,1.000,0.000
98482,4.396,-2.472,0.442,-0.056,0.144,-0.143,0.077,-0.067,-0.081,1.695,0.096,-0.090,0.693,-0.023,-0.106,0.077,-0.068,-0.079,0,0,242,0,242,1.225,1.000,0.000,1.000,0.000
98493,4.635,-2.384,0.662,-0.077,0.149,-0.161,0.076,-0.065,-0.082,1.695,0.096,-0.058,0.695,-0.023,-0.074,0.077,-0.067,-0.081,0,0,242,0,242,1.224,1.000,0.000,1.000,0.000
98504,4.382,-2.181,0.790,-0.105,0.147,-0.180,0.075,-0.064,-0.084,1.695,0.096,-0.090,0.697,-0.024,-0.074,0.076,-0.065,-0.082,0,0,242,0,242,1.223,1.000,0.000,1.000,0.000
98515,4.545,-2.091,1.180,-0.142,0.131,-0.205,0.073,-0.062,-0.086,1.695,0.096,-0.074,0.699,-0.024,-0.090,0.075,-0.064,-0.084,0,0,242,0,242,1.222,1.000,0.000,1.000,0.000
